timestamp,elapsed,target_x,target_y,target_z,pos_x,pos_y,pos_z,marker_id,publish_count,err_x_cm,err_y_cm,err_z_cm,err_3d_cm,cmd_lr,cmd_fb,cmd_ud,vel_x_pub,vel_y_pub,vel_z_pub,tello_height_cm,tello_baro_cm,tello_battery,tello_temp_c,tello_pitch,tello_roll,tello_yaw,tello_vgx,tello_vgy,tello_vgz
1778075534.94858,9.059906005859375e-06,0.07807999387418116,1.2596326374998155,2.5775238615834355,0.059809498854092515,1.2834820825434372,2.5199488330970836,0,0,1.8270495020088644,-2.384944504362174,5.757502848635188,6.494221217645768,10,-30,-13,0.0,0.0,0.0,30,247976.00000000003,45,78.5,1,0,-2,0,0,0
1778075535.021034,0.0724630355834961,0.07807999387418116,1.2596326374998155,2.5775238615834355,0.032240175066218055,1.3074232321563053,2.5130784258428167,0,3,4.58398188079631,-4.779059465648983,6.444543574061878,9.240370184016454,12,-6,-11,-0.38050808848077616,0.3304325178708729,-0.09482443427050455,30,247979.0,45,78.5,0,0,-2,0,0,0
1778075535.092334,0.14376306533813477,0.07807999387418116,1.2596326374998155,2.5775238615834355,0.038710209972261815,1.2654517430497672,2.5353374459137954,0,7,3.936978390191934,-0.5819105549951686,4.21864156696401,5.799599590434638,0,5,14,0.09074378970540092,-0.5886601906194512,0.31218808950820315,30,247979.0,45,78.5,0,0,-2,0,0,0
1778075535.161462,0.2128911018371582,0.07807999387418116,1.2596326374998155,2.5775238615834355,0.03893181826815786,1.2666008206673216,2.535335046068934,0,10,3.91481756060233,-0.6968183167506137,4.21888155145016,5.7974402838257895,2,-2,0,0.0032057658096389377,0.01662245415535104,-3.471594136098828e-05,30,247976.00000000003,45,78.5,0,0,-2,0,0,0
1778075535.230475,0.2819039821624756,0.07807999387418116,1.2596326374998155,2.5775238615834355,0.05929950543969994,1.286972733002477,2.519776660420611,0,14,1.878048843448122,-2.7340095502661477,5.774720116282461,6.659524615219968,-6,-9,-9,0.2951287799542862,0.29519000278100116,-0.22544176644972488,30,247975.0,45,77.5,1,0,-2,0,0,0
1778075535.299798,0.3512270450592041,0.07807999387418116,1.2596326374998155,2.5775238615834355,0.059479484080167185,1.288106195050493,2.5197698059735085,0,17,1.8600509794013973,-2.8473557550677597,5.775405560992697,6.702427458453762,1,-3,-2,0.002596230358940755,0.016350432318673714,-9.887686458065019e-05,30,247967.0,45,77.5,1,0,-2,0,0,0
1778075535.369173,0.42060208320617676,0.07807999387418116,1.2596326374998155,2.5775238615834355,0.059479484080167185,1.288106195050493,2.5197698059735085,0,21,1.8600509794013973,-2.8473557550677597,5.775405560992697,6.702427458453762,1,-3,-2,0.0,0.0,0.0,30,247967.0,45,77.5,1,0,-2,0,0,0
1778075535.438657,0.49008607864379883,0.07807999387418116,1.2596326374998155,2.5775238615834355,0.059479484080167185,1.288106195050493,2.5197698059735085,0,24,1.8600509794013973,-2.8473557550677597,5.775405560992697,6.702427458453762,1,-3,-2,0.0,0.0,0.0,30,247971.99999999997,45,77.5,0,0,-2,0,0,0
1778075535.508348,0.559777021408081,0.07807999387418116,1.2596326374998155,2.5775238615834355,0.06545145362563427,1.249245085459732,2.5499222682033946,0,28,1.2628540248546885,1.038755204008357,2.7601593380040867,3.2081602567698027,-1,8,14,0.0856921905284918,-0.5576206612988759,0.4326596977152638,30,247963.0,45,77.5,0,0,-2,0,0,0
1778075535.5797,0.6311290264129639,0.07807999387418116,1.2596326374998155,2.5775238615834355,0.06326258412044694,1.2914728344299649,2.5269910455118474,0,31,1.4817409753734219,-3.184019693014939,5.0532816071588105,6.153794985604985,1,-11,-17,-0.030677056727943974,0.5918228782406774,-0.32138161625560474,30,247963.0,45,77.5,0,0,-2,0,0,0
1778075535.6514182,0.7028472423553467,0.07807999387418116,1.2596326374998155,2.5775238615834355,0.06929999651673854,1.2019944126979956,2.5733301996069846,0,35,0.8779997357442615,5.76382248018199,0.419366197645088,5.845374335895483,-1,15,30,0.08418241191529299,-1.247638700380594,0.6461280929292121,30,247965.0,45,77.5,0,0,-2,0,0,0
1778075535.72298,0.7744090557098389,0.07807999387418116,1.2596326374998155,2.5775238615834355,0.040372802753854194,1.2720179960357618,2.5431973940835575,0,38,3.7707191120326966,-1.2385358535946356,3.4326467499878,5.247414353059023,12,-12,-25,-0.40422667351355607,0.9785048764890002,-0.4210738117291654,30,247978.00000000003,45,77.5,0,0,-2,0,0,0
1778075535.793134,0.8445630073547363,0.07807999387418116,1.2596326374998155,2.5775238615834355,0.040372802753854194,1.2720179960357618,2.5431973940835575,0,42,3.7707191120326966,-1.2385358535946356,3.4326467499878,5.247414353059023,2,-2,0,0.0,0.0,0.0,30,247978.00000000003,45,77.5,0,0,-2,0,0,0
1778075535.863484,0.9149129390716553,0.07807999387418116,1.2596326374998155,2.5775238615834355,0.06719544409452642,1.2524114846806071,2.557157204878324,0,45,1.0884549779654737,0.7221152819208321,2.0366656705111286,2.4195437117109435,-8,3,7,0.38127458955616106,-0.2786997922620495,0.19843389260048735,30,247979.0,45,77.5,0,0,-2,0,0,0
1778075535.934558,0.9859869480133057,0.07807999387418116,1.2596326374998155,2.5775238615834355,0.04149132754540935,1.2718399493648591,2.5433866563155467,0,49,3.6588666328771806,-1.2207311865043646,3.413720526788877,5.150822992678556,11,-7,-7,-0.3616528310682372,0.27335540760339194,-0.19374942778425075,30,247971.99999999997,45,77.5,0,0,-2,0,0,0
1778075536.004297,1.0557260513305664,0.07807999387418116,1.2596326374998155,2.5775238615834355,0.04149132754540935,1.2718399493648591,2.5433866563155467,0,52,3.6588666328771806,-1.2207311865043646,3.413720526788877,5.150822992678556,2,-2,0,0.0,0.0,0.0,30,247971.99999999997,45,77.5,0,0,-2,0,0,0
1778075536.074836,1.126265048980713,0.07807999387418116,1.2596326374998155,2.5775238615834355,0.04125683280905784,1.2706706668024226,2.5433917552464607,0,56,3.6823161065123315,-1.103802930260711,3.4132106336974832,5.140801459608983,2,-2,0,-0.0033243275941421367,-0.016576398891232434,7.228527600048221e-05,30,247971.0,45,77.5,0,0,-2,0,0,0
1778075536.145804,1.197232961654663,0.07807999387418116,1.2596326374998155,2.5775238615834355,0.06452408436492875,1.246103587604491,2.550866680948372,0,59,1.3555909509252408,1.352904989532444,2.6657180635063504,3.282381990420406,-7,0,9,0.3278559376935358,-0.3461716467666275,0.1053282451218987,30,247973.99999999997,45,77.5,0,0,-2,0,0,0
1778075536.2165172,1.2679462432861328,0.07807999387418116,1.2596326374998155,2.5775238615834355,0.06562053488918412,1.2456410725217881,2.550591511366374,0,63,1.2459458984997034,1.3991564978027338,2.693235021706153,3.280782676355809,0,-2,1,0.015505581115152456,-0.006540710203683468,-0.003891342271910139,30,247973.99999999997,45,77.5,0,0,-2,0,0,0
1778075536.288216,1.3396451473236084,0.07807999387418116,1.2596326374998155,2.5775238615834355,0.06663078051938082,1.2911418550738731,2.534412092999788,0,67,1.144921335480034,-3.150921757405767,4.311176858364751,5.461263470098307,0,-8,-18,0.014090112586221096,0.6346091779632037,-0.22565781979218713,30,247971.0,45,78.0,0,0,-1,0,0,0
1778075536.358987,1.4104161262512207,0.07807999387418116,1.2596326374998155,2.5775238615834355,0.0427272056797277,1.2668360793795135,2.5438107234510885,0,70,3.5352788194453457,-0.7203441879698014,3.3713138132347,4.937899240331645,10,0,8,-0.337759561925839,-0.34344269448668613,0.1328034540954118,30,247969.99999999997,45,78.0,0,0,-1,0,0,0
1778075536.425401,1.476830005645752,0.07807999387418116,1.2596326374998155,2.5775238615834355,0.06386875592934775,1.2899984803194187,2.534908749262277,0,73,1.4211237944833408,-3.0365842819603195,4.261511232115867,5.422261052563302,-6,-6,-11,0.31833030147250996,0.3487584395169732,-0.13403785880251842,30,247969.99999999997,45,78.0,0,0,-1,0,0,0
1778075536.49211,1.543539047241211,0.07807999387418116,1.2596326374998155,2.5775238615834355,0.06999406675824123,1.245095824627835,2.558177019739841,0,77,0.808592711593993,1.4536812871980498,1.9346841843594476,2.551472976773081,-1,6,17,0.09182129861854346,-0.6731119892845275,0.34880235004227833,30,247971.0,45,78.0,0,0,-1,0,0,0
1778075536.559767,1.6111960411071777,0.07807999387418116,1.2596326374998155,2.5775238615834355,0.09485994725202397,1.221207464953935,2.5643588725328894,0,80,-1.6779953377842813,3.8425172545880404,1.3164989050546083,4.394744198749522,-9,0,11,0.3675286038135803,-0.3530804179864155,0.09137049164931968,30,247959.0,45,78.0,0,0,-1,0,0,0
1778075536.632172,1.6836011409759521,0.07807999387418116,1.2596326374998155,2.5775238615834355,0.06975955952360323,1.2439274777368474,2.558189383204166,0,84,0.832043435057793,1.5705159762968046,1.9334478379269715,2.6262210972442435,9,-3,-6,-0.3466660190223091,0.3137902278166823,-0.08520793894221669,30,247959.0,45,78.0,0,0,-1,0,0,0
1778075536.7047,1.7561290264129639,0.07807999387418116,1.2596326374998155,2.5775238615834355,0.09466000898929951,1.2200050616488678,2.5643743501943286,0,87,-1.658001511511835,3.962757585094767,1.3149511389106916,4.492383909253991,-9,0,10,0.34332242441180183,-0.32983749552102304,0.0852770896724165,30,247959.0,45,78.0,0,0,-1,0,0,0
1778075536.7763789,1.827807903289795,0.07807999387418116,1.2596326374998155,2.5775238615834355,0.043035009562890386,1.263251347410164,2.544042198911656,0,91,3.504498431129077,-0.36187099103486275,3.348166267177932,4.860316576171446,20,-9,-15,-0.7202261206619994,0.6033337525029624,-0.2836561085856581,30,247976.00000000003,45,78.0,0,0,-1,0,0,0
1778075536.848774,1.900202989578247,0.07807999387418116,1.2596326374998155,2.5775238615834355,0.09445912768292176,1.2188118291207923,2.5643896721161883,0,95,-1.6379133808740607,4.082080837902313,1.3134189467247204,4.590339153050787,-18,5,18,0.710326083667285,-0.6138471623931246,0.28106152292517916,30,247976.00000000003,45,78.0,0,0,-1,0,0,0
1778075536.920545,1.9719741344451904,0.07807999387418116,1.2596326374998155,2.5775238615834355,0.06651922109669361,1.2382957324650605,2.5510103081952846,0,98,1.1560772777487545,2.133690503475494,2.651355338815087,3.5942780873788465,11,-6,-5,-0.3892916385551044,0.2714726563215542,-0.1864170335544694,30,247967.0,45,78.0,0,0,-2,0,0,0
1778075536.991245,2.0426740646362305,0.07807999387418116,1.2596326374998155,2.5775238615834355,0.06651922109669361,1.2382957324650605,2.5510103081952846,0,102,1.1560772777487545,2.133690503475494,2.651355338815087,3.5942780873788465,1,-2,1,0.0,0.0,0.0,30,247967.0,45,78.0,0,0,-2,0,0,0
1778075537.0660212,2.11745023727417,0.07807999387418116,1.2596326374998155,2.5775238615834355,0.06651922109669361,1.2382957324650605,2.5510103081952846,0,106,1.1560772777487545,2.133690503475494,2.651355338815087,3.5942780873788465,1,-2,1,0.0,0.0,0.0,30,247967.0,45,78.0,0,0,-2,0,0,0
1778075537.1365619,2.18799090385437,0.07807999387418116,1.2596326374998155,2.5775238615834355,0.06651922109669361,1.2382957324650605,2.5510103081952846,0,109,1.1560772777487545,2.133690503475494,2.651355338815087,3.5942780873788465,1,-2,1,0.0,0.0,0.0,30,247967.0,45,78.0,0,0,-2,0,0,0
1778075537.208958,2.2603869438171387,0.07807999387418116,1.2596326374998155,2.5775238615834355,0.06577041205345066,1.2408646925169555,2.558397073638781,0,113,1.2309581820730497,1.876794498285994,1.9126787944654389,2.948890605907063,1,0,0,-0.010343232083247196,0.03548481454532801,0.10203272785770195,30,247967.0,45,78.0,0,0,-2,0,0,0
1778075537.2798898,2.3313188552856445,0.07807999387418116,1.2596326374998155,2.5775238615834355,0.06577041205345066,1.2408646925169555,2.558397073638781,0,116,1.2309581820730497,1.876794498285994,1.9126787944654389,2.948890605907063,1,-1,1,0.0,0.0,0.0,30,247967.0,45,78.0,0,0,-2,0,0,0
1778075537.352326,2.403754949569702,0.07807999387418116,1.2596326374998155,2.5775238615834355,0.06628569270564297,1.237157786343818,2.551021454695239,0,120,1.179430116853819,2.2474851155997566,2.6502406888196273,3.669607670318367,0,-4,2,0.007113589672182457,-0.05117484880674294,-0.10182242729182012,30,247967.0,45,78.0,0,0,-2,0,0,0
1778075537.424392,2.475821018218994,0.07807999387418116,1.2596326374998155,2.5775238615834355,0.06628569270564297,1.237157786343818,2.551021454695239,0,124,1.179430116853819,2.2474851155997566,2.6502406888196273,3.669607670318367,1,-2,1,0.0,0.0,0.0,30,247967.0,45,78.0,0,0,-2,0,0,0
1778075537.4974132,2.548842191696167,0.07807999387418116,1.2596326374998155,2.5775238615834355,,,,,127,,,,,0,0,0,,,,30,247967.0,45,78.0,0,0,-2,0,0,0
1778075537.569301,2.620729923248291,0.07807999387418116,1.2596326374998155,2.5775238615834355,,,,,131,,,,,0,0,0,,,,20,247965.0,45,78.0,0,0,-2,0,0,0
1778075537.640977,2.692405939102173,0.07807999387418116,1.2596326374998155,2.5775238615834355,0.14003623616408967,1.2114642288369266,2.6405090927209875,3,134,-6.195624228990851,4.816840866288885,-6.298523113755206,10.062758515065225,-12,13,6,0.340515596181445,-0.11863040788859831,0.41317575416072505,20,247965.0,45,78.0,0,0,-2,0,0,0
1778075537.713151,2.764580011367798,0.07807999387418116,1.2596326374998155,2.5775238615834355,0.10841528356863261,1.0955888594629224,2.5818390572471284,3,138,-3.0335289694451455,16.404377803689307,-0.43151956636928723,16.688083121521085,9,-20,30,-0.43812066581308107,-1.6054985639100932,-0.8128962885443627,20,247961.0,45,78.0,0,0,-2,0,0,0
1778075537.784982,2.8364109992980957,0.07807999387418116,1.2596326374998155,2.5775238615834355,0.06700138461425781,1.187209763563617,2.5664864662304714,0,141,1.1078609259923349,7.242287393619851,1.1037395352964108,7.409205320741351,15,-6,-27,-0.5765464202519577,1.2755066683699259,-0.2137321434525524,20,247980.00000000003,45,78.0,0,0,-2,0,0,0
1778075537.8559659,2.9073948860168457,0.07807999387418116,1.2596326374998155,2.5775238615834355,0.0638227450586068,1.2353245661932526,2.5435812737340706,0,145,1.4257248815574357,2.4308071306562873,3.394258784936488,4.411633194573178,2,-10,-14,-0.04477973386052117,0.6778271077248067,-0.32268157683665544,20,247989.0,45,78.0,0,0,-2,0,0,0
1778075537.9258099,2.977238893508911,0.07807999387418116,1.2596326374998155,2.5775238615834355,0.06677178551044619,1.2361158088834636,2.5428354878472423,0,148,1.1308208363734973,2.351682861635185,3.4688373736193157,4.340737353296472,0,-2,1,0.042223242304279415,0.011328712635810785,-0.010677879371583893,20,247971.99999999997,45,78.0,0,0,-2,0,0,0
1778075537.996429,3.0478579998016357,0.07807999387418116,1.2596326374998155,2.5775238615834355,0.037302916192908875,1.2112533918033508,2.552405471447381,0,152,4.077707768127229,4.837924569646468,2.5118390136054547,6.8075362660880865,13,1,12,-0.4172931500348551,-0.35206360410531323,0.13551550143483673,20,247971.99999999997,45,78.0,0,0,-2,0,0,0
1778075538.067882,3.1193110942840576,0.07807999387418116,1.2596326374998155,2.5775238615834355,0.06588684665629779,1.2374290999345923,2.542661961702582,0,156,1.2193147217883364,2.2203537565223197,3.486189988085364,4.309317791472239,-8,-6,-7,0.4000376844479539,0.36633414299055933,-0.13636232013990784,20,247971.0,45,78.0,0,0,-1,0,0,0
1778075538.139117,3.1905460357666016,0.07807999387418116,1.2596326374998155,2.5775238615834355,0.0361636738300542,1.211442674775292,2.5522186006332217,0,159,4.191632004412696,4.818996272452347,2.5305260950213793,6.869939319376159,13,1,12,-0.4172555238713466,-0.3647988559893493,0.13415661937451995,20,247969.99999999997,45,78.0,0,0,-1,0,0,0
1778075538.21052,3.261949062347412,0.07807999387418116,1.2596326374998155,2.5775238615834355,0.06142020897298208,1.2335971149438951,2.5356822471622733,0,163,1.6659784901199077,2.6035522555920343,4.184161442116219,5.202035721795138,-7,-8,-5,0.35371799141236315,0.310273124676722,-0.23159177226519015,20,247969.99999999997,45,78.0,0,0,-1,0,0,0
1778075538.282146,3.3335750102996826,0.07807999387418116,1.2596326374998155,2.5775238615834355,0.06412559391445175,1.2368921622549487,2.54281259326646,0,166,1.3954399959729413,2.2740475244866776,3.4711268316975463,4.378043673573346,0,0,0,0.037771017610439946,0.04600354208574374,0.09954976245393896,20,247971.0,45,78.0,0,0,-1,0,0,0
1778075538.3518238,3.4032528400421143,0.07807999387418116,1.2596326374998155,2.5775238615834355,0.06389022842654621,1.1901519111842411,2.5660070005164517,0,170,1.418976544763495,6.948072631557434,1.1516861066983797,7.184398973912046,1,6,21,-0.003377910718166447,-0.6708052079619264,0.3328807360351379,20,247973.99999999997,45,78.0,0,0,-2,0,0,0
1778075538.422355,3.4737839698791504,0.07807999387418116,1.2596326374998155,2.5775238615834355,0.0607199911471998,1.236927363097613,2.5431061123448595,0,173,1.7360002726981356,2.270527440220249,3.441774923857599,4.473791057939128,2,-10,-14,-0.04494805749845941,0.6631887511436106,-0.32469192290702337,20,247977.0,45,78.0,0,0,-1,0,0,0
1778075538.4939442,3.5453732013702393,0.07807999387418116,1.2596326374998155,2.5775238615834355,0.058210582565673276,1.2803409437787447,2.5198170290469357,0,177,1.9869411308507883,-2.070830627892928,5.7706832536499775,6.444925116775393,2,-12,-16,-0.03505287777588291,0.606426131093972,-0.32531545335589634,20,247977.0,45,78.0,0,0,-1,0,0,0
1778075538.56379,3.6152191162109375,0.07807999387418116,1.2596326374998155,2.5775238615834355,0.058210582565673276,1.2803409437787447,2.5198170290469357,0,180,1.9869411308507883,-2.070830627892928,5.7706832536499775,6.444925116775393,1,-4,0,0.0,0.0,0.0,20,247971.0,45,78.0,0,0,-1,0,0,0
1778075538.63441,3.6858389377593994,0.07807999387418116,1.2596326374998155,2.5775238615834355,0.035181022224193656,1.2125024676457454,2.5515804021396633,0,184,4.2898971649987505,4.713016985407004,2.5943459443772188,6.880870415151398,11,8,28,-0.3261061814730853,-0.9606152301934955,0.44977985495092754,20,247969.0,45,78.0,0,0,-1,0,0,0
1778075538.706243,3.757672071456909,0.07807999387418116,1.2596326374998155,2.5775238615834355,0.0597931435695853,1.2382211525815725,2.54295741024936,0,188,1.8286850304595856,2.1411484918242962,3.456645133407532,4.458363083350032,-7,-5,-6,0.3426290915976686,0.3580337319561859,-0.1200419840600949,20,247969.0,45,78.0,0,0,-1,0,0,0
1778075538.777416,3.8288450241088867,0.07807999387418116,1.2596326374998155,2.5775238615834355,0.0370326074290867,1.2162256787858055,2.5590767399966756,0,191,4.104738644509446,4.340695871401001,1.8447121586759874,6.252478143591864,10,3,11,-0.3197919334862132,-0.30904259239209614,0.2264811160236103,20,247969.0,45,78.0,0,0,-1,0,0,0
1778075538.849507,3.9009361267089844,0.07807999387418116,1.2596326374998155,2.5775238615834355,0.05931741774541742,1.2390603271938585,2.542509597631785,0,195,1.876257612876374,2.0572310305956965,3.5014263951650637,4.473536514200034,-6,-8,-5,0.30912012041137144,0.3167471100382659,-0.22980841972679608,20,247967.99999999997,45,78.0,0,0,-1,0,0,0
1778075538.920562,3.9719910621643066,0.07807999387418116,1.2596326374998155,2.5775238615834355,0.03243918088268932,1.26262440847242,2.535809119228028,0,198,4.5640812991491835,-0.29917709726046127,4.171474235540762,6.190439591705009,12,-5,-7,-0.3782740310787915,0.3316318722628091,-0.0942999717165332,20,247967.99999999997,45,78.0,0,0,-1,0,0,0
1778075538.990552,4.041980981826782,0.07807999387418116,1.2596326374998155,2.5775238615834355,0.032587761914075544,1.2634863358278643,2.5353010632193227,0,202,4.549223196010561,-0.3853698328048827,4.22227983641128,6.218648455421955,3,-3,0,0.0021228918693256063,0.012315021357373099,-0.007258988310820586,20,247971.99999999997,45,78.0,0,0,-1,0,0,0
1778075539.060949,4.112378120422363,0.07807999387418116,1.2596326374998155,2.5775238615834355,0.05845049777243387,1.2441623450388914,2.549726539039422,0,205,1.9629496101747288,1.5470292460924018,2.7797322544013348,3.7380987234835668,-7,2,8,0.36738333935609385,-0.27449966255000374,0.2049156557764546,20,247967.0,45,78.0,0,0,-1,0,0,0
1778075539.130393,4.181822061538696,0.07807999387418116,1.2596326374998155,2.5775238615834355,0.0351190209190513,1.2680519273770916,2.542527705318062,0,209,4.296097295512986,-0.8419289877276137,3.4996156265373557,5.604694989595284,11,-5,-8,-0.335975701815332,0.3440124790466622,-0.10366395693615184,20,247967.0,45,78.0,0,0,-1,0,0,0
1778075539.199971,4.251399993896484,0.07807999387418116,1.2596326374998155,2.5775238615834355,0.03306983464714329,1.2229152964834533,2.565900850610601,0,212,4.501015922703787,3.671734101636215,1.1623010972834358,5.923826423039217,3,6,19,-0.029451669551928548,-0.6487204974924208,0.33592756353190145,30,247978.00000000003,45,78.0,0,0,-1,0,0,0
1778075539.271347,4.3227760791778564,0.07807999387418116,1.2596326374998155,2.5775238615834355,0.08591076867719057,1.224330762384358,2.5629448004846336,0,216,-0.7830774803009408,3.530187511545746,1.4579061098801915,3.898836292030483,-18,-2,2,0.7403170658875831,0.01983109462118541,-0.041415133854910864,30,247981.0,45,77.5,0,0,-1,0,0,0
1778075539.342561,4.3939900398254395,0.07807999387418116,1.2596326374998155,2.5775238615834355,0.028491429478077444,1.2232912717241582,2.5664211665601173,0,219,4.958856439610371,3.6341365775657275,1.1102695023318176,6.2473917934506495,23,0,3,-0.8062932980692449,-0.014596725849078241,0.04881579459801786,30,247976.00000000003,45,77.5,0,0,-1,0,0,0
1778075539.413232,4.464661121368408,0.07807999387418116,1.2596326374998155,2.5775238615834355,0.030231827471340768,1.2721467812054414,2.54996119787105,0,223,4.784816640284039,-1.251414370562598,2.756266371238558,5.661935403835882,2,-8,-17,0.02462673494256832,0.6913083600054797,-0.2329095342776037,30,247976.00000000003,45,77.5,0,0,-1,0,0,0
1778075539.484549,4.535978078842163,0.07807999387418116,1.2596326374998155,2.5775238615834355,0.031004607483440035,1.227471381910087,2.5734083665441276,0,226,4.707538639074112,3.2161255589728377,0.41154950393078593,5.716096276624438,3,7,18,0.010835852221873808,-0.6264344537103284,0.3287741023122928,30,247978.00000000003,45,77.5,0,0,-1,0,0,0
1778075539.554332,4.6057610511779785,0.07807999387418116,1.2596326374998155,2.5775238615834355,0.026817346050781652,1.2728796738820334,2.5497060538502456,0,230,5.126264782339951,-1.3247036382217914,2.781780773318987,5.980947635499252,5,-11,-16,-0.06000405675625415,0.6507073352139362,-0.33965753966196466,30,247978.00000000003,45,77.5,0,0,-1,0,0,0
1778075539.624851,4.6762800216674805,0.07807999387418116,1.2596326374998155,2.5775238615834355,0.05367495126100627,1.2958928749812948,2.5410435181149764,0,233,2.4405042613174888,-3.626023748147933,3.6480343468459075,5.69317695732436,-7,-6,-10,0.3808564564087456,0.32634057104800407,-0.122839792968316,30,247980.00000000003,45,77.5,0,0,-1,0,0,0
1778075539.6957068,4.747135877609253,0.07807999387418116,1.2596326374998155,2.5775238615834355,0.055306903575427564,1.2545610219211636,2.571791612113431,0,237,2.2773090298753593,0.5071615578651878,0.573224947000428,2.4024854012442485,1,9,15,0.023032003392385668,-0.5833230367592577,0.4339527564767942,30,247976.00000000003,45,77.5,0,0,-1,0,0,0
1778075539.765694,4.817122936248779,0.07807999387418116,1.2596326374998155,2.5775238615834355,0.031328587584277014,1.2743595731919397,2.556645000852318,0,240,4.675140628990414,-1.4726935692124243,2.0878860731117665,5.327760740116863,12,-7,-7,-0.34261071199823784,0.28288874622878574,-0.2164201718938804,30,247971.0,45,77.5,0,0,-1,0,0,0
1778075539.83684,4.888268947601318,0.07807999387418116,1.2596326374998155,2.5775238615834355,0.05405628034305965,1.253496389351556,2.5717022092254456,0,244,2.402371353112151,0.6136248148259416,0.5821652357989926,2.546927539879565,-5,3,8,0.31945139757959923,-0.29324460280708475,0.21163812400553325,30,247971.0,45,77.5,0,0,-1,0,0,0
1778075539.907805,4.959233999252319,0.07807999387418116,1.2596326374998155,2.5775238615834355,0.027671626585129658,1.2276933934203291,2.5801894057378973,0,248,5.04083672890515,3.193924407948634,-0.2665544154461852,5.9734612501934805,13,2,12,-0.3717978518170758,-0.36360145354538,0.11959684823722755,30,247967.99999999997,45,77.5,0,0,-1,0,0,0
1778075539.97901,5.030439138412476,0.07807999387418116,1.2596326374998155,2.5775238615834355,0.027507746671809434,1.226509063290639,2.5801909537950527,0,251,5.057224720237173,3.3123574209176443,-0.2667092211617206,6.051311210269954,3,0,3,-0.0023015180540778275,-0.01663264960449386,2.174080654307777e-05,30,247973.0,45,77.5,0,0,-1,0,0,0
1778075540.05129,5.102719068527222,0.07807999387418116,1.2596326374998155,2.5775238615834355,0.055591538511374064,1.2012187707056516,2.5874944302033307,0,255,2.2488455362807094,5.841386679416383,-0.9970568619895204,6.338235319909889,-7,2,13,0.3885420447277819,-0.3498937055533735,0.10104432027927472,30,247980.00000000003,45,77.5,0,0,-1,0,0,0
1778075540.1234481,5.174877166748047,0.07807999387418116,1.2596326374998155,2.5775238615834355,0.0523038586395122,1.248016744878358,2.563873940052521,0,258,2.5776135234668955,1.1615892621457569,1.364992153091471,3.1395198149228234,3,-10,-14,-0.045562174626617595,0.6485477767095603,-0.32734357935160935,30,247980.00000000003,45,77.5,0,0,-1,0,0,0
1778075540.1955142,5.246943235397339,0.07807999387418116,1.2596326374998155,2.5775238615834355,-0.000569397401605545,1.2514131154496653,2.572605551455802,0,262,7.86493912757867,0.8219522050150196,0.49183101276333296,7.923053114359564,24,1,0,-0.7336775410689369,0.04712856736830946,0.12116120064455832,30,247975.0,45,77.5,0,0,-2,0,0,0
1778075540.263777,5.315206050872803,0.07807999387418116,1.2596326374998155,2.5775238615834355,0.026222390613195607,1.225463323923243,2.5800745445785584,0,265,5.185760326098555,3.416931357657238,-0.2550682995122955,6.215512038448258,-5,1,12,0.3924799735872466,-0.38014534480707846,0.10941525149136153,30,247965.0,45,77.5,0,0,-2,0,0,0
1778075540.335069,5.386497974395752,0.07807999387418116,1.2596326374998155,2.5775238615834355,0.026222390613195607,1.225463323923243,2.5800745445785584,0,269,5.185760326098555,3.416931357657238,-0.2550682995122955,6.215512038448258,4,0,3,0.0,0.0,0.0,30,247965.0,45,77.5,0,0,-2,0,0,0
1778075540.4044979,5.455926895141602,0.07807999387418116,1.2596326374998155,2.5775238615834355,0.026066615621563927,1.2242966567284124,2.5800757938713126,0,272,5.2013378252617235,3.5335980771403097,-0.255193228787709,6.293278487981216,4,0,3,-0.0022436614303988373,-0.016803763940122306,1.7993838024767122e-05,30,247969.0,45,77.5,0,0,-2,0,0,0
1778075540.472556,5.523985147476196,0.07807999387418116,1.2596326374998155,2.5775238615834355,0.02472171732087834,1.2235536072437618,2.580395974649647,0,276,5.335827655330282,3.6079030256053635,-0.287211306621149,6.447519782382279,4,0,3,-0.019760987897157068,-0.01091784550971841,0.00470451072943066,30,247969.99999999997,45,77.5,0,0,-2,0,0,0
1778075540.541822,5.59325098991394,0.07807999387418116,1.2596326374998155,2.5775238615834355,0.0019401417096908081,1.2490880855527613,2.5718692176455233,0,279,7.613985216449034,1.054455194705417,0.5654643937912152,7.707424771906071,13,-4,-7,-0.3289005779676111,0.36864459321273324,-0.12310190281432665,30,247969.99999999997,45,77.5,0,0,-2,0,0,0
1778075540.612034,5.663463115692139,0.07807999387418116,1.2596326374998155,2.5775238615834355,0.025642363325175423,1.2685045656889224,2.5564086606477736,0,283,5.243763054900573,-0.8871928189106981,2.111520093566188,5.722121912315454,-4,-7,-6,0.3375801736919416,0.27654026880624966,-0.22019781948477096,30,247965.0,45,77.5,0,0,-2,0,0,0
1778075540.683368,5.73479700088501,0.07807999387418116,1.2596326374998155,2.5775238615834355,0.02685034856090446,1.2218599767842186,2.580196553692814,0,286,5.12296453132767,3.7772660715596817,-0.2672692109378705,6.37055236190023,3,7,19,0.01693424145429501,-0.6538910474115789,0.33347255628546474,20,247973.0,45,77.5,0,0,-1,0,0,0
1778075540.751849,5.803277969360352,0.07807999387418116,1.2596326374998155,2.5775238615834355,0.02911149051055235,1.266786960932794,2.556530478597281,0,290,4.89685033636288,-0.7154323432978504,2.0993382986154607,5.375705344102071,3,-11,-16,0.03301854515188504,0.6560506539090836,-0.34558616243949364,20,247973.0,45,77.5,0,0,-1,0,0,0
1778075540.817045,5.868474006652832,0.07807999387418116,1.2596326374998155,2.5775238615834355,0.026346834309478564,1.2662298938475751,2.556535378746706,0,293,5.173315956470259,-0.659725634775965,2.098848283672927,5.62170792700289,5,-2,0,-0.042405279766791204,-0.008544493014502658,7.51602341006163e-05,20,247969.0,45,77.5,0,0,-1,0,0,0
1778075540.885969,5.9373979568481445,0.07807999387418116,1.2596326374998155,2.5775238615834355,0.05640596755306238,1.2406776626918496,2.5639424909913253,0,297,2.1674026321118776,1.8954974807965819,1.3581370592110176,3.183564219706277,-8,0,11,0.4361202913994928,-0.370730799429184,0.1074679008331541,20,247973.0,45,77.5,0,0,-1,0,0,0
1778075540.957006,6.008435010910034,0.07807999387418116,1.2596326374998155,2.5775238615834355,0.027756098042230448,1.2136265048848225,2.5733152341326795,0,300,5.032389583195071,4.600613261499298,0.42086274507560084,6.831377075606794,14,1,13,-0.4033088067795054,-0.38080348579009715,0.13194160801190247,20,247969.0,45,77.5,0,0,-1,0,0,0
1778075541.028747,6.080176115036011,0.07807999387418116,1.2596326374998155,2.5775238615834355,0.027581144988045425,1.2125186223908684,2.5733183699825966,0,304,5.049884888613573,4.711401510894708,0.420549160083894,6.919212612801831,4,-1,4,-0.0024386724502846718,-0.015442785658953273,4.3710644758994716e-05,20,247965.0,44,77.5,0,0,-1,0,0,0
1778075541.100429,6.15185809135437,0.07807999387418116,1.2596326374998155,2.5775238615834355,0.027948889805903952,1.2148705580693389,2.5804665241341276,0,307,5.013110406827721,4.476207943047661,-0.2942662550692088,6.7271320879940975,4,1,3,0.0051302271051410645,0.032810698020167305,0.09972038326320844,20,247965.0,44,77.5,0,0,-1,0,0,0
1778075541.171618,6.2230470180511475,0.07807999387418116,1.2596326374998155,2.5775238615834355,0.0568413328412264,1.2362718417135308,2.5640717116776246,0,311,2.1238661032954758,2.3360795786284694,1.3452149905810895,3.431862234020555,-7,-7,-4,0.4058558595550561,0.30062658108821766,-0.2303000370596283,20,247966.0,44,77.5,0,0,-1,0,0,0
1778075541.2427049,6.294133901596069,0.07807999387418116,1.2596326374998155,2.5775238615834355,0.05392907885929404,1.2356134491004904,2.5642274306165818,0,314,2.415091501488712,2.401918839932504,1.3296430966853734,3.6564780648526773,3,-1,2,-0.04096752926427035,-0.009261801618076151,0.002190543897718597,20,247966.0,44,77.5,0,0,-1,0,0,0
1778075541.316076,6.367505073547363,0.07807999387418116,1.2596326374998155,2.5775238615834355,0.02808487289779953,1.209102888605416,2.573466362379169,0,318,4.9995120976381635,5.052974889439943,0.4057499204266346,7.119853189895643,13,1,13,-0.3522392415736618,-0.36132120818068597,0.1259204605416481,20,247965.0,44,77.5,0,0,-1,0,0,0
1778075541.386434,6.437863111495972,0.07807999387418116,1.2596326374998155,2.5775238615834355,0.0597935314488951,1.1860814174296923,2.5877988578307467,0,322,1.828646242528606,7.355122007012316,-1.0274996247311208,7.648367296173313,-8,4,14,0.45067570778844795,-0.32720456463750874,0.20370800365476982,20,247967.0,44,77.5,0,0,-1,0,0,0
1778075541.456438,6.507867097854614,0.07807999387418116,1.2596326374998155,2.5775238615834355,0.05477265403697714,1.2344445185593322,2.5643507838115545,0,325,2.330733983720402,2.518811894048323,1.3173077771881037,3.6758718748493853,4,-10,-14,-0.07172273570529443,0.6908621015075822,-0.33495341106810245,20,247971.0,44,77.5,0,0,-1,0,0,0
1778075541.525865,6.577294111251831,0.07807999387418116,1.2596326374998155,2.5775238615834355,0.06086976131416078,1.1331800899863254,2.611786174735173,0,329,1.7210232560020375,12.645254751349011,-3.4262313151737445,13.21375986611274,0,17,30,0.08782038833069065,-1.4585738838229556,0.6832411276605495,20,247971.0,44,77.5,0,0,-1,0,0,0
1778075541.597553,6.648982048034668,0.07807999387418116,1.2596326374998155,2.5775238615834355,0.0559392839444166,1.2353613299253396,2.564470220479204,0,332,2.2140709929764557,2.427130757447582,1.3053641104231684,3.535116622753582,4,-18,-30,-0.068776946178267,1.4253617069291622,-0.6600267266625705,20,247967.99999999997,44,77.5,0,0,-1,0,0,0
1778075541.668916,6.7203450202941895,0.07807999387418116,1.2596326374998155,2.5775238615834355,0.0032891205593760476,1.2353547204511028,2.565751760424564,0,336,7.47908733148051,2.4277917048712627,1.1772101158871617,7.95089576910055,24,-1,2,-0.7377798558273446,-9.261769833199999e-05,0.017958051700811536,20,247969.0,44,77.5,0,0,-1,0,0,0
1778075541.739676,6.791105031967163,0.07807999387418116,1.2596326374998155,2.5775238615834355,0.056945394981301564,1.235225793675386,2.5646031907979965,0,339,2.1134598892879595,2.440684382442937,1.2920670785439015,3.477512083916734,-16,-2,3,0.7582852680961218,-0.001822028751388478,-0.0162319027288415,20,247977.0,44,77.5,0,0,-1,0,0,0
1778075541.809833,6.861262083053589,0.07807999387418116,1.2596326374998155,2.5775238615834355,0.06067072652962268,1.187547252134289,2.5882103112049664,0,343,1.740926734455848,7.2085385365526555,-1.068644962153087,7.492386521185554,1,7,23,0.053099887903382895,-0.6795972864133423,0.3364896334922701,20,247977.0,44,77.5,0,0,-1,0,0,0
1778075541.880945,6.932374000549316,0.07807999387418116,1.2596326374998155,2.5775238615834355,0.05795177607839852,1.2350835379502958,2.5647441781983034,0,346,2.012821779578264,2.454909954951967,1.2779683385132135,3.4221685343520267,3,-10,-13,-0.03823480714589811,0.6684714389660904,-0.32998875340512185,20,247969.0,44,77.5,0,-1,-2,0,0,0
1778075541.952064,7.003493070602417,0.07807999387418116,1.2596326374998155,2.5775238615834355,0.031408039050886925,1.2552107170678295,2.550120340243039,0,350,4.667195482329423,0.44219204319859706,2.7403521340396697,5.4302649375403504,13,-7,-5,-0.37322952912197654,0.283006781479368,-0.20562470718958742,20,247971.0,44,77.5,0,0,-2,0,0,0
1778075542.021429,7.072858095169067,0.07807999387418116,1.2596326374998155,2.5775238615834355,0.029136142350177186,1.2078934793289409,2.574124646927457,0,353,4.894385152400398,5.17391581708746,0.33992146559786995,7.130214408074939,5,7,21,-0.032752770072571,-0.6821483598470174,0.346057783939125,20,247971.0,44,77.5,0,0,-2,0,0,0
1778075542.092899,7.1443281173706055,0.07807999387418116,1.2596326374998155,2.5775238615834355,0.0347041757590535,1.2584431798141011,2.5576241430043223,0,357,4.3375818115127664,0.11894576857143235,1.9899718579113213,4.7737565986030805,2,-8,-16,0.07790725729978132,0.7072853614430864,-0.23087307677902766,20,247971.99999999997,44,77.5,0,0,-2,0,0,0
1778075542.1637409,7.215169906616211,0.07807999387418116,1.2596326374998155,2.5775238615834355,0.03448155369588095,1.257435722624726,2.557627450343312,0,360,4.359844017830021,0.21969148750895506,1.9896411240123424,4.7974134710126055,4,-2,1,-0.003142524568383331,-0.014221227330699058,4.668627126740446e-05,20,247977.0,44,77.5,0,0,-2,0,0,0
1778075542.233852,7.28528094291687,0.07807999387418116,1.2596326374998155,2.5775238615834355,0.061814099391875744,1.1842517819770166,2.5887894739798236,0,364,1.6265894482305414,7.538085552279883,-1.1265612396388125,7.793437447830205,-7,10,30,0.38984655110193855,-1.0438291103539317,0.44446673848719825,20,247977.0,44,77.5,0,0,-2,0,0,0
1778075542.303787,7.355216026306152,0.07807999387418116,1.2596326374998155,2.5775238615834355,0.061814099391875744,1.1842517819770166,2.5887894739798236,0,367,1.6265894482305414,7.538085552279883,-1.1265612396388125,7.793437447830205,2,0,6,0.0,0.0,0.0,20,247969.0,44,78.0,0,0,-2,0,0,0
1778075542.374812,7.426240921020508,0.07807999387418116,1.2596326374998155,2.5775238615834355,0.061814099391875744,1.1842517819770166,2.5887894739798236,0,371,1.6265894482305414,7.538085552279883,-1.1265612396388125,7.793437447830205,2,0,6,0.0,0.0,0.0,20,247975.0,44,78.0,0,0,-2,0,0,0
1778075542.446325,7.497754096984863,0.07807999387418116,1.2596326374998155,2.5775238615834355,0.03224812757314408,1.2098671849729254,2.581764924529025,0,375,4.583186630103707,4.976545252689002,-0.4241062945589569,6.7787512483869286,14,-3,-3,-0.41343390808804686,0.3581913773299115,-0.09822734560551225,20,247975.0,44,78.0,0,0,-2,0,0,0
1778075542.518626,7.57005500793457,0.07807999387418116,1.2596326374998155,2.5775238615834355,0.03351849457517073,1.2106253244489644,2.5814511353138405,0,378,4.456149929901042,4.900731305085104,-0.3927273730405023,6.635410636270637,3,0,4,0.017570553196906834,0.010485891063894666,-0.004340045112333638,20,247969.0,44,78.0,0,0,-2,0,0,0
1778075542.588425,7.6398539543151855,0.07807999387418116,1.2596326374998155,2.5775238615834355,0.06333131358730344,1.1882235325233008,2.595758082041784,0,382,1.4748680286877716,7.140910497651465,-1.823422045834855,7.516163010123638,-8,5,14,0.4271241982588495,-0.3209474223795031,0.20497367753844623,20,247969.0,44,78.0,0,0,-2,0,0,0
1778075542.660022,7.711451053619385,0.07807999387418116,1.2596326374998155,2.5775238615834355,0.03296435590657297,1.2619660045749486,2.5651049342290286,0,385,4.511563796760819,-0.2333367075133097,1.2418927354406861,4.6851842522633405,14,-12,-24,-0.42413670352353827,1.0299645204665813,-0.4281339343444265,20,247971.0,44,78.0,0,0,-2,0,0,0
1778075542.7304692,7.781898260116577,0.07807999387418116,1.2596326374998155,2.5775238615834355,0.033755141521181725,1.2116955994684204,2.5814477842471732,0,389,4.432485235299943,4.793703803139504,-0.39239226637377556,6.540679873231535,4,4,22,0.011225223169640816,-0.7135897589996223,0.23198719765837625,20,247971.0,44,78.0,0,0,-2,0,0,0
1778075542.8013172,7.852746248245239,0.07807999387418116,1.2596326374998155,2.5775238615834355,0.0622429262820277,1.1885580796745332,2.596122006647393,0,392,1.5837067592153462,7.107455782528227,-1.8598145063957627,7.515514938976466,-7,5,14,0.40209730033704394,-0.3265797717765646,0.20712264085143867,20,247969.0,44,78.0,0,0,-2,0,0,0
1778075542.8722339,7.923662900924683,0.07807999387418116,1.2596326374998155,2.5775238615834355,0.03351849457517073,1.2106253244489644,2.5814511353138405,0,396,4.456149929901042,4.900731305085104,-0.3927273730405023,6.635410636270637,14,-6,-2,-0.405044945320485,0.311171550554978,-0.206874842216083,20,247973.0,44,78.0,0,0,-2,0,0,0
1778075542.9424372,7.993866205215454,0.07807999387418116,1.2596326374998155,2.5775238615834355,0.03351849457517073,1.2106253244489644,2.5814511353138405,0,399,4.456149929901042,4.900731305085104,-0.3927273730405023,6.635410636270637,4,0,5,0.0,0.0,0.0,20,247973.0,44,78.0,0,0,-2,0,0,0
1778075543.015147,8.06657600402832,0.07807999387418116,1.2596326374998155,2.5775238615834355,0.03351849457517073,1.2106253244489644,2.5814511353138405,0,403,4.456149929901042,4.900731305085104,-0.3927273730405023,6.635410636270637,4,0,5,0.0,0.0,0.0,20,247973.0,44,78.0,0,0,-2,0,0,0
1778075543.086645,8.138073921203613,0.07807999387418116,1.2596326374998155,2.5775238615834355,0.06008563602946985,1.1884337223505945,2.5965433796496775,0,407,1.799435784471131,7.119891514922094,-1.9019518066242025,7.586055958231255,-6,5,14,0.3715792362057749,-0.3103810988502263,0.2110864893984957,20,247971.99999999997,43,78.0,0,0,-2,0,0,0
1778075543.157162,8.208590984344482,0.07807999387418116,1.2596326374998155,2.5775238615834355,0.06640204307227077,1.1880104229716686,2.596077296343646,0,410,1.167795080191039,7.162221452814688,-1.855343476021032,7.490224355951638,0,0,7,0.08957274681424102,-0.006002793651237657,-0.006609511021476176,20,247971.99999999997,43,78.0,0,0,-2,0,0,0
1778075543.227635,8.279063940048218,0.07807999387418116,1.2596326374998155,2.5775238615834355,0.055332262863432444,1.282966744941624,2.549350934608636,0,414,2.2747731010748713,-2.3334107441808527,2.8172926974799672,4.307729855237719,7,-19,-30,-0.15707841537646164,1.3474150618734775,-0.6630396195023406,20,247967.0,43,78.0,0,0,-2,0,0,0
1778075543.299089,8.350517988204956,0.07807999387418116,1.2596326374998155,2.5775238615834355,0.03478544331812293,1.2115035128845357,2.5816380571519866,0,417,4.3294550556058224,4.812912461527974,-0.4114195568551082,6.486722862324622,11,10,30,-0.28755291093149776,-1.0001285287620072,0.451858549322877,20,247973.99999999997,43,77.0,0,0,-2,0,0,0
1778075543.367618,8.419047117233276,0.07807999387418116,1.2596326374998155,2.5775238615834355,0.038224085682030215,1.2145442222310212,2.5892986822146176,0,421,3.985590819215094,4.508841526879426,-1.177482063118207,6.1319695124559415,2,2,4,0.0501778209159237,0.044371049064827306,0.11178640632460339,20,247973.99999999997,43,77.0,0,0,-2,0,0,0
1778075543.438694,8.49012303352356,0.07807999387418116,1.2596326374998155,2.5775238615834355,0.06440057384383832,1.1882118358891414,2.59644035417965,0,424,1.3679420030342837,7.14208016106741,-1.8916492596214418,7.513914510573333,-6,2,16,0.3682891410769853,-0.3704825448093414,0.10047949203869337,20,247969.99999999997,43,77.0,0,0,-2,0,0,0
1778075543.508754,8.560183048248291,0.07807999387418116,1.2596326374998155,2.5775238615834355,0.06221862130037938,1.236665046135795,2.5731629094249717,0,428,1.5861372573801775,2.296759136402038,0.4360952158463771,2.825086364552391,3,-9,-13,-0.031144049170299434,0.6915957759504946,-0.3322500694031565,20,247965.0,43,77.0,0,0,-2,0,0,0
1778075543.5797849,8.631213903427124,0.07807999387418116,1.2596326374998155,2.5775238615834355,0.06524694802054197,1.1869122042735336,2.5966227241007007,0,431,1.283304585363919,7.2720433226281855,-1.9098862517265225,7.627394721628823,1,8,24,0.04263396115023855,-0.7004398544407175,0.33027639350060867,20,247967.0,43,77.0,0,0,-2,0,0,0
1778075543.652585,8.70401406288147,0.07807999387418116,1.2596326374998155,2.5775238615834355,0.06607533971195606,1.1856143740970797,2.5968138490648345,0,435,1.2004654162225097,7.401826340273576,-1.9289987481398985,7.7426860040582355,2,0,7,0.011378981826730611,-0.017827298541396735,0.0026253371636310455,20,247967.0,43,77.0,0,0,-2,0,0,0
1778075543.723871,8.775300025939941,0.07807999387418116,1.2596326374998155,2.5775238615834355,0.03628086707250835,1.259227150426514,2.5659295802833486,0,438,4.1799126801672815,0.04054870733014582,1.1594281300086884,4.337924365424645,14,-12,-23,-0.4179570754344591,1.0326405532187883,-0.43324474351497955,20,247978.00000000003,43,77.0,0,0,-2,0,0,0
1778075543.794516,8.845945119857788,0.07807999387418116,1.2596326374998155,2.5775238615834355,0.06688589961871783,1.1843163956117455,2.597014488928435,0,442,1.1194094255463334,7.531624188806996,-1.949062734499929,7.859852792924365,-8,11,30,0.4332223350399977,-1.0603815588649703,0.4400151082145191,20,247981.0,43,77.0,0,0,-2,0,0,0
1778075543.866197,8.917626142501831,0.07807999387418116,1.2596326374998155,2.5775238615834355,0.038795778780228884,1.158430945911348,2.6144353351061054,0,446,3.9284215093952275,10.120169158846748,-3.691147352266988,11.46624995956828,14,7,18,-0.3918766753367931,-0.3611199833035407,0.24303289120441063,20,247981.0,43,77.0,0,0,-2,0,0,0
1778075543.937492,8.98892092704773,0.07807999387418116,1.2596326374998155,2.5775238615834355,0.06449753045087908,1.233021261239129,2.5737668426678004,0,449,1.3582463423302076,2.661137626068655,0.37570189156350686,3.0112519825906467,-6,-15,-21,0.36049974530891277,1.0462240092718267,-0.5704273138257852,20,247979.0,43,77.0,0,0,-2,0,0,0
1778075544.008459,9.059888124465942,0.07807999387418116,1.2596326374998155,2.5775238615834355,0.09411077203021694,1.212462027462721,2.5870812736160853,0,453,-1.6030778156035776,4.717061003709455,-0.9557412032649815,5.072865486410535,-9,4,12,0.4172806966692751,-0.28970051691983145,0.1876138756025878,20,247976.00000000003,43,77.0,0,0,-1,0,0,0
1778075544.079904,9.131333112716675,0.07807999387418116,1.2596326374998155,2.5775238615834355,0.06767850238414297,1.1830194685042255,2.597224117441146,0,456,1.040149149003819,7.661316899559001,-1.9700255857710403,7.978639463983457,11,3,17,-0.3699667435497548,-0.41210110995005483,0.14196718445057072,20,247976.00000000003,43,77.0,0,0,-1,0,0,0
1778075544.151913,9.203341960906982,0.07807999387418116,1.2596326374998155,2.5775238615834355,0.04220592781934558,1.2091702675215719,2.5904304000097924,0,460,3.5874066054835576,5.04623699782436,-1.2906538426356917,6.324538033152205,12,-2,-3,-0.3537422859129414,0.36316091250667026,-0.09434559227219967,20,247971.99999999997,43,77.0,0,0,-1,0,0,0
1778075544.223395,9.274824142456055,0.07807999387418116,1.2596326374998155,2.5775238615834355,0.09489812942747,1.211233167128329,2.587274625967125,0,463,-1.6818135553288842,4.839947037148651,-0.9750764383689603,5.215779732499666,-17,-1,5,0.7371375700383656,0.028858934661093447,-0.04414770190667567,20,247967.0,43,77.0,0,0,-1,0,0,0
1778075544.2939,9.34532904624939,0.07807999387418116,1.2596326374998155,2.5775238615834355,0.09489812942747,1.211233167128329,2.587274625967125,0,467,-1.6818135553288842,4.839947037148651,-0.9750764383689603,5.215779732499666,0,0,5,0.0,0.0,0.0,20,247969.0,43,77.5,0,0,-1,0,0,0
1778075544.3643909,9.415819883346558,0.07807999387418116,1.2596326374998155,2.5775238615834355,0.06872691659102838,1.1828040992206295,2.597428713643125,0,470,0.935307728315278,7.682853827918601,-1.9904852059689393,7.9914375955137755,11,3,18,-0.3712711313154923,-0.4033016073920573,0.14404833442398912,20,247969.0,43,77.5,0,0,-1,0,0,0
1778075544.434102,9.485531091690063,0.07807999387418116,1.2596326374998155,2.5775238615834355,0.06872691659102838,1.1828040992206295,2.597428713643125,0,474,0.935307728315278,7.682853827918601,-1.9904852059689393,7.9914375955137755,2,0,7,0.0,0.0,0.0,20,247969.99999999997,43,77.5,0,0,-2,0,0,0
1778075544.504918,9.556347131729126,0.07807999387418116,1.2596326374998155,2.5775238615834355,0.06547948243884864,1.2328271352836664,2.573972464753354,0,477,1.2600511435332515,2.680550221614908,0.35513968300815435,2.9831531253635504,3,-9,-13,-0.045857324843191355,0.7063800240093058,-0.3312279093385107,20,247971.99999999997,43,77.5,0,0,-1,0,0,0
1778075544.577149,9.628577947616577,0.07807999387418116,1.2596326374998155,2.5775238615834355,0.07206160605728076,1.1835287682897269,2.597198893242362,0,481,0.6018387816900395,7.61038692100886,-1.9675031658926478,7.883607531733581,0,8,24,0.09112625321425516,-0.682511562250043,0.32155844017045365,20,247971.99999999997,43,77.5,0,0,-1,0,0,0
1778075544.648771,9.700200080871582,0.07807999387418116,1.2596326374998155,2.5775238615834355,0.04174455844558552,1.2101185823983336,2.5898723081102597,0,485,3.633543542859564,4.951405510148188,-1.2348446526824208,6.264494913402088,14,-2,-3,-0.4232916032220629,0.37125135625234473,-0.1022949861883693,20,247969.99999999997,43,77.5,0,0,-2,0,0,0
1778075544.720232,9.771661043167114,0.07807999387418116,1.2596326374998155,2.5775238615834355,0.09411077203021694,1.212462027462721,2.5870812736160853,0,488,-1.6030778156035776,4.717061003709455,-0.9557412032649815,5.072865486410535,-17,-1,5,0.7327946882112638,0.032793360026357236,-0.03905677176066926,20,247973.0,43,77.5,0,0,-2,0,0,0
1778075544.790109,9.841537952423096,0.07807999387418116,1.2596326374998155,2.5775238615834355,0.09411077203021694,1.212462027462721,2.5870812736160853,0,492,-1.6030778156035776,4.717061003709455,-0.9557412032649815,5.072865486410535,0,0,6,0.0,0.0,0.0,20,247973.0,43,77.5,0,0,-2,0,0,0
1778075544.861651,9.913079977035522,0.07807999387418116,1.2596326374998155,2.5775238615834355,0.09889848033882775,1.1608152192699763,2.6106932603757556,0,495,-2.0818486464646595,9.881741822983914,-3.316939879232006,10.629440502930331,-1,9,27,0.06692162172580171,-0.7219086749716278,0.33004359168735176,20,247969.99999999997,43,77.5,0,0,-1,0,0,0
1778075544.9327722,9.984201192855835,0.07807999387418116,1.2596326374998155,2.5775238615834355,0.07208825773432632,1.130351888287168,2.6209184457442825,0,499,0.5991736139854833,12.928074921264754,-4.339458416084696,13.650092656625429,11,5,22,-0.37696518957489933,-0.42832972737381064,0.1437712397150352,20,247975.0,43,77.5,0,0,-1,0,0,0
1778075545.003072,10.054501056671143,0.07807999387418116,1.2596326374998155,2.5775238615834355,0.06688589961871783,1.1843163956117455,2.597014488928435,0,502,1.1194094255463334,7.531624188806996,-1.949062734499929,7.859852792924365,4,-8,-10,-0.07400239251211321,0.7676331701915324,-0.34002849391925344,20,247967.0,43,77.5,0,0,-1,0,0,0
1778075545.0739079,10.12533688545227,0.07807999387418116,1.2596326374998155,2.5775238615834355,0.06351672431055572,1.2332086623719558,2.5735691722957528,0,506,1.456326956362544,2.6423975127859656,0.3954689287682722,3.042950622837442,3,-9,-12,-0.04756315223715889,0.6902194496979779,-0.3309810449895987,20,247967.0,43,77.5,0,0,-1,0,0,0
1778075545.1442912,10.195720195770264,0.07807999387418116,1.2596326374998155,2.5775238615834355,0.09207571645559576,1.2127942678899988,2.5867539137293556,0,509,-1.3995722581414598,4.683836960981669,-0.9230052145920098,4.9748436969397565,-9,4,13,0.4057636961945944,-0.29004595535112515,0.18732766864806305,20,247969.0,42,77.5,0,0,-1,0,0,0
1778075545.21664,10.26806902885437,0.07807999387418116,1.2596326374998155,2.5775238615834355,0.06285760050623769,1.1857029213448262,2.597061387453431,0,513,1.5222393367943468,7.392971615498922,-1.9537525869995687,7.796819292330966,12,3,17,-0.40385054884564114,-0.37445450590306684,0.14246910813465394,20,247981.0,42,77.5,0,0,-1,0,0,0
1778075545.28782,10.33924913406372,0.07807999387418116,1.2596326374998155,2.5775238615834355,0.06842699128736009,1.135501429849945,2.6281667589200253,0,517,0.9653002586821071,12.41312076498704,-5.064289733658978,13.441145867150162,0,13,29,0.07824364356784869,-0.7052741963113375,0.43699530051422186,20,247981.0,42,77.5,0,0,-1,0,0,0
1778075545.359052,10.410480976104736,0.07807999387418116,1.2596326374998155,2.5775238615834355,0.09607044932546463,1.163467727773161,2.609760895348551,0,520,-1.7990455451283471,9.616490972665437,-3.223703376511544,10.300763416394627,-8,-5,0,0.38807725935526577,0.39260950049716403,-0.25839376104967426,20,247971.0,42,77.5,0,0,-2,0,0,0
1778075545.4378319,10.489260911941528,0.07807999387418116,1.2596326374998155,2.5775238615834355,0.03466749902092175,1.213488183130528,2.589563505288715,0,524,4.341249485325941,4.614445436928749,-1.2039643705279435,6.448959915345733,24,-6,-9,-0.7794237155987417,0.6349390212882886,-0.25637733574293387,20,247965.0,42,77.5,0,0,-2,0,0,0
1778075545.508547,10.55997610092163,0.07807999387418116,1.2596326374998155,2.5775238615834355,0.03073479438984425,1.2141911442164237,2.589399286053715,0,528,4.734519948433691,4.544149328339175,-1.1875424470279672,6.668975132946224,6,0,6,-0.055613294509954024,0.009940736863384928,-0.0023222625487993817,20,247965.0,42,77.5,0,0,-2,0,0,0
1778075545.5785868,10.630015850067139,0.07807999387418116,1.2596326374998155,2.5775238615834355,0.03358239347208273,1.219491192137149,2.5964348599744516,0,531,4.449760040209843,4.014144536266651,-1.8910998391016065,6.28410529629619,3,2,4,0.040656900074307556,0.07567200033390155,0.10045115818618888,20,247975.0,42,77.5,0,0,-2,0,0,0
1778075545.6496599,10.701088905334473,0.07807999387418116,1.2596326374998155,2.5775238615834355,0.06180079622191187,1.1949629426663209,2.603444575762577,0,535,1.6279197652269288,6.466969483349461,-2.5920714179141324,7.154764237636141,-6,3,16,0.3970337653797001,-0.3451131990677425,0.0986269094772827,20,247976.00000000003,42,77.5,0,0,-2,0,0,0
1778075545.721236,10.772665023803711,0.07807999387418116,1.2596326374998155,2.5775238615834355,0.05497588027617373,1.2451845099747176,2.5798160311069016,0,538,2.310411359800743,1.4448127525097831,-0.22921695234661144,2.7345977679641083,5,-8,-13,-0.095351858855986,0.7016525676784333,-0.33011771469320733,20,247981.0,42,77.5,0,1,-2,0,0,0
1778075545.790941,10.84237003326416,0.07807999387418116,1.2596326374998155,2.5775238615834355,0.0033191534725427766,1.2454472231250344,2.580555653832353,0,542,7.476084040163839,1.4185414374781047,-0.30317922489175864,7.615511146852906,25,0,4,-0.741076246936615,0.003768927833886151,0.010610754251043257,20,247973.99999999997,42,77.5,0,0,-1,0,0,0
1778075545.8613791,10.912808179855347,0.07807999387418116,1.2596326374998155,2.5775238615834355,0.03362537866231145,1.2231510436048336,2.59612381606981,0,545,4.445461521186971,3.6481593894981845,-1.8599954486374415,6.044069666746879,-6,5,13,0.43025301851938136,-0.3165355790748557,0.22101890794788137,20,247973.99999999997,42,77.5,0,0,-1,0,0,0
1778075545.9317079,10.983136892318726,0.07807999387418116,1.2596326374998155,2.5775238615834355,0.027603931191316093,1.2228933605863705,2.5957020063236333,0,549,5.047606268286507,3.673927691344492,-1.8178144740197855,6.502347513231582,7,0,6,-0.08561862232485498,-0.003663980320942914,-0.005997689014941118,20,247973.99999999997,42,77.5,0,0,-1,0,0,0
1778075546.0025861,11.054015159606934,0.07807999387418116,1.2596326374998155,2.5775238615834355,0.029536082375295116,1.27389005884303,2.5792091879279933,0,552,4.854391149888604,-1.4257421343214505,-0.16853263445577582,5.062238370382502,4,-6,-15,0.027260135693250424,0.7194969658230306,-0.23269217810554466,20,247973.99999999997,42,77.5,0,0,-1,0,0,0
1778075546.073819,11.125247955322266,0.07807999387418116,1.2596326374998155,2.5775238615834355,0.05845498841454326,1.2001764250412634,2.610748903334835,0,556,1.9625005459637899,5.945621245855204,-3.322504175139951,7.088078328143345,-6,12,30,0.4059774117924124,-1.0348271896606263,0.4427695851344101,20,247973.99999999997,42,77.5,0,0,-1,0,0,0
1778075546.144809,11.196238040924072,0.07807999387418116,1.2596326374998155,2.5775238615834355,0.056328314577969565,1.2496347877238225,2.586653494773053,0,559,2.1751679296211592,0.999784977599294,-0.9129633189617348,2.5621138821791756,4,-8,-13,-0.02995733585253731,0.6966939434328618,-0.3394193478922774,20,247973.99999999997,42,77.5,0,0,-1,0,0,0
1778075546.21695,11.268378973007202,0.07807999387418116,1.2596326374998155,2.5775238615834355,0.05625478958631838,1.200022604669976,2.6111691094504974,0,563,2.182520428786278,5.961003282983945,-3.364524786706191,7.184495988040855,3,9,25,-0.0010191854960573345,-0.6877119773927665,0.3398294694778074,20,247971.0,42,77.5,0,0,-1,0,0,0
1778075546.288378,11.339807033538818,0.07807999387418116,1.2596326374998155,2.5775238615834355,0.030524483082889617,1.2737422089052735,2.5793661044261436,0,567,4.755551079129154,-1.4109571405457988,-0.1842242842708064,4.963869932379246,14,-11,-23,-0.3602268675913405,1.0320818413187478,-0.44524525498318523,20,247971.0,42,77.5,0,0,-1,0,0,0
1778075546.3592331,11.410662174224854,0.07807999387418116,1.2596326374998155,2.5775238615834355,0.03112440034251685,1.1745913309021887,2.6282213826205116,0,570,4.695559353166431,8.504130659762676,-5.069752103707614,10.957686905112416,4,19,30,0.008466813470676977,-1.399346286565576,0.6895092963099143,20,247971.0,42,77.5,0,0,-1,0,0,0
1778075546.430351,11.481780052185059,0.07807999387418116,1.2596326374998155,2.5775238615834355,0.03458759710248324,1.2264601688618257,2.6036237898613788,0,574,4.349239677169791,3.3172468637989727,-2.6099928277943274,6.060699224181146,3,-7,-12,0.04869657052906256,0.7293361310451489,-0.34587073552583736,20,247971.0,42,77.5,0,0,-1,0,0,0
1778075546.501327,11.552756071090698,0.07807999387418116,1.2596326374998155,2.5775238615834355,0.03247577376689713,1.2273690824335892,2.6040759619012435,0,577,4.560422010728403,3.2263555066226246,-2.655210031780797,6.185221021428386,5,1,5,-0.02975404042305775,0.012805924955749528,0.00637077208381952,20,247966.0,42,77.5,0,0,-1,0,0,0
1778075546.5720599,11.623488903045654,0.07807999387418116,1.2596326374998155,2.5775238615834355,0.03148731629829313,1.273711655769334,2.5800734321999426,0,581,4.659267757588803,-1.4079018269518517,-0.25495706165070686,4.8740093039023344,5,-8,-13,-0.013974521326015456,0.6551776884213621,-0.3393407140348367,20,247966.0,42,77.5,0,0,-1,0,0,0
1778075546.641353,11.692781925201416,0.07807999387418116,1.2596326374998155,2.5775238615834355,0.030585316788292037,1.2277293868919479,2.604273815868549,0,584,4.749467708588912,3.1903250607867584,-2.6749954285113287,6.31594949718325,5,9,22,-0.013017176649814936,-0.6635916207265997,0.34924705137274714,20,247969.99999999997,42,77.5,0,0,-1,0,0,0
1778075546.7133079,11.764736890792847,0.07807999387418116,1.2596326374998155,2.5775238615834355,0.03393205340196399,1.2753572399713689,2.579880706087875,0,588,4.414794047221717,-1.5724602471553384,-0.23568445044395148,4.692396495230258,3,-8,-13,0.04651154491095362,0.6619119707437274,-0.33900523167755947,20,247982.00000000003,42,77.5,0,0,-1,0,0,0
1778075546.785541,11.836970090866089,0.07807999387418116,1.2596326374998155,2.5775238615834355,0.03493594471671413,1.2802915390739713,2.587571248477957,0,591,4.314404915746703,-2.065890157415584,-1.0047386894521448,4.88789236313648,4,2,0,0.013897921090748137,0.06831068120475396,0.10646824981149895,20,247982.00000000003,42,77.5,0,0,-1,0,0,0
1778075546.854987,11.906415939331055,0.07807999387418116,1.2596326374998155,2.5775238615834355,0.06620705606889582,1.2080032223045776,2.6191125254622483,0,595,1.1872937805285337,5.162941519523789,-4.158866387881277,6.735117021073428,-8,13,30,0.45029489945619144,-1.0409307160508219,0.45418520590476086,20,247976.00000000003,42,77.5,0,0,-1,0,0,0
1778075546.926215,11.977643966674805,0.07807999387418116,1.2596326374998155,2.5775238615834355,0.06342336270705737,1.2570404325466227,2.5951000837874894,0,599,1.465663116712379,0.25922049531927893,-1.757622220405386,2.3031716189957225,4,-8,-13,-0.03908143276809014,0.688453858273922,-0.33712068928813194,20,247965.0,42,77.5,0,0,-1,0,0,0
1778075546.996628,12.048057079315186,0.07807999387418116,1.2596326374998155,2.5775238615834355,0.03800515523907668,1.2323690506411638,2.6047735015405493,0,602,4.007483863510448,2.726358685865171,-2.7249639957113825,5.560430502956802,13,4,14,-0.3609868462682294,-0.35038050414647137,0.13738091372930453,20,247967.0,42,77.5,0,0,-1,0,0,0
1778075547.067702,12.119131088256836,0.07807999387418116,1.2596326374998155,2.5775238615834355,0.03882771340528389,1.2370185714170707,2.612137247161524,0,606,3.925228046889727,2.2614066082744744,-3.461338557808835,5.701073555025523,4,4,3,0.011573262553439248,0.06541801771339624,0.10360672952921424,20,247967.0,42,77.5,0,0,-1,0,0,0
1778075547.1390212,12.190450191497803,0.07807999387418116,1.2596326374998155,2.5775238615834355,0.06515139146528684,1.2602804410299275,2.5952411972027836,0,609,1.2928602408894319,-0.06478035301120677,-1.7717335619348074,2.1942479146840124,-5,-5,-4,0.36909715439161916,0.32616604185643816,-0.23690777352672776,30,247978.00000000003,42,77.5,0,0,-1,0,0,0
1778075547.209439,12.260868072509766,0.07807999387418116,1.2596326374998155,2.5775238615834355,0.036904806558725724,1.2391626952734769,2.6125391441336308,0,613,4.117518731545544,2.0469942226338578,-3.501528255019526,5.7796925500259,14,7,12,-0.40112801607538384,-0.2998918094803658,0.24564708114276454,30,247979.0,42,77.5,0,0,-1,0,0,0
1778075547.280202,12.331630945205688,0.07807999387418116,1.2596326374998155,2.5775238615834355,0.06602392795315185,1.2660087192260603,2.6031442224337304,0,616,1.2056065921029313,-0.637608172624482,-2.5620360850294954,2.902423183774695,-7,-2,-6,0.41150281616681567,0.3793800750281042,-0.13276625639933373,30,247979.0,42,77.5,0,0,-1,0,0,0
1778075547.351187,12.402616024017334,0.07807999387418116,1.2596326374998155,2.5775238615834355,0.08790096130623169,1.2906867414872236,2.585607113417022,0,620,-0.9820967432050534,-3.1054103987408155,-0.8083251833586491,3.3558124738538884,-5,-6,-7,0.3081919992105551,0.347650839786273,-0.24705345560356554,30,247975.0,42,77.5,0,0,-1,0,0,0
1778075547.420685,12.472114086151123,0.07807999387418116,1.2596326374998155,2.5775238615834355,0.06959044651478691,1.2167882164483617,2.6195853484243985,0,623,0.848954735939425,4.284442105145381,-4.2061486840963,6.063732765280937,9,14,30,-0.2634679907505284,-1.0633177785101644,0.4889090999683678,30,247971.99999999997,42,77.5,0,0,-1,0,0,0
1778075547.492102,12.543530941009521,0.07807999387418116,1.2596326374998155,2.5775238615834355,0.10150369531118718,1.1961372163890889,2.6330560297200787,0,627,-2.342370143700602,6.349542111072659,-5.553216813664319,8.754518826865878,-10,7,15,0.44685878228152404,-0.28916143255284055,0.1886204779304429,30,247971.99999999997,42,77.5,0,0,-1,0,0,0
1778075547.562847,12.614275932312012,0.07807999387418116,1.2596326374998155,2.5775238615834355,0.04175786534094826,1.2452500114118137,2.6123043300948234,0,630,3.63221285332329,1.4382626088001782,-3.478046851138794,5.230523821037057,25,-5,-12,-0.844523815329607,0.6942229282738781,-0.2933310082197266,30,247977.0,42,77.5,0,0,-1,0,0,0
1778075547.632673,12.684102058410645,0.07807999387418116,1.2596326374998155,2.5775238615834355,0.03859873401669916,1.2477008649404722,2.6124990250784705,0,634,3.9481259857482,1.19317725593433,-3.4975163495035044,5.407771387407523,6,1,3,-0.04524282672916259,0.03509937706119527,0.00278828276069744,30,247981.0,42,77.5,0,0,-1,0,0,0
