timestamp,phase,command,axis,repeat,t_send,t_since_cmd,marker_id,pos_x,pos_y,pos_z,marker_dist,tello_height_cm,tello_baro_cm,tello_battery,tello_temp_c,tello_pitch,tello_roll,tello_yaw,tello_vgx,tello_vgy,tello_vgz,tello_agx,tello_agy,tello_agz
1777477201.800826,init_hover,none,-,0,,,4,1.6187718762714878,0.7685236462111197,3.0934324373043056,3.138545651142382,70,249246.0,70,68.5,0,0,-2,0,0,0,5.0,9.0,-1002.0
1777477201.9752378,init_hover,none,-,0,,,4,1.625138741068866,0.7083906804877644,3.101889591954628,3.1396408737203667,70,249241.0,70,68.5,0,0,-2,0,0,0,18.0,2.0,-1003.0
1777477202.025735,init_hover,none,-,0,,,4,1.741092757712392,0.7232761292518579,3.120085103851784,3.147454760775893,70,249238.0,70,68.5,0,0,-2,0,0,0,15.0,1.0,-990.0
1777477202.076433,init_hover,none,-,0,,,4,1.7395562561306332,0.732414937421952,3.105908924358913,3.1344857442257212,70,249238.0,70,68.5,0,0,-2,0,0,0,15.0,1.0,-990.0
1777477202.1264782,init_hover,none,-,0,,,4,1.8108013184087854,0.878334455353053,3.0938495174608045,3.1363202688797918,70,249246.99999999997,70,68.5,0,0,-2,0,0,0,-2.0,4.0,-1007.0
1777477202.1751838,init_hover,none,-,0,,,4,1.8093917197119653,0.8839793837590096,3.0911057627575382,3.1345657429652,70,249235.0,70,68.5,0,0,-2,0,0,0,-2.0,1.0,-1008.0
1777477202.224909,init_hover,none,-,0,,,4,1.7442706704220996,0.7667151548044794,3.105958885623532,3.137970378119176,70,249235.0,70,68.5,0,0,-2,0,0,0,-2.0,1.0,-1008.0
1777477202.274847,init_hover,none,-,0,,,4,1.7548203689431483,0.6549420365620798,3.117176495429951,3.1371799115053234,70,249232.00000000003,70,68.5,0,0,-2,0,0,0,-9.0,4.0,-1001.0
1777477202.335994,init_hover,none,-,0,,,4,1.8422123489806876,0.8223347690567366,3.1078385495013903,3.140370049808669,70,249242.0,70,68.5,0,0,-2,0,0,0,-10.0,2.0,-999.0
1777477202.386441,init_hover,none,-,0,,,4,1.8849662930495816,0.7249627491027164,3.1205165376121684,3.13949948296702,70,249242.0,70,68.5,0,0,-2,0,0,0,-10.0,2.0,-999.0
1777477202.43732,init_hover,none,-,0,,,4,1.8815874330622804,0.7315064892589777,3.118424569737405,3.1382303748404943,70,249241.0,70,68.5,0,0,-2,0,0,0,7.0,12.0,-999.0
1777477202.486995,init_hover,none,-,0,,,4,1.7535830869738818,0.5631452159772754,3.125921236047235,3.1398600654316855,70,249241.0,70,68.5,0,0,-2,0,0,0,7.0,12.0,-999.0
1777477202.537699,init_hover,none,-,0,,,4,1.754068959001269,0.5713403840751544,3.1246030652395658,3.138946307193901,70,249251.00000000003,70,68.5,0,0,-2,0,0,0,15.0,-5.0,-1007.0
1777477202.58788,init_hover,none,-,0,,,4,1.9732777039724139,0.8286579599184457,3.1064498304892796,3.1359994064178807,70,249251.00000000003,70,68.5,0,0,-2,0,0,0,15.0,-5.0,-1007.0
1777477202.637873,init_hover,none,-,0,,,4,1.968928600465806,0.8315539591853793,3.1052129833415605,3.1352116233949157,70,249241.0,70,68.5,0,0,-2,0,0,0,12.0,-6.0,-996.0
1777477202.688931,init_hover,none,-,0,,,4,2.1159604793496634,0.8508453797332163,3.0972924818138146,3.132080635471918,70,249241.0,70,68.5,0,0,-2,0,0,0,12.0,-6.0,-996.0
1777477202.739297,init_hover,none,-,0,,,4,2.026453203757521,0.9131388919302622,3.0796439648676954,3.122213676984084,70,249241.0,70,68.5,0,0,-2,0,0,0,12.0,-6.0,-996.0
1777477202.7890592,init_hover,none,-,0,,,4,1.9458192721992285,0.8450304869091907,3.088922150393998,3.1212862311454765,70,249242.0,70,68.5,0,0,-2,0,0,0,10.0,-3.0,-1016.0
1777477202.8380768,init_hover,none,-,0,,,4,2.021925687302321,0.7581221859944105,3.11169928349932,3.132316182443157,70,249242.0,70,68.5,0,0,-2,0,0,0,10.0,-3.0,-1016.0
1777477202.888448,init_hover,none,-,0,,,4,2.140121857800993,0.681526306575121,3.1127448755698053,3.1285894356264636,70,249244.0,70,68.5,0,0,-2,0,0,0,-11.0,0.0,-1010.0
1777477202.9376798,init_hover,none,-,0,,,4,2.3051323942976554,0.5257852266328451,3.1102347225672045,3.1276968732202284,70,249244.0,70,68.5,0,0,-2,0,0,0,-11.0,0.0,-1010.0
1777477202.988325,init_hover,none,-,0,,,4,2.121206027612713,0.6743949785329975,3.1147974767970266,3.129208658244908,70,249242.0,70,68.5,0,0,-2,0,0,0,17.0,-4.0,-986.0
1777477203.038348,init_hover,none,-,0,,,4,2.121206027612713,0.6743949785329975,3.1147974767970266,3.129208658244908,70,249242.0,70,68.5,0,0,-2,0,0,0,17.0,-4.0,-986.0
1777477203.089869,init_hover,none,-,0,,,4,2.1027647547707757,0.6648741013530324,3.11735090160187,3.13027083941768,70,249244.0,70,68.5,0,0,-2,0,0,0,19.0,-10.0,-992.0
1777477203.140564,init_hover,none,-,0,,,4,2.373894300236862,0.6434697395070887,3.0889311978272946,3.1209886905780397,70,249244.0,70,68.5,0,0,-2,0,0,0,19.0,-10.0,-992.0
1777477203.1907341,init_hover,none,-,0,,,4,2.1446472191336943,0.780653466503922,3.0921502018942437,3.1188479845351837,70,249236.0,70,68.5,0,0,-2,0,0,0,16.0,2.0,-995.0
1777477203.241332,init_hover,none,-,0,,,4,2.241295160208979,0.6075870254259005,3.1080866607259003,3.1243428777981026,70,249236.0,70,68.5,0,0,-2,0,0,0,16.0,2.0,-995.0
1777477203.292377,init_hover,none,-,0,,,4,2.352678759867687,0.721227639820567,3.0783985656574027,3.115141607260905,70,249239.0,70,68.5,0,0,-2,0,0,0,15.0,-13.0,-1002.0
1777477203.342886,init_hover,none,-,0,,,4,2.2641917971099526,0.8300616328975166,3.072727434729947,3.1139049763749607,70,249239.0,70,68.5,0,0,-2,0,0,0,15.0,-13.0,-1002.0
1777477203.3944168,init_hover,none,-,0,,,4,2.256548204448721,0.8156817723332381,3.066484591400957,3.1051467060922353,70,249241.0,70,68.5,0,0,-2,0,0,0,-4.0,3.0,-1012.0
1777477203.445984,init_hover,none,-,0,,,4,2.2388867155974626,0.711052562491343,3.0938808864767355,3.118640649261701,70,249241.0,70,68.5,0,0,-2,0,0,0,-4.0,3.0,-1012.0
1777477203.497262,init_hover,none,-,0,,,4,2.3484031867102466,0.6901207749536628,3.0770876291309266,3.1103091682210877,70,249238.0,70,68.5,0,0,-2,0,0,0,3.0,-12.0,-1007.0
1777477203.545424,init_hover,none,-,0,,,4,2.2556924075895717,0.7979842231825776,3.073392184361189,3.1095835039589517,70,249238.0,70,68.5,0,0,-2,0,0,0,3.0,-12.0,-1007.0
1777477203.59478,init_hover,none,-,0,,,4,2.445902219011977,0.6868128484218979,3.0560352758346068,3.101683737276447,70,249236.0,70,69.0,0,0,-2,0,0,0,3.0,11.0,-995.0
1777477203.641697,init_hover,none,-,0,,,4,2.2699935132587843,0.8695098046102541,3.054499370300242,3.1021447994881792,70,249236.0,70,69.0,0,0,-2,0,0,0,3.0,11.0,-995.0
1777477203.6931121,init_hover,none,-,0,,,4,2.43637957651737,0.7528831238944265,3.045744104311014,3.097016432451767,70,249237.0,70,69.0,0,0,-2,0,0,0,13.0,-12.0,-991.0
1777477203.7453692,init_hover,none,-,0,,,4,2.350755569307711,0.8244779311994631,3.0514076310376543,3.100693392489909,70,249237.0,70,69.0,0,0,-2,0,0,0,13.0,-12.0,-991.0
1777477203.7963362,init_hover,none,-,0,,,4,2.434888477279287,0.8130474380822762,3.033257733399462,3.091987815468274,70,249244.99999999997,70,69.0,0,0,-2,0,0,0,8.0,3.0,-991.0
1777477203.847892,init_hover,none,-,0,,,4,2.430343140187058,0.8035252125101281,3.0267221165576794,3.083678742394674,70,249244.99999999997,70,69.0,0,0,-2,0,0,0,8.0,3.0,-991.0
1777477203.89929,init_hover,none,-,0,,,4,2.433788980286053,0.7906480146963072,3.0319388832583725,3.0876256480696953,70,249242.0,70,69.0,0,0,-2,0,0,0,0.0,11.0,-989.0
1777477203.948973,init_hover,none,-,0,,,4,2.3580433412544446,0.8597336354757488,3.035772127429084,3.091191106916507,70,249242.0,70,69.0,0,0,-2,0,0,0,0.0,11.0,-989.0
1777477203.9997609,init_hover,none,-,0,,,4,2.4363197622419785,0.8448113680280223,3.0202372395485635,3.0838393393959067,70,249246.99999999997,70,69.0,0,0,-2,0,0,0,31.0,-15.0,-999.0
1777477204.050813,init_hover,none,-,0,,,4,2.5201912098563466,0.762777472285623,3.0208120030593855,3.086666737281077,70,249246.99999999997,70,69.0,0,0,-2,0,0,0,31.0,-15.0,-999.0
1777477204.1009338,init_hover,none,-,0,,,4,2.513247333532728,0.8244082063889185,3.0067732151644733,3.0796477588287954,70,249239.0,70,69.0,0,0,-2,0,0,0,6.0,16.0,-1018.0
1777477204.15167,init_hover,none,-,0,,,4,2.5175139212712523,0.8085780505779823,3.002057075553509,3.073614056286921,70,249239.0,70,69.0,0,0,-2,0,0,0,6.0,16.0,-1018.0
1777477204.200862,init_hover,none,-,0,,,4,2.5184041148829492,0.8697816381300992,2.9958614176557035,3.076462781775495,70,249244.0,70,69.0,0,0,-2,0,0,0,8.0,0.0,-1010.0
1777477204.250428,init_hover,none,-,0,,,4,2.651367859298103,0.8068754412736056,2.9692283895321974,3.0669439091776938,70,249244.0,70,69.0,0,0,-2,0,0,0,8.0,0.0,-1010.0
1777477204.297863,init_hover,none,-,0,,,4,2.5982292039885286,0.7898697097402191,2.986990529904773,3.0711543427217176,70,249237.0,70,69.0,0,0,-2,0,0,0,-4.0,3.0,-1017.0
1777477204.345963,init_hover,none,-,0,,,4,2.609198395736706,0.7785900119234359,2.990823250838887,3.0756262452149237,70,249237.0,70,69.0,0,0,-2,0,0,0,-4.0,3.0,-1017.0
1777477204.393188,init_hover,none,-,0,,,4,2.6000585437202766,0.8303052219161504,2.9802694437908333,3.070380888015904,70,249235.0,70,69.0,0,0,-2,0,0,0,-4.0,4.0,-1009.0
1777477204.444198,init_hover,none,-,0,,,4,2.543086226033033,0.8174842248361814,3.0076293380119514,3.084650703364009,70,249235.0,70,69.0,0,0,-2,0,0,0,-4.0,4.0,-1009.0
1777477204.4956381,init_hover,none,-,0,,,4,2.5457750732026145,0.8643621759719236,2.9856602755520663,3.0704510974793817,70,249248.99999999997,70,69.0,0,0,-2,0,0,0,4.0,17.0,-1034.0
1777477204.546459,init_hover,none,-,0,,,4,2.6109887436477788,0.861475497791347,2.9757561450541927,3.0726847405410553,70,249248.99999999997,70,69.0,0,0,-2,0,0,0,4.0,17.0,-1034.0
1777477204.597858,init_hover,none,-,0,,,4,2.620041124711467,0.8428392972502259,2.971764862870367,3.0678891830888326,70,249244.99999999997,70,69.5,0,-1,-2,1,2,0,-4.0,19.0,-1008.0
1777477204.648992,init_hover,none,-,0,,,4,2.6312114060767775,0.8284475502276711,2.968188340150545,3.064659388098972,70,249244.99999999997,70,69.5,0,-1,-2,1,2,0,-4.0,19.0,-1008.0
1777477204.699379,init_hover,none,-,0,,,4,2.627257009964655,0.8749753063620784,2.96738063553944,3.0699186853038958,70,249242.99999999997,70,69.5,1,-4,-2,0,2,0,-7.0,29.0,-1003.0
1777477204.749481,init_hover,none,-,0,,,4,2.7466339438167657,0.8255587318026725,2.9363328071027794,3.0595118621016923,70,249242.99999999997,70,69.5,1,-4,-2,0,2,0,-7.0,29.0,-1003.0
1777477204.799993,init_hover,none,-,0,,,4,2.7023423220486418,0.8129324110888744,2.951932475843483,3.0623035864211414,70,249242.99999999997,70,69.5,1,-4,-2,0,1,0,-25.0,19.0,-981.0
1777477204.8499892,init_hover,none,-,0,,,4,2.6968065340251117,0.8543299327801025,2.9433056627800673,3.058594981071092,70,249242.99999999997,70,69.5,1,-4,-2,0,1,0,-25.0,19.0,-981.0
1777477204.898997,init_hover,none,-,0,,,4,2.698446814748973,0.8525591039057073,2.9447226305206087,3.060070108063071,70,249248.0,70,69.5,1,-3,-2,0,1,0,13.0,-2.0,-993.0
1777477204.9497988,init_hover,none,-,0,,,4,2.750401111277353,0.857609691809878,2.931079992092742,3.060022610682968,70,249248.0,70,69.5,1,-3,-2,0,1,0,13.0,-2.0,-993.0
1777477205.0003798,init_hover,none,-,0,,,4,2.7425920161756125,0.8985821662950978,2.9210044378545974,3.054880358541317,70,249248.0,70,69.5,1,-2,-2,0,0,0,10.0,3.0,-1018.0
1777477205.049697,init_hover,none,-,0,,,4,2.7972780167043343,0.8565769054347422,2.9011519846666003,3.0431558528329297,70,249248.0,70,69.5,1,-2,-2,0,0,0,10.0,3.0,-1018.0
1777477205.0992372,init_hover,none,-,0,,,4,2.7990033252481377,0.8550598463076557,2.9018984850209018,3.0440927375567477,70,249244.99999999997,70,69.5,1,-1,-2,0,0,0,5.0,20.0,-980.0
1777477205.149364,init_hover,none,-,0,,,4,2.762069869006756,0.844813944346014,2.9274444465034453,3.0575383755067564,70,249244.99999999997,70,69.5,1,-1,-2,0,0,0,5.0,20.0,-980.0
1777477205.199262,init_hover,none,-,0,,,4,2.763883019663985,0.843172974941103,2.928222079409818,3.058497032823847,70,249233.0,70,69.5,1,-1,-2,0,0,0,16.0,19.0,-1003.0
1777477205.2489789,init_hover,none,-,0,,,4,2.793658110847697,0.8900499306216504,2.8943963946102524,3.04098218024201,70,249233.0,70,69.5,1,-1,-2,0,0,0,16.0,19.0,-1003.0
1777477205.29932,init_hover,none,-,0,,,4,2.755607666232842,0.8838999330674059,2.9183959325792186,3.0532174684727926,70,249235.0,70,69.5,0,-1,-2,0,0,0,-3.0,40.0,-1015.0
1777477205.348437,init_hover,none,-,0,,,4,2.811004843111018,0.8419991524445664,2.905794963252889,3.0490550134061376,70,249235.0,70,69.5,0,-1,-2,0,0,0,-3.0,40.0,-1015.0
1777477205.3998249,init_hover,none,-,0,,,4,2.8531598264444757,0.8545825674406831,2.891203909082755,3.0485385095115882,70,249241.0,70,69.5,0,-1,-2,0,0,0,0.0,23.0,-1001.0
1777477205.449315,init_hover,none,-,0,,,4,2.7591099111689887,0.8805642941464782,2.9201326926206534,3.0552192786370407,70,249241.0,70,69.5,0,-1,-2,0,0,0,0.0,23.0,-1001.0
1777477205.498602,init_hover,none,-,0,,,4,2.8148309914062413,0.8459060777417617,2.906251353278919,3.0510782853212186,70,249244.0,70,69.5,0,-1,-2,0,0,0,36.0,-15.0,-990.0
1777477205.549044,init_hover,none,-,0,,,4,2.8146139377107673,0.8389304468032831,2.9072562992313506,3.050966239417267,70,249244.0,70,69.5,0,-1,-2,0,0,0,36.0,-15.0,-990.0
1777477205.5982962,init_hover,none,-,0,,,4,2.8564243030220577,0.8491434041731754,2.891875327410523,3.0492843904111018,70,249235.0,70,69.5,0,-1,-2,0,0,0,-5.0,8.0,-1017.0
1777477205.648973,init_hover,none,-,0,,,4,2.8147341835313524,0.8389867722663213,2.9077890790230354,3.051514133037062,70,249235.0,70,69.5,0,-1,-2,0,0,0,-5.0,8.0,-1017.0
1777477205.699163,init_hover,none,-,0,,,4,2.8564243030220577,0.8491434041731754,2.891875327410523,3.0492843904111018,70,249244.0,70,69.5,0,-1,-2,0,0,0,9.0,1.0,-961.0
1777477205.749203,init_hover,none,-,0,,,4,2.804859438024492,0.8865095366439877,2.9064598066020855,3.0548320496577355,70,249244.0,70,69.5,0,-1,-2,0,0,0,9.0,1.0,-961.0
1777477205.7992,init_hover,none,-,0,,,4,2.804859438024492,0.8865095366439877,2.9064598066020855,3.0548320496577355,70,249244.0,70,69.5,0,-1,-2,0,0,0,9.0,1.0,-961.0
1777477205.8498418,init_hover,none,-,0,,,4,2.804859438024492,0.8865095366439877,2.9064598066020855,3.0548320496577355,70,249238.0,70,69.5,0,0,-2,0,0,0,4.0,41.0,-975.0
1777477205.9001348,init_hover,none,-,0,,,4,2.804859438024492,0.8865095366439877,2.9064598066020855,3.0548320496577355,70,249238.0,70,69.5,0,0,-2,0,0,0,4.0,41.0,-975.0
1777477205.9503438,init_hover,none,-,0,,,4,2.7731540480458436,0.834952935030746,2.932066157809997,3.0633255118377822,70,249242.99999999997,70,69.5,0,0,-2,0,0,0,34.0,8.0,-997.0
1777477205.999495,init_hover,none,-,0,,,4,2.8157025166267133,0.8419855470478244,2.917799442956733,3.06174385093674,70,249230.00000000003,70,69.5,0,-1,-2,0,0,0,33.0,-12.0,-967.0
1777477206.0492291,init_hover,none,-,0,,,4,2.8157025166267133,0.8419855470478244,2.917799442956733,3.06174385093674,70,249230.00000000003,70,69.5,0,-1,-2,0,0,0,33.0,-12.0,-967.0
1777477206.098519,init_hover,none,-,0,,,4,2.7613753429305565,0.8821781799306058,2.9316142630556574,3.067010009337299,70,249242.0,70,69.5,0,-1,-2,0,0,0,8.0,33.0,-996.0
1777477206.148202,init_hover,none,-,0,,,4,2.8161934304252405,0.8442681347566333,2.9173201150092813,3.061748282414351,70,249242.0,70,69.5,0,-1,-2,0,0,0,8.0,33.0,-996.0
1777477206.198533,init_hover,none,-,0,,,4,2.8582954963725227,0.8547964230135519,2.9011715248382703,3.0594619072659968,70,249231.0,70,69.5,0,-1,-2,0,0,0,-7.0,40.0,-995.0
1777477206.2492049,init_hover,none,-,0,,,4,2.7579441790035144,0.8824698855942613,2.93207894901683,3.0666502135487006,70,249231.0,70,69.5,0,-1,-2,0,0,0,-7.0,40.0,-995.0
1777477206.298487,init_hover,none,-,0,,,4,2.8126000105994393,0.8436209071391418,2.918704050084894,3.0620175731793458,70,249242.0,70,69.5,0,-1,-2,0,0,0,23.0,18.0,-993.0
1777477206.34785,init_hover,none,-,0,,,4,2.8154204089017583,0.8434943200434012,2.9284959143826526,3.0720817006909433,70,249242.0,70,69.5,0,-1,-2,0,0,0,23.0,18.0,-993.0
1777477206.397513,init_hover,none,-,0,,,4,2.8011408683659593,0.8891582463910153,2.9185843534555866,3.0658175270577117,70,249232.00000000003,70,69.5,0,-1,-2,0,0,0,22.0,24.0,-991.0
1777477206.4477189,init_hover,none,-,0,,,4,2.7562778333310476,0.8810841268392431,2.933421770158839,3.0673052309684468,70,249232.00000000003,70,69.5,0,-1,-2,0,0,0,22.0,24.0,-991.0
1777477206.498049,init_hover,none,-,0,,,4,2.7104564699931712,0.8733801223646653,2.9586220705827055,3.0793313710194035,70,249241.0,70,69.5,0,-1,-2,0,0,0,-2.0,36.0,-1010.0
1777477206.5472372,init_hover,none,-,0,,,4,2.7608359457725897,0.8812352385106031,2.9438772544739287,3.0784528550187327,70,249241.0,70,69.5,0,-1,-2,0,0,0,-2.0,36.0,-1010.0
1777477206.59713,init_hover,none,-,0,,,4,2.801350265795258,0.8861978940064915,2.9202711856153556,3.067007407581826,70,249237.0,70,69.5,0,-1,-2,0,0,0,36.0,17.0,-1004.0
1777477206.6464589,init_hover,none,-,0,,,4,2.814205925127084,0.8389949427998444,2.9319020061027965,3.0743612705252277,70,249237.0,70,69.5,0,-1,-2,0,0,0,36.0,17.0,-1004.0
1777477206.696438,init_hover,none,-,0,,,4,2.8135578952842737,0.8383003402482287,2.9220101856645786,3.064657756156246,70,249236.0,70,69.5,0,-1,-3,0,0,0,12.0,41.0,-1002.0
1777477206.7470589,init_hover,none,-,0,,,4,2.8030906859393467,0.8845935028629145,2.9211118472498967,3.0680091161864538,70,249236.0,70,69.5,0,-1,-3,0,0,0,12.0,41.0,-1002.0
1777477206.796352,init_hover,none,-,0,,,4,2.8030906859393467,0.8845935028629145,2.9211118472498967,3.0680091161864538,70,249248.0,70,69.5,0,-1,-2,0,0,0,7.0,42.0,-999.0
1777477206.8650272,recenter,right,-,1,,,4,2.7604209362395524,0.8772824200136923,2.9470283295313373,3.080749013435828,70,249248.0,70,69.5,0,-1,-2,0,0,0,7.0,42.0,-999.0
1777477206.914857,recenter,right,-,1,,,4,2.8164451437126465,0.839716475117198,2.933400981516415,3.0764873751639104,70,249241.0,70,69.5,0,-1,-2,0,0,0,13.0,45.0,-1013.0
1777477206.964488,recenter,right,-,1,,,4,2.8560856169411526,0.8456009799544045,2.9086976645422897,3.0646312862371565,70,249241.0,70,69.5,0,-1,-2,0,0,0,13.0,45.0,-1013.0
1777477207.0153952,recenter,right,-,1,,,4,2.8038656523758063,0.8838568821950563,2.9226782379885403,3.0695871957526957,70,249233.0,70,69.5,0,-2,-2,0,0,0,14.0,29.0,-995.0
1777477207.066004,recenter,right,-,1,,,4,2.8017172269045134,0.8802617102267014,2.924668544108895,3.070356317290451,70,249233.0,70,69.5,0,-2,-2,0,0,0,14.0,29.0,-995.0
1777477207.116599,recenter,right,-,1,,,4,2.8123630871415384,0.8337462826880008,2.9254315358873866,3.0669560307021393,70,249233.0,70,69.5,0,-1,-2,0,0,0,-8.0,27.0,-997.0
1777477207.166521,recenter,right,-,1,,,4,2.8514431483236926,0.84279391499497,2.9107035087088673,3.064835526026486,70,249233.0,70,69.5,0,-1,-2,0,0,0,-8.0,27.0,-997.0
1777477207.217411,recenter,right,-,1,,,4,2.798381788959643,0.8805485791692524,2.92518964631931,3.0700284827372006,70,249236.0,70,69.5,0,-1,-2,0,0,0,-7.0,32.0,-1006.0
1777477207.267186,recenter,right,-,1,,,4,2.8514624178641217,0.8442972601144256,2.910643931895083,3.065001860139382,70,249236.0,70,69.5,0,-1,-2,0,0,0,-7.0,32.0,-1006.0
1777477207.317776,recenter,right,-,1,,,4,2.808985224189351,0.8338870507154457,2.926033412255703,3.0666572347381758,70,249236.0,70,69.5,0,-1,-2,0,0,0,-5.0,44.0,-991.0
1777477207.367423,recenter,right,-,1,,,4,2.7495088911678796,0.8724090834079259,2.9411431543357294,3.0716863404849692,70,249236.0,70,69.5,0,-1,-2,0,0,0,-5.0,44.0,-991.0
1777477207.418561,recenter,right,-,1,,,4,2.795049677149817,0.8808623229208687,2.9257075786291846,3.0697064026367618,70,249225.0,70,69.5,0,-1,-2,0,0,0,9.0,26.0,-1021.0
1777477207.469592,recenter,right,-,1,,,4,2.795049677149817,0.8808623229208687,2.9257075786291846,3.0697064026367618,70,249225.0,70,69.5,0,-1,-2,0,0,0,9.0,26.0,-1021.0
1777477207.521209,recenter,right,-,1,,,4,2.795049677149817,0.8808623229208687,2.9257075786291846,3.0697064026367618,70,249223.0,70,69.5,0,-1,-2,0,0,0,3.0,28.0,-1021.0
1777477207.571815,recenter,right,-,1,,,4,2.8644527940711653,0.8053581259569627,2.9178881365633274,3.0701245937182735,70,249223.0,70,69.5,0,-1,-2,0,0,0,3.0,28.0,-1021.0
1777477207.623351,recenter,right,-,1,,,4,2.8097089970426286,0.839973494998163,2.934594265807449,3.0758817989484966,70,249231.0,70,69.5,0,-1,-2,0,0,0,-24.0,27.0,-997.0
1777477207.674484,recenter,right,-,1,,,4,2.8093100086391765,0.8377128733553576,2.933827043523856,3.0747221615776077,70,249231.0,70,69.5,0,-1,-2,0,0,0,-24.0,27.0,-997.0
1777477207.726175,recenter,right,-,1,,,4,2.8093100086391765,0.8377128733553576,2.933827043523856,3.0747221615776077,70,249226.00000000003,70,69.5,0,-1,-2,0,0,0,-19.0,25.0,-991.0
1777477207.7775528,recenter,right,-,1,,,4,2.8094189620367236,0.8430428153217618,2.932491326355873,3.074239966473871,70,249226.00000000003,70,69.5,0,-1,-2,0,0,0,-19.0,25.0,-991.0
1777477207.827429,recenter,right,-,1,,,4,2.8138995253639325,0.8460327646780743,2.940818243645378,3.083794676484069,70,249239.0,70,69.5,0,-1,-2,0,0,0,-4.0,23.0,-970.0
1777477207.876423,recenter,right,-,1,,,4,2.8117481796991597,0.8468743725872496,2.940891762196168,3.0834195577432255,70,249239.0,70,69.5,0,-1,-2,0,0,0,-4.0,23.0,-970.0
1777477207.928351,recenter,right,-,1,,,4,2.8117481796991597,0.8468743725872496,2.940891762196168,3.0834195577432255,70,249242.99999999997,70,69.5,0,-1,-2,0,0,0,-18.0,33.0,-1000.0
1777477207.979918,recenter,right,-,1,,,4,2.7543413284847995,0.8884322189036296,2.95332153618853,3.087022022668175,70,249242.99999999997,70,69.5,0,-1,-2,0,0,0,-18.0,33.0,-1000.0
1777477208.031126,recenter,right,-,1,,,4,2.7543413284847995,0.8884322189036296,2.95332153618853,3.087022022668175,70,249233.0,70,69.5,0,-1,-2,0,0,0,-34.0,37.0,-1017.0
1777477208.082477,recenter,right,-,1,,,4,2.812871165860367,0.8537624366883229,2.9487184110976807,3.0921837185366186,70,249233.0,70,69.5,0,-1,-2,0,0,0,-34.0,37.0,-1017.0
1777477208.132214,recenter,right,-,1,,,4,2.7647609712959387,0.8398220520018482,2.9648858039331887,3.0933558817260542,70,249242.0,70,69.5,0,-1,-1,0,0,0,20.0,30.0,-970.0
1777477208.183006,recenter,right,-,1,,,4,2.7554873783809635,0.8922116982045782,2.962064387485995,3.0962653262204705,70,249242.0,70,69.5,0,-1,-1,0,0,0,20.0,30.0,-970.0
1777477208.23243,recenter,right,-,1,,,4,2.767551185864643,0.8464007929290143,2.9740571725295633,3.103775854717027,70,249241.0,70,69.5,0,-1,-1,0,0,0,9.0,5.0,-985.0
1777477208.281516,recenter,right,-,1,,,4,2.765732806856767,0.8481416598186664,2.9732392656605295,3.102793807140161,70,249241.0,70,69.5,0,-1,-1,0,0,0,9.0,5.0,-985.0
1777477208.331701,recenter,right,-,1,,,4,2.8642766595299722,0.8208565407806837,2.9415220474540082,3.094615699531073,70,249231.0,70,69.5,0,-1,-1,0,0,0,20.0,0.0,-996.0
1777477208.380119,recenter,right,-,1,,,4,2.9021540161871826,0.8335124449693123,2.914991320804255,3.082043041430484,70,249231.0,70,69.5,0,-1,-1,0,0,0,20.0,0.0,-996.0
1777477208.427398,recenter,right,-,1,,,4,2.760447437547291,0.8502040122742761,2.9729455606936424,3.1015108035904264,70,249227.0,70,69.5,0,-1,-1,0,0,0,10.0,0.0,-1047.0
1777477208.473651,recenter,right,-,1,,,4,2.7609167480632304,0.8516617720360626,2.982925662560849,3.111404532066822,70,249227.0,70,69.5,0,-1,-1,0,0,0,10.0,0.0,-1047.0
1777477208.525984,recenter,right,-,1,,,4,2.8056595585601714,0.8621523371324128,2.955865432351496,3.0983564290098737,70,249233.0,70,69.5,0,0,-1,0,0,0,-3.0,27.0,-1021.0
1777477208.5781848,recenter,right,-,1,,,4,2.7609221123347476,0.8548220823235331,2.980214196655255,3.1092671557064078,70,249233.0,70,69.5,0,0,-1,0,0,0,-3.0,27.0,-1021.0
1777477208.626604,recenter,right,-,1,,,4,2.8196124790966985,0.8211551772278036,2.9635876287021796,3.103544414406442,70,249237.0,70,70.0,0,0,-1,0,0,0,5.0,8.0,-1010.0
1777477208.6752,recenter,right,-,1,,,4,2.81930378002816,0.8241715702519903,2.9615875989991207,3.101964105453809,70,249237.0,70,70.0,0,0,-1,0,0,0,5.0,8.0,-1010.0
1777477208.725013,recenter,right,-,1,,,4,2.761035849108457,0.863059793463028,2.9767050588410617,3.107148683806461,70,249228.00000000003,70,70.0,0,-1,-2,0,0,0,4.0,14.0,-1004.0
1777477208.778018,recenter,right,-,1,,,4,2.7636445909013365,0.8676862707904421,2.985103423551851,3.116524660322732,70,249228.00000000003,70,70.0,0,-1,-2,0,0,0,4.0,14.0,-1004.0
1777477208.8302321,recenter,right,-,1,,,4,2.7137630275706175,0.8591053748457247,3.0002156756106646,3.117936738440818,70,249236.0,70,70.0,0,0,-2,0,0,0,-13.0,28.0,-976.0
1777477208.882647,recenter,right,-,1,,,4,2.8045167455128523,0.8757295463377883,2.959571394650504,3.103647633850028,70,249236.0,70,70.0,0,0,-2,0,0,0,-13.0,28.0,-976.0
1777477208.933679,recenter,right,-,1,,,4,2.802856295081636,0.8773136928350458,2.958769653288629,3.102696319838884,70,249226.00000000003,70,70.0,0,0,-2,0,0,0,1.0,27.0,-961.0
1777477208.984938,recenter,right,-,1,,,4,2.861154432774301,0.8450776698846816,2.952268357993741,3.1073412343879876,70,249226.00000000003,70,70.0,0,0,-2,0,0,0,1.0,27.0,-961.0
1777477209.0354838,recenter,right,-,1,,,4,2.7679165643795094,0.8232256153412276,2.9843515801898266,3.1104935501477735,70,249232.00000000003,70,70.0,0,0,-2,0,0,0,17.0,10.0,-969.0
1777477209.086593,recenter,right,-,1,,,4,2.772427664711863,0.8264459147092318,2.9929954604825584,3.1203401163741136,70,249232.00000000003,70,70.0,0,0,-2,0,0,0,17.0,10.0,-969.0
1777477209.137413,recenter,right,-,1,,,4,2.7466109446549307,0.9242549979219855,2.9792572622438516,3.115805680744138,70,249246.0,70,70.0,0,0,-2,0,0,0,11.0,30.0,-970.0
1777477209.187222,recenter,right,-,1,,,4,2.76670239494024,0.8224383519034523,2.99547398852151,3.1207613076739733,70,249246.0,70,70.0,0,0,-2,0,0,0,11.0,30.0,-970.0
1777477209.236608,recenter,right,-,1,,,4,2.767418740314486,0.825249296660992,2.994859075365226,3.1207289803175793,70,249233.0,70,70.0,0,0,-2,0,0,0,-18.0,25.0,-953.0
1777477209.286749,recenter,right,-,1,,,4,2.701148412674832,0.8638833020204917,3.010977756123983,3.1261452081378573,70,249233.0,70,70.0,0,0,-2,0,0,0,-18.0,25.0,-953.0
1777477209.3374798,recenter,right,-,1,,,4,2.760705378061106,0.8227007355385065,2.9980647826418165,3.1218169428960767,70,249246.99999999997,70,70.0,0,0,-2,0,0,0,-29.0,34.0,-977.0
1777477209.387319,recenter,right,-,1,,,4,2.8041852031320484,0.831310504823098,2.972815262717194,3.10972236361248,70,249246.99999999997,70,70.0,0,0,-2,0,0,0,-29.0,34.0,-977.0
1777477209.437144,recenter,right,-,1,,,4,2.7870415084814613,0.8763454785862398,2.963413481381567,3.10292745849405,70,249244.99999999997,70,70.0,0,0,-2,0,0,0,21.0,-10.0,-1029.0
1777477209.48816,recenter,right,-,1,,,4,2.7416300874154342,0.8691537102546807,2.9893045208329063,3.115455329270123,70,249244.99999999997,70,70.0,0,0,-2,0,0,0,21.0,-10.0,-1029.0
1777477209.538924,recenter,right,-,1,,,4,2.749356632290424,0.8169001891048211,2.9926803441511054,3.1131136780242477,70,249229.0,70,70.0,0,0,-2,0,0,0,12.0,6.0,-981.0
1777477209.5885398,recenter,right,-,1,,,4,2.7336618924370217,0.8618664383051107,2.9818838578135867,3.1053521089783294,70,249229.0,70,70.0,0,0,-2,0,0,0,12.0,6.0,-981.0
1777477209.639232,recenter,right,-,1,,,4,2.809981485020395,0.7781986429009518,2.9759860585551206,3.10734569050217,70,249238.0,70,69.5,0,0,-2,0,0,0,4.0,16.0,-1025.0
1777477209.6895628,recenter,right,-,1,,,4,2.7459029550735345,0.8140845837411234,2.9953940482522747,3.1145180630692515,70,249238.0,70,69.5,0,0,-2,0,0,0,4.0,16.0,-1025.0
1777477209.739882,recenter,right,-,1,,,4,2.7419642237664634,0.8095291495698144,2.9972913024687005,3.1148001838884087,70,249239.0,70,69.5,0,0,-2,0,0,0,13.0,-3.0,-1007.0
1777477209.791161,recenter,right,-,1,,,4,2.7419642237664634,0.8095291495698144,2.9972913024687005,3.1148001838884087,70,249239.0,70,69.5,0,0,-2,0,0,0,13.0,-3.0,-1007.0
1777477209.842336,recenter,right,-,1,,,4,2.8069316742536614,0.7752883973288287,2.9786385054268743,3.1087404932054237,70,249235.0,70,69.5,0,0,-2,0,0,0,7.0,15.0,-1031.0
1777477209.893333,recenter,right,-,1,,,4,2.8069316742536614,0.7752883973288287,2.9786385054268743,3.1087404932054237,70,249235.0,70,69.5,0,0,-2,0,0,0,7.0,15.0,-1031.0
1777477209.9448562,recenter,right,-,1,,,4,2.744152752166304,0.812679464019661,2.9967628185148243,3.1152295339209197,70,249227.0,70,69.5,0,0,-2,0,0,0,-3.0,15.0,-997.0
1777477209.996201,recenter,right,-,1,,,4,2.7455396357958386,0.8090744512199417,2.996120135640152,3.114467389839208,70,249227.0,70,69.5,0,0,-2,0,0,0,-3.0,15.0,-997.0
1777477210.046079,recenter,right,-,1,,,4,2.7435597067906095,0.8100359017446965,2.9856019325406513,3.1040021549400696,70,249238.0,70,69.5,0,0,-2,0,0,0,2.0,22.0,-1024.0
1777477210.096565,recenter,right,-,1,,,4,2.7435597067906095,0.8100359017446965,2.9856019325406513,3.1040021549400696,70,249238.0,70,69.5,0,0,-2,0,0,0,2.0,22.0,-1024.0
1777477210.1479712,recenter,right,-,1,,,4,2.7411254768463595,0.8058031290285474,2.9875278959854064,3.1047167473460595,70,249233.0,70,69.5,0,0,-2,0,0,0,11.0,3.0,-1001.0
1777477210.198317,recenter,right,-,1,,,4,2.7435597067906095,0.8100359017446965,2.9856019325406513,3.1040021549400696,70,249236.0,70,69.5,0,0,-2,0,0,0,3.0,22.0,-1025.0
1777477210.247382,recenter,right,-,1,,,4,2.7918097400187034,0.8217263462866542,2.9697801852024805,3.1023233429096426,70,249236.0,70,69.5,0,0,-2,0,0,0,3.0,22.0,-1025.0
1777477210.298228,recenter,right,-,1,,,4,2.732036779434729,0.8623829922505828,2.984181681969197,3.1072521926886267,70,249238.0,70,69.5,0,0,-2,0,0,0,-20.0,28.0,-1007.0
1777477210.34655,recenter,right,-,1,,,4,2.7452975271283924,0.8114348653404247,2.984243718754178,3.1032978628042063,70,249238.0,70,69.5,0,0,-2,0,0,0,-20.0,28.0,-1007.0
1777477210.395807,recenter,right,-,1,,,4,2.7954097255640065,0.8251441408255499,2.9661934842116766,3.100278690340581,70,249230.00000000003,70,69.5,0,0,-2,0,0,0,22.0,-12.0,-992.0
1777477210.442824,recenter,right,-,1,,,4,2.7470205826196823,0.8128363194110219,2.9828929553491528,3.102599548854781,70,249230.00000000003,70,69.5,0,0,-2,0,0,0,22.0,-12.0,-992.0
1777477210.491263,recenter,right,-,1,,,4,2.794982698463568,0.8243849091475977,2.967091071618914,3.100923970246498,70,249230.00000000003,70,69.5,0,0,-2,0,0,0,22.0,-12.0,-992.0
1777477210.540261,recenter,right,-,1,,,4,2.748728803687769,0.8142386881680982,2.9815499532783774,3.1019072578240046,70,249233.0,70,69.5,0,0,-2,0,0,0,19.0,-3.0,-1004.0
1777477210.592031,recenter,right,-,1,,,4,2.7965494712142176,0.8257167382217523,2.9657580718525334,3.1002333367106862,70,249233.0,70,69.5,0,0,-2,0,0,0,19.0,-3.0,-1004.0
1777477210.64378,recenter,right,-,1,,,4,2.7504221412175833,0.8156427161906052,2.980214707210418,3.1012210431739886,70,249229.0,70,69.5,0,0,-2,0,0,0,7.0,9.0,-1001.0
1777477210.692346,recenter,right,-,1,,,4,2.749735435720067,0.8128533273374885,2.980791249759584,3.1012364579488767,70,249229.0,70,69.5,0,0,-2,0,0,0,7.0,9.0,-1001.0
1777477210.7386198,recenter,right,-,1,,,4,2.7996434293695676,0.8283861282838595,2.963115485826615,3.0988703863481377,70,249239.0,70,69.5,0,0,-2,0,0,0,0.0,10.0,-1005.0
1777477210.790709,recenter,right,-,1,,,4,2.7996434293695676,0.8283861282838595,2.963115485826615,3.0988703863481377,70,249239.0,70,69.5,0,0,-2,0,0,0,0.0,10.0,-1005.0
1777477210.841933,recenter,right,-,1,,,4,2.691095673602307,0.8565512367194774,2.9929973889429164,3.105492816291969,70,249239.0,70,69.5,0,0,-2,0,0,0,12.0,-1.0,-1001.0
1777477210.894489,recenter,right,-,1,,,4,2.737940802155984,0.8621056848047682,2.968746422114175,3.0937927548934523,70,249239.0,70,69.5,0,0,-2,0,0,0,12.0,-1.0,-1001.0
1777477210.944598,recenter,right,-,1,,,4,2.7555169985033454,0.8167264390102706,2.9783212852779353,3.1007845036921378,70,249244.0,70,69.5,0,0,-2,0,0,0,20.0,4.0,-981.0
1777477210.9962182,recenter,right,-,1,,,4,2.813393562860424,0.7786354069372451,2.950590909626319,3.0839845290563273,70,249244.0,70,69.5,0,0,-2,0,0,0,20.0,4.0,-981.0
1777477211.0469818,recenter,right,-,1,,,4,2.743873694054127,0.865388741903337,2.9657479149100467,3.0928296830878663,70,249244.0,70,69.5,0,0,-2,0,0,0,9.0,-11.0,-991.0
1777477211.0971599,recenter,right,-,1,,,4,2.6931896330271297,0.8564392044808007,2.9814599791662286,3.094826686923396,70,249244.0,70,69.5,0,0,-2,0,0,0,9.0,-11.0,-991.0
1777477211.147862,recenter,right,-,1,,,4,2.801402447176541,0.822999485018239,2.951989496500244,3.0879469610266956,70,249242.0,70,69.5,0,0,-2,0,0,0,23.0,-6.0,-988.0
1777477211.198355,recenter,right,-,1,,,4,2.7541356354772355,0.8112822516232359,2.968424726990596,3.090213424183858,70,249242.0,70,69.5,0,0,-2,0,0,0,23.0,-6.0,-988.0
1777477211.24965,recenter,right,-,1,,,4,2.7430099825956464,0.8628900334208698,2.9669526413439873,3.0934024945446756,70,249235.0,70,69.5,0,0,-2,0,0,0,-3.0,29.0,-1008.0
1777477211.299829,recenter,right,-,1,,,4,2.757806451293252,0.81294742767415,2.96753795194414,3.0904817896038788,70,249235.0,70,69.5,0,0,-2,0,0,0,-3.0,29.0,-1008.0
1777477211.350535,recenter,right,-,1,,,4,2.696742529898423,0.8558927268862672,2.981028115969183,3.0951279391320528,70,249242.99999999997,70,69.5,0,0,-2,0,0,0,5.0,25.0,-1003.0
1777477211.400788,recenter,right,-,1,,,4,2.746658280647835,0.864162982337125,2.966218591442559,3.0937677020829395,70,249242.99999999997,70,69.5,0,0,-2,0,0,0,5.0,25.0,-1003.0
1777477211.4517078,recenter,right,-,1,,,4,2.746658280647835,0.864162982337125,2.966218591442559,3.0937677020829395,70,249238.0,70,69.5,0,0,-2,0,0,0,-9.0,37.0,-1019.0
1777477211.5008519,recenter,right,-,1,,,4,2.757555851823713,0.8110066334406985,2.9678590746725293,3.0904699979907084,70,249238.0,70,69.5,0,0,-2,0,0,0,-9.0,37.0,-1019.0
1777477211.551244,recenter,right,-,1,,,4,2.8198408156155232,0.7785586813101532,2.949279441350297,3.084427801281127,70,249231.0,70,69.5,0,0,-2,0,0,0,-8.0,17.0,-987.0
1777477211.600946,recenter,right,-,1,,,4,2.7002975724509275,0.8553790594842224,2.98059187449228,3.09543449294066,70,249231.0,70,69.5,0,0,-2,0,0,0,-8.0,17.0,-987.0
1777477211.6521869,recenter,right,-,1,,,4,2.7002975724509275,0.8553790594842224,2.98059187449228,3.09543449294066,70,249231.0,70,69.5,0,0,-2,0,0,0,8.0,2.0,-983.0
1777477211.701876,recenter,right,-,1,,,4,2.7609747208308244,0.8107602855406526,2.967292214534118,3.090732862017644,70,249231.0,70,69.5,0,0,-2,0,0,0,8.0,2.0,-983.0
1777477211.751812,recenter,right,-,1,,,4,2.7472618375710716,0.8571883929622754,2.956625884253575,3.083676069237454,70,249237.0,70,69.5,0,0,-2,0,0,0,-2.0,16.0,-1015.0
1777477211.801722,recenter,right,-,1,,,4,2.7940131194406836,0.8662681009507025,2.941328631304243,3.0820896958294695,70,249237.0,70,69.5,0,0,-2,0,0,0,-2.0,16.0,-1015.0
1777477211.8524249,recenter,right,-,1,,,4,2.8068437890455504,0.8216943554452192,2.941462619221703,3.079127371450285,70,249237.0,70,69.5,0,0,-2,0,0,0,3.0,23.0,-1008.0
1777477211.903629,recenter,right,-,1,,,4,2.7491088901570793,0.8604576319770845,2.9561603791146727,3.084164319099376,70,249237.0,70,69.5,0,0,-2,0,0,0,3.0,23.0,-1008.0
1777477211.95326,recenter,right,-,1,,,4,2.7491088901570793,0.8604576319770845,2.9561603791146727,3.084164319099376,70,249234.0,70,69.5,0,0,-2,0,0,0,5.0,0.0,-1002.0
1777477212.005631,recenter,right,-,1,,,4,2.8095965345665177,0.8210727028785758,2.951999467880688,3.089830032260585,70,249234.0,70,69.5,0,0,-2,0,0,0,5.0,0.0,-1002.0
1777477212.0559108,recenter,right,-,1,,,4,2.7508165562421283,0.858756783309252,2.956988102493011,3.085119434583491,70,249239.0,70,69.5,0,0,-2,0,0,0,13.0,26.0,-1016.0
1777477212.107027,recenter,right,-,1,,,4,2.755077141012922,0.8616316362470102,2.9661058309222676,3.095323740208028,70,249239.0,70,69.5,0,0,-2,0,0,0,13.0,26.0,-1016.0
1777477212.158047,recenter,right,-,1,,,4,2.755077141012922,0.8616316362470102,2.9661058309222676,3.095323740208028,70,249240.0,70,69.5,0,0,-2,0,0,0,21.0,-8.0,-983.0
1777477212.209284,recenter,right,-,1,,,4,2.755077141012922,0.8616316362470102,2.9661058309222676,3.095323740208028,70,249240.0,70,69.5,0,0,-2,0,0,0,21.0,-8.0,-983.0
1777477212.260443,recenter,right,-,1,,,4,2.755077141012922,0.8616316362470102,2.9661058309222676,3.095323740208028,70,249240.0,70,69.5,0,0,-2,0,0,0,22.0,0.0,-1000.0
1777477212.311777,recenter,right,-,1,,,4,2.8127784222794068,0.8208226691843957,2.9509478680870913,3.0896268063942975,70,249240.0,70,69.5,0,0,-2,0,0,0,22.0,0.0,-1000.0
1777477212.360383,recenter,right,-,1,,,4,2.812834846374633,0.8209075886334387,2.951411561628944,3.0900960974971463,70,249248.99999999997,70,69.5,0,-1,-2,0,0,0,-1.0,23.0,-996.0
1777477212.407604,recenter,right,-,1,,,4,2.7547881346794725,0.85992774477951,2.966370520646102,3.0952532569127698,70,249248.99999999997,70,69.5,0,-1,-2,0,0,0,-1.0,23.0,-996.0
1777477212.45488,recenter,right,-,1,,,4,2.7547881346794725,0.85992774477951,2.966370520646102,3.0952532569127698,70,249239.0,70,69.5,0,-1,-2,0,0,0,2.0,9.0,-999.0
1777477212.503385,recenter,right,-,1,,,4,2.6984710355152517,0.9024450916346284,2.977085753437234,3.0989276275641586,70,249239.0,70,69.5,0,-1,-2,0,0,0,2.0,9.0,-999.0
1777477212.5513651,recenter,right,-,1,,,4,2.758938373706969,0.8620606949980714,2.9646822481627964,3.0949682346542255,70,249242.99999999997,70,69.5,0,-1,-2,0,0,0,-9.0,32.0,-1000.0
1777477212.5995772,recenter,right,-,1,,,4,2.8051822523236867,0.8709051357155031,2.949517171628086,3.0934966707642064,70,249242.99999999997,70,69.5,0,-1,-2,0,0,0,-9.0,32.0,-1000.0
1777477212.6511538,recenter,right,-,1,,,4,2.758938373706969,0.8620606949980714,2.9646822481627964,3.0949682346542255,70,249246.99999999997,70,69.5,0,-1,-2,0,0,0,7.0,14.0,-998.0
1777477212.699442,recenter,right,-,1,,,4,2.755851489629433,0.8553249918726242,2.9661006647320463,3.094573553160875,70,249246.99999999997,70,69.5,0,-1,-2,0,0,0,7.0,14.0,-998.0
1777477212.746062,recenter,right,-,1,,,4,2.6984710355152517,0.9024450916346284,2.977085753437234,3.0989276275641586,70,249241.0,70,69.5,0,-1,-2,0,0,0,26.0,0.0,-1018.0
1777477212.798926,recenter,right,-,1,,,4,2.6984710355152517,0.9024450916346284,2.977085753437234,3.0989276275641586,70,249241.0,70,69.5,0,-1,-2,0,0,0,26.0,0.0,-1018.0
1777477212.849783,recenter,right,-,1,,,4,2.7547881346794725,0.85992774477951,2.966370520646102,3.0952532569127698,70,249240.0,70,69.5,0,0,-2,0,0,0,13.0,1.0,-991.0
1777477212.881184,pre_hover,right,x,1,,,4,2.7988271614896356,0.8694191373109302,2.9403773958543407,3.082904213636629,70,249240.0,70,69.5,0,0,-2,0,0,0,13.0,1.0,-991.0
1777477212.931634,pre_hover,right,x,1,,,4,2.7988271614896356,0.8694191373109302,2.9403773958543407,3.082904213636629,70,249240.0,70,69.5,0,0,-2,0,0,0,13.0,1.0,-991.0
1777477212.9825768,pre_hover,right,x,1,,,4,2.7988271614896356,0.8694191373109302,2.9403773958543407,3.082904213636629,70,249237.0,70,69.5,0,0,-2,0,0,0,15.0,-1.0,-993.0
1777477213.033462,pre_hover,right,x,1,,,4,2.7988271614896356,0.8694191373109302,2.9403773958543407,3.082904213636629,70,249237.0,70,69.5,0,0,-2,0,0,0,15.0,-1.0,-993.0
1777477213.0845141,pre_hover,right,x,1,,,4,2.7524630526575375,0.8601108189457257,2.955675790209399,3.08446461937166,70,249241.0,70,69.5,0,0,-2,0,0,0,3.0,18.0,-1007.0
1777477213.135123,pre_hover,right,x,1,,,4,2.7524630526575375,0.8601108189457257,2.955675790209399,3.08446461937166,70,249241.0,70,69.5,0,0,-2,0,0,0,3.0,18.0,-1007.0
1777477213.185756,pre_hover,right,x,1,,,4,2.7524630526575375,0.8601108189457257,2.955675790209399,3.08446461937166,70,249246.0,70,69.5,0,0,-2,0,0,0,-16.0,26.0,-1003.0
1777477213.236367,pre_hover,right,x,1,,,4,2.810061187787174,0.8215530416164206,2.9408748836842,3.0793913645945983,70,249246.0,70,69.5,0,0,-2,0,0,0,-16.0,26.0,-1003.0
1777477213.287426,pre_hover,right,x,1,,,4,2.7524630526575375,0.8601108189457257,2.955675790209399,3.08446461937166,70,249242.0,70,69.5,0,0,-2,0,0,0,-13.0,26.0,-999.0
1777477213.337292,pre_hover,right,x,1,,,4,2.7524630526575375,0.8601108189457257,2.955675790209399,3.08446461937166,70,249242.0,70,69.5,0,0,-2,0,0,0,-13.0,26.0,-999.0
1777477213.3882391,pre_hover,right,x,1,,,4,2.7524630526575375,0.8601108189457257,2.955675790209399,3.08446461937166,70,249241.0,70,69.5,0,0,-2,0,0,0,10.0,17.0,-1007.0
1777477213.438619,pre_hover,right,x,1,,,4,2.7524630526575375,0.8601108189457257,2.955675790209399,3.08446461937166,70,249241.0,70,69.5,0,0,-2,0,0,0,10.0,17.0,-1007.0
1777477213.488984,pre_hover,right,x,1,,,4,2.810061187787174,0.8215530416164206,2.9408748836842,3.0793913645945983,70,249238.0,70,69.5,0,0,-2,0,0,0,7.0,-2.0,-995.0
1777477213.541337,pre_hover,right,x,1,,,4,2.810061187787174,0.8215530416164206,2.9408748836842,3.0793913645945983,70,249238.0,70,69.5,0,0,-2,0,0,0,7.0,-2.0,-995.0
1777477213.592818,pre_hover,right,x,1,,,4,2.810061187787174,0.8215530416164206,2.9408748836842,3.0793913645945983,70,249242.0,70,69.5,0,0,-2,0,0,0,-9.0,21.0,-983.0
1777477213.644046,pre_hover,right,x,1,,,4,2.7662110037820034,0.8088604215931525,2.967447890320438,3.091923855535446,70,249242.0,70,69.5,0,0,-2,0,0,0,-9.0,21.0,-983.0
1777477213.694817,pre_hover,right,x,1,,,4,2.752319898682029,0.8550758932099467,2.9569811903060463,3.084933882331602,70,249246.99999999997,70,70.0,0,0,-2,0,0,0,-9.0,20.0,-1009.0
1777477213.742325,pre_hover,right,x,1,,,4,2.752319898682029,0.8550758932099467,2.9569811903060463,3.084933882331602,70,249246.99999999997,70,70.0,0,0,-2,0,0,0,-9.0,20.0,-1009.0
1777477213.790524,pre_hover,right,x,1,,,4,2.743365222884194,0.9066629443843238,2.9541686673971825,3.0881081116497695,70,249244.99999999997,70,70.0,0,0,-2,0,0,0,1.0,11.0,-1003.0
1777477213.839755,pre_hover,right,x,1,,,4,2.767969486340029,0.8071691481706896,2.967609855071976,3.092292369600864,70,249244.99999999997,70,70.0,0,0,-2,0,0,0,1.0,11.0,-1003.0
1777477213.893215,pre_hover,right,x,1,,,4,2.814536157884,0.8192580343888078,2.951644484985813,3.090542285367919,70,249234.0,70,70.0,0,-1,-2,0,0,0,-1.0,21.0,-1010.0
1777477213.945132,pre_hover,right,x,1,,,4,2.814536157884,0.8192580343888078,2.951644484985813,3.090542285367919,70,249234.0,70,70.0,0,-1,-2,0,0,0,-1.0,21.0,-1010.0
1777477213.995568,pre_hover,right,x,1,,,4,2.814536157884,0.8192580343888078,2.951644484985813,3.090542285367919,70,249241.0,70,70.0,0,-1,-2,0,0,0,-8.0,6.0,-996.0
1777477214.046158,pre_hover,right,x,1,,,4,2.814536157884,0.8192580343888078,2.951644484985813,3.090542285367919,70,249241.0,70,70.0,0,-1,-2,0,0,0,-8.0,6.0,-996.0
1777477214.095855,pre_hover,right,x,1,,,4,2.7540349442852694,0.8533584420079129,2.9578104391303746,3.085894549068673,70,249242.99999999997,70,70.0,0,-1,-2,0,0,0,25.0,-1.0,-1003.0
1777477214.1463308,pre_hover,right,x,1,,,4,2.645361242973117,0.8940742508968003,2.9937676397160082,3.1021355837457847,70,249255.00000000003,70,70.0,0,-1,-2,0,0,0,3.0,11.0,-1005.0
1777477214.1962528,pre_hover,right,x,1,,,4,2.743096946940515,0.9021321582106007,2.9562130035186973,3.0892596360672875,70,249255.00000000003,70,70.0,0,-1,-2,0,0,0,3.0,11.0,-1005.0
1777477214.2459111,pre_hover,right,x,1,,,4,2.7989775267062433,0.8614297406397864,2.943733813176363,3.084939425104872,70,249236.0,70,70.0,0,-1,-2,0,0,0,-3.0,24.0,-991.0
1777477214.29568,pre_hover,right,x,1,,,4,2.7989775267062433,0.8614297406397864,2.943733813176363,3.084939425104872,70,249236.0,70,70.0,0,-1,-2,0,0,0,-3.0,24.0,-991.0
1777477214.344898,pre_hover,right,x,1,,,4,2.8148255649442744,0.8162541982449895,2.953633958412949,3.092112840621034,70,249236.0,70,70.0,0,-1,-2,0,0,0,11.0,11.0,-1009.0
1777477214.395066,pre_hover,right,x,1,,,4,2.8148255649442744,0.8162541982449895,2.953633958412949,3.092112840621034,70,249236.0,70,70.0,0,-1,-2,0,0,0,11.0,11.0,-1009.0
1777477214.445228,pre_hover,right,x,1,,,4,2.7991491207638726,0.8636197051274983,2.9445785536514415,3.0861181777152007,70,249246.0,70,70.0,0,-1,-2,0,0,0,11.0,8.0,-992.0
1777477214.4956439,pre_hover,right,x,1,,,4,2.7540875468044628,0.8502649368546216,2.9599641331629503,3.0875191029720552,70,249246.0,70,70.0,0,-1,-2,0,0,0,11.0,8.0,-992.0
1777477214.543635,pre_hover,right,x,1,,,4,2.7540875468044628,0.8502649368546216,2.9599641331629503,3.0875191029720552,70,249234.0,70,70.0,0,0,-2,0,0,0,-8.0,20.0,-1018.0
1777477214.5932732,pre_hover,right,x,1,,,4,2.7540875468044628,0.8502649368546216,2.9599641331629503,3.0875191029720552,70,249234.0,70,70.0,0,0,-2,0,0,0,-8.0,20.0,-1018.0
1777477214.645385,pre_hover,right,x,1,,,4,2.7455063495966154,0.9027072119822206,2.9564898809421223,3.0901984846253763,70,249244.0,70,70.0,0,0,-2,0,0,0,0.0,13.0,-989.0
1777477214.6958332,pre_hover,right,x,1,,,4,2.752397204065071,0.8488933700143017,2.9612984895245935,3.0881864507164023,70,249244.0,70,70.0,0,0,-2,0,0,0,0.0,13.0,-989.0
1777477214.7462232,pre_hover,right,x,1,,,4,2.752397204065071,0.8488933700143017,2.9612984895245935,3.0881864507164023,70,249234.0,70,70.0,0,-1,-2,0,0,0,-4.0,32.0,-995.0
1777477214.796671,pre_hover,right,x,1,,,4,2.750127963596271,0.8491538360520015,2.951155221380417,3.077945462624414,70,249234.0,70,70.0,0,-1,-2,0,0,0,-4.0,32.0,-995.0
1777477214.8469288,pre_hover,right,x,1,,,4,2.8104048950331535,0.8099034714792017,2.9467438757026545,3.0835168912810413,70,249236.0,70,70.0,0,-1,-2,0,0,0,-4.0,33.0,-1019.0
1777477214.895978,pre_hover,right,x,1,,,4,2.8109565771687914,0.8125254366399346,2.946836461866333,3.084100020899643,70,249236.0,70,70.0,0,-1,-2,0,0,0,-4.0,33.0,-1019.0
1777477214.9462972,pre_hover,right,x,1,,,4,2.752433427783473,0.8457580378815481,2.9634757873341036,3.08982928876297,70,249240.0,70,70.0,0,-1,-2,0,0,0,1.0,16.0,-1011.0
1777477214.99598,pre_hover,right,x,1,,,4,2.752433427783473,0.8457580378815481,2.9634757873341036,3.08982928876297,70,249240.0,70,70.0,0,-1,-2,0,0,0,1.0,16.0,-1011.0
1777477215.0456,pre_hover,right,x,1,,,4,2.795232144587039,0.8548825916025514,2.938607393365703,3.0781042458420944,70,249240.0,70,70.0,0,-1,-2,0,0,0,-24.0,26.0,-1003.0
1777477215.095855,pre_hover,right,x,1,,,4,2.691943954872313,0.8902140613367173,2.97658791669912,3.095023729869576,70,249240.0,70,70.0,0,-1,-2,0,0,0,-24.0,26.0,-1003.0
1777477215.1467688,pre_hover,right,x,1,,,4,2.791532918447073,0.8498182048197326,2.9417991704615134,3.079455006604356,70,249239.0,70,70.0,0,-1,-2,0,0,0,-6.0,19.0,-1001.0
1777477215.196267,pre_hover,right,x,1,,,4,2.7489792840894705,0.8429955426515833,2.9661892974809327,3.0911962032997478,70,249239.0,70,70.0,0,-1,-2,0,0,0,-6.0,19.0,-1001.0
1777477215.246675,pre_hover,right,x,1,,,4,2.7489072137407398,0.8429551444333233,2.9667109775558678,3.0916735434264977,70,249244.99999999997,70,70.0,0,-1,-2,0,0,0,-6.0,24.0,-993.0
1777477215.2963011,pre_hover,right,x,1,,,4,2.761108486795863,0.7913106963063137,2.9678327698309666,3.0887605182983946,70,249244.99999999997,70,70.0,0,-1,-2,0,0,0,-6.0,24.0,-993.0
1777477215.345479,pre_hover,right,x,1,,,4,2.7937797622854053,0.8505724877397117,2.94209902540715,3.080429929899969,70,249248.0,70,70.0,0,-1,-2,0,0,0,-14.0,25.0,-1013.0
1777477215.395301,pre_hover,right,x,1,,,4,2.7937797622854053,0.8505724877397117,2.94209902540715,3.080429929899969,70,249248.0,70,70.0,0,-1,-2,0,0,0,-14.0,25.0,-1013.0
1777477215.444813,pre_hover,right,x,1,,,4,2.807956949110245,0.8012092029249036,2.952733184052231,3.087457936932971,70,249242.99999999997,70,70.0,0,-1,-2,0,0,0,-4.0,21.0,-995.0
1777477215.495082,pre_hover,right,x,1,,,4,2.7921807504721894,0.849240374679386,2.943459483738988,3.081123332175092,70,249242.99999999997,70,70.0,0,-1,-2,0,0,0,-4.0,21.0,-995.0
1777477215.544242,pre_hover,right,x,1,,,4,2.7921807504721894,0.849240374679386,2.943459483738988,3.081123332175092,70,249237.0,70,70.0,0,-1,-2,0,0,0,18.0,8.0,-1006.0
1777477215.5951319,pre_hover,right,x,1,,,4,2.8461523706545178,0.8098908410755944,2.9289861272842685,3.0761898624411357,70,249237.0,70,70.0,0,-1,-2,0,0,0,18.0,8.0,-1006.0
1777477215.644672,pre_hover,right,x,1,,,4,2.7432848408398005,0.837249526852184,2.9609737520003367,3.0839949843327665,70,249237.0,70,70.0,0,-1,-2,0,0,0,18.0,8.0,-1006.0
1777477215.6955452,pre_hover,right,x,1,,,4,2.741271860494408,0.8341589179288874,2.962571731025583,3.0846084352231715,70,249239.0,70,70.0,0,-1,-2,0,0,0,-8.0,28.0,-1002.0
1777477215.745141,pre_hover,right,x,1,,,4,2.741506250386691,0.8358500498073038,2.962362499583422,3.0847023137116003,70,249239.0,70,70.0,0,-1,-2,0,0,0,-8.0,28.0,-1002.0
1777477215.795711,pre_hover,right,x,1,,,4,2.743641855387791,0.8356357084433892,2.9725630937830134,3.0949819104602874,70,249244.0,70,70.0,0,-1,-2,0,0,0,8.0,17.0,-1000.0
1777477215.84565,pre_hover,right,x,1,,,4,2.739712849074989,0.8344532160041188,2.963758422447509,3.0854154797387503,70,249244.0,70,70.0,0,-1,-2,0,0,0,8.0,17.0,-1000.0
1777477215.895446,response,right,x,1,1777477215.895308,0.0001380443572998047,4,2.797439093229648,0.7927959360108173,2.949576134983089,3.0806163556696435,70,249233.0,70,70.0,0,-1,-2,0,0,0,-9.0,26.0,-1006.0
1777477215.944227,response,right,x,1,1777477215.895308,0.048918962478637695,4,2.7824849850258118,0.8370527455122622,2.94063825766676,3.0741911483517166,70,249233.0,70,70.0,0,-1,-2,0,0,0,-9.0,26.0,-1006.0
1777477215.9937458,response,right,x,1,1777477215.895308,0.09843778610229492,4,2.782531535319629,0.8370295807372146,2.9400691590789627,3.0736553350003835,70,249231.0,70,70.0,0,0,-2,0,0,0,-16.0,30.0,-1003.0
1777477216.043519,response,right,x,1,1777477215.895308,0.14821100234985352,4,2.7373598410091633,0.8280345719047019,2.9665092206213126,3.0865984652866607,70,249231.0,70,70.0,0,0,-2,0,0,0,-16.0,30.0,-1003.0
1777477216.093578,response,right,x,1,1777477215.895308,0.19827008247375488,4,2.780862270988391,0.8357068514622432,2.9414620129839686,3.0743755659470087,70,249236.0,70,70.0,0,0,-2,0,0,0,0.0,3.0,-1016.0
1777477216.1425228,response,right,x,1,1777477215.895308,0.24721479415893555,4,2.877612240704009,0.8161516810018736,2.9094170492113656,3.0672614875285684,70,249236.0,70,70.0,0,0,-2,0,0,0,0.0,3.0,-1016.0
1777477216.192437,response,right,x,1,1777477215.895308,0.29712891578674316,4,2.8340042520543394,0.8018514403556546,2.9378361229209298,3.08024816495355,70,249240.0,70,70.0,0,3,-2,0,0,0,11.0,16.0,-1001.0
1777477216.242296,response,right,x,1,1777477215.895308,0.3469879627227783,4,2.7305083406549273,0.8274957291458735,2.970852946520549,3.0890714242396866,70,249240.0,70,70.0,0,3,-2,0,0,0,11.0,16.0,-1001.0
1777477216.292342,response,right,x,1,1777477215.895308,0.3970339298248291,4,2.7933709362850787,0.7872295525960086,2.956093221262239,3.0851047472878657,70,249235.0,70,70.0,0,3,-2,0,1,0,1.0,22.0,-1006.0
1777477216.343481,response,right,x,1,1777477215.895308,0.44817304611206055,4,2.8244936780942007,0.8411398103382455,2.9325758815089515,3.0780505938484137,70,249235.0,70,70.0,0,3,-2,0,1,0,1.0,22.0,-1006.0
1777477216.3925738,response,right,x,1,1777477215.895308,0.4972658157348633,4,2.7868094144508633,0.8229374551050354,2.951397322132871,3.0836165939838103,70,249241.0,70,70.0,0,2,-2,0,1,0,-2.0,13.0,-1003.0
1777477216.4393458,response,right,x,1,1777477215.895308,0.5440378189086914,4,2.8061163793491937,0.769504220710934,2.9623631213699415,3.092240651862482,70,249241.0,70,70.0,0,2,-2,0,1,0,-2.0,13.0,-1003.0
1777477216.49074,response,right,x,1,1777477215.895308,0.5954320430755615,4,2.8579761146668003,0.7771432620035833,2.9488258154945584,3.0941773936768056,70,249234.0,70,70.0,0,0,-2,0,2,0,11.0,1.0,-1002.0
1777477216.542526,response,right,x,1,1777477215.895308,0.6472179889678955,4,2.865221712873846,0.7754906754147901,2.9493022718996236,3.0964472788639705,70,249234.0,70,70.0,0,0,-2,0,2,0,11.0,1.0,-1002.0
1777477216.594275,response,right,x,1,1777477215.895308,0.6989669799804688,4,2.7051648837881954,0.8244628043435148,3.0043120831258925,3.1150148119094747,70,249237.0,70,70.0,0,0,-2,0,2,0,10.0,9.0,-1004.0
1777477216.645586,response,right,x,1,1777477215.895308,0.7502779960632324,4,2.8386301529125273,0.7470535488643282,2.980914175367155,3.1160224678359203,70,249237.0,70,70.0,0,0,-2,0,2,0,10.0,9.0,-1004.0
1777477216.694408,response,right,x,1,1777477215.895308,0.7990999221801758,4,2.812499062411821,0.8311569655590323,2.969965724378694,3.109139343830447,70,249238.0,70,70.0,0,0,-2,0,2,0,11.0,1.0,-991.0
1777477216.7434108,response,right,x,1,1777477215.895308,0.8481028079986572,4,2.8248068123028713,0.8214219326577021,2.984438254873162,3.124863904251918,70,249238.0,70,70.0,0,0,-2,0,2,0,11.0,1.0,-991.0
1777477216.791979,response,right,x,1,1777477215.895308,0.8966710567474365,4,2.8908281711169863,0.7869409958895093,2.977117610016083,3.1315375502496337,70,249237.0,70,70.0,0,0,-2,0,2,0,17.0,-17.0,-990.0
1777477216.842755,response,right,x,1,1777477215.895308,0.9474470615386963,4,2.8352351166189402,0.8119735227555868,2.9885504579986826,3.1302993025410903,70,249237.0,70,70.0,0,0,-2,0,2,0,17.0,-17.0,-990.0
1777477216.894409,response,right,x,1,1777477215.895308,0.999100923538208,4,2.8908319346885496,0.818739350165941,2.9745883580278276,3.1332251880375632,70,249238.0,70,70.0,0,0,-2,0,2,0,12.0,-15.0,-1003.0
1777477216.946091,response,right,x,1,1777477215.895308,1.0507829189300537,4,3.0349827170655805,0.76997484231802,2.9197894798605994,3.1198142917932357,70,249238.0,70,70.0,0,0,-2,0,2,0,12.0,-15.0,-1003.0
1777477216.9973,response,right,x,1,1777477215.895308,1.101991891860962,4,2.9606820672703447,0.7715830235642848,2.9714590680368542,3.1449249547158433,70,249238.0,70,70.0,0,0,-2,0,2,0,17.0,-10.0,-995.0
1777477217.048532,response,right,x,1,1777477215.895308,1.153223991394043,4,2.9351378296010586,0.7529838052375923,2.9901745446858943,3.1528120995071185,70,249238.0,70,70.0,0,0,-2,0,2,0,17.0,-10.0,-995.0
1777477217.099149,response,right,x,1,1777477215.895308,1.203840970993042,4,2.9963435197086814,0.8176154069667971,2.943109412639939,3.135122972416127,70,249233.0,70,70.0,0,0,-2,0,2,0,12.0,0.0,-1001.0
1777477217.1498408,response,right,x,1,1777477215.895308,1.254532814025879,4,2.974319212437289,0.7967226319539152,2.9721768287891575,3.152859317511651,70,249233.0,70,70.0,0,0,-2,0,2,0,12.0,0.0,-1001.0
1777477217.199892,response,right,x,1,1777477215.895308,1.30458402633667,4,2.8837034726605673,0.8040433925906387,3.012409300620909,3.165247649893425,70,249240.0,70,70.0,0,0,-2,0,2,0,24.0,-5.0,-999.0
1777477217.250195,response,right,x,1,1777477215.895308,1.3548870086669922,4,3.0291649563727137,0.7977981698010843,2.9604337996490555,3.1593657865823777,70,249240.0,70,70.0,0,0,-2,0,2,0,24.0,-5.0,-999.0
1777477217.30933,response,right,x,1,1777477215.895308,1.4140219688415527,4,2.984312512478346,0.8250211334386099,2.9828854558472266,3.1697191876877344,70,249242.0,70,70.0,0,-1,-2,0,2,0,12.0,-13.0,-980.0
1777477217.360109,response,right,x,1,1777477215.895308,1.4648010730743408,4,2.9921857355892496,0.8092087572579001,2.977472350121512,3.165000147971791,70,249242.0,70,70.0,0,-1,-2,0,2,0,12.0,-13.0,-980.0
1777477217.410969,response,right,x,1,1777477215.895308,1.5156610012054443,4,3.033625838355065,0.8188828682944624,2.9625575132289224,3.165531906371336,70,249242.0,70,70.0,0,-2,-2,0,2,0,15.0,-5.0,-977.0
1777477217.4611871,response,right,x,1,1777477215.895308,1.5658791065216064,4,3.0636298778016027,0.7729275946705758,2.967664589732991,3.1744947038818814,70,249242.0,70,70.0,0,-2,-2,0,2,0,15.0,-5.0,-977.0
1777477217.511497,response,right,x,1,1777477215.895308,1.6161890029907227,4,3.0526373538000584,0.8116732195556227,2.9640886762161673,3.172277087328185,70,249233.0,70,70.0,0,-5,-2,0,1,0,-4.0,1.0,-1014.0
1777477217.5626738,response,right,x,1,1777477215.895308,1.6673657894134521,4,3.076474041533224,0.8545629789851575,2.9442388101129264,3.167643609204469,70,249233.0,70,70.0,0,-5,-2,0,1,0,-4.0,1.0,-1014.0
1777477217.613764,response,right,x,1,1777477215.895308,1.7184560298919678,4,3.065418256735049,0.8052589742799372,2.977770612599101,3.1884900375064054,70,249236.0,70,70.0,0,-3,-2,0,0,0,34.0,-10.0,-1001.0
1777477217.6637352,response,right,x,1,1777477215.895308,1.7684271335601807,4,3.0496427702823885,0.8403389662194957,2.972805189102787,3.1832717513171565,70,249236.0,70,70.0,0,-3,-2,0,0,0,34.0,-10.0,-1001.0
1777477217.714527,response,right,x,1,1777477215.895308,1.8192188739776611,4,3.0150114747538215,0.8302072102430406,2.990397877655727,3.187131312687775,70,249242.99999999997,70,70.0,0,-2,-2,0,0,0,-8.0,16.0,-1012.0
1777477217.76437,response,right,x,1,1777477215.895308,1.8690619468688965,4,3.0158180713456355,0.8259602770876089,2.9907640183586133,3.1871614212708907,70,249242.99999999997,70,70.0,0,-2,-2,0,0,0,-8.0,16.0,-1012.0
1777477217.814024,response,right,x,1,1777477215.895308,1.9187159538269043,4,3.038201230357914,0.8751454073820693,2.968293849918607,3.1803134015907277,70,249232.00000000003,70,70.0,0,-1,-2,0,0,0,19.0,3.0,-989.0
1777477217.862947,response,right,x,1,1777477215.895308,1.9676389694213867,4,3.09698009586401,0.809743789620671,2.942684582841141,3.1671198047982747,70,249236.0,70,70.0,0,0,-2,0,0,0,23.0,3.0,-1004.0
1777477217.912452,response,right,x,1,1777477215.895308,2.017143964767456,4,3.0855521251599187,0.8484480057617032,2.947189767894636,3.172610369757639,70,249236.0,70,70.0,0,0,-2,0,0,0,23.0,3.0,-1004.0
1777477217.961947,response,right,x,1,1777477215.895308,2.066638946533203,4,3.1029454971447428,0.8140793134560518,2.9517197908275796,3.1781441394416508,70,249242.99999999997,70,70.0,0,0,-2,0,0,0,4.0,22.0,-1003.0
1777477218.012846,response,right,x,1,1777477215.895308,2.1175379753112793,4,3.0692698245449135,0.8008843348871769,2.9686999019569633,3.1807586069237517,70,249242.99999999997,70,70.0,0,0,-2,0,0,0,4.0,22.0,-1003.0
1777477218.063644,response,right,x,1,1777477215.895308,2.1683359146118164,4,3.0061600721283455,0.8663420418273092,2.983939732296767,3.1833518996020973,70,249240.0,70,70.0,0,0,-2,0,0,0,20.0,-1.0,-982.0
1777477218.113605,response,right,x,1,1777477215.895308,2.218297004699707,4,3.020678191753694,0.8225798313147047,2.992265983516141,3.1896729301079407,70,249240.0,70,70.0,0,0,-2,0,0,0,20.0,-1.0,-982.0
1777477218.163511,response,right,x,1,1777477215.895308,2.268203020095825,4,3.100756313555456,0.8123403151543205,2.943750346168254,3.169756315223534,70,249239.0,70,70.0,0,0,-2,0,0,0,2.0,13.0,-1004.0
1777477218.21419,response,right,x,1,1777477215.895308,2.3188819885253906,4,3.1332150628788833,0.824548888698753,2.927712763811936,3.167952045883628,70,249239.0,70,70.0,0,0,-2,0,0,0,2.0,13.0,-1004.0
1777477218.263784,response,right,x,1,1777477215.895308,2.368475914001465,4,3.1332150628788833,0.824548888698753,2.927712763811936,3.167952045883628,70,249235.0,70,70.0,0,-1,-2,0,0,0,-2.0,16.0,-992.0
1777477218.31451,response,right,x,1,1777477215.895308,2.4192020893096924,4,3.0716803908157413,0.7993525759012796,2.9693434257231806,3.1819776428855437,70,249235.0,70,70.0,0,-1,-2,0,0,0,-2.0,16.0,-992.0
1777477218.364651,response,right,x,1,1777477215.895308,2.4693429470062256,4,3.05566645908723,0.833590009378541,2.9648960203894568,3.1769545764451674,70,249233.0,70,70.0,0,-1,-2,0,0,0,8.0,2.0,-989.0
1777477218.41459,response,right,x,1,1777477215.895308,2.5192818641662598,4,3.0716803908157413,0.7993525759012796,2.9693434257231806,3.1819776428855437,70,249233.0,70,70.0,0,-1,-2,0,0,0,8.0,2.0,-989.0
1777477218.463878,response,right,x,1,1777477215.895308,2.5685698986053467,4,3.1020246142929,0.8142435264327346,2.9421266061137925,3.1689375058687266,70,249227.0,70,70.0,0,0,-2,0,0,0,8.0,-1.0,-1005.0
1777477218.5147982,response,right,x,1,1777477215.895308,2.619490146636963,4,3.0891889264894035,0.84873798347407,2.946248240077968,3.173023319731835,70,249227.0,70,70.0,0,0,-2,0,0,0,8.0,-1.0,-1005.0
1777477218.565102,response,right,x,1,1777477215.895308,2.6697940826416016,4,3.0551134196978516,0.8368871385716251,2.963162049232846,3.175604514149958,70,249242.0,70,70.0,0,0,-2,0,0,0,-14.0,26.0,-1027.0
1777477218.6158001,response,right,x,1,1777477215.895308,2.720492124557495,4,3.0561381916421886,0.8389659672085231,2.960817615263644,3.1740447304768784,70,249242.0,70,70.0,0,0,-2,0,0,0,-14.0,26.0,-1027.0
1777477218.6654909,response,right,x,1,1777477215.895308,2.7701828479766846,4,3.0719666227423983,0.8048446568704742,2.965442240218974,3.179128703991904,70,249244.0,70,70.0,0,0,-2,0,0,0,10.0,10.0,-1009.0
1777477218.716579,response,right,x,1,1777477215.895308,2.8212709426879883,4,2.973214261669458,0.8616082503367665,3.005460754641904,3.1926513313527494,70,249244.0,70,70.0,0,0,-2,0,0,0,10.0,10.0,-1009.0
1777477218.765939,response,right,x,1,1777477215.895308,2.870630979537964,4,3.0895696177939627,0.853858268678899,2.942204390726526,3.1701286972106257,70,249234.0,70,70.0,0,0,-2,0,0,0,2.0,21.0,-1013.0
1777477218.815167,response,right,x,1,1777477215.895308,2.919858932495117,4,2.9748873856326563,0.8635648006599118,3.003721839034452,3.1918086761848756,70,249234.0,70,70.0,0,0,-2,0,0,0,2.0,21.0,-1013.0
1777477218.865153,response,right,x,1,1777477215.895308,2.9698450565338135,4,3.1048801246811464,0.8210899203646491,2.946851624573249,3.175218308746365,70,249230.00000000003,70,70.0,0,0,-2,0,0,0,10.0,0.0,-987.0
1777477218.915672,response,right,x,1,1777477215.895308,3.0203640460968018,4,3.105698385612963,0.8230536679695757,2.9446164168358324,3.1736901500034183,70,249230.00000000003,70,70.0,0,0,-2,0,0,0,10.0,0.0,-987.0
