timestamp,phase,command,axis,repeat,t_send,t_since_cmd,marker_id,n_markers,pos_x,pos_y,pos_z,marker_dist,tello_height_cm,tello_baro_cm,tello_battery,tello_temp_c,tello_pitch,tello_roll,tello_yaw,tello_vgx,tello_vgy,tello_vgz,tello_agx,tello_agy,tello_agz
1777591670.603041,init_hover,none,-,0,,,2,1,0.9739003763378258,0.7403507810420942,3.8123154764579,3.8275669996162964,120,253460.0,80,81.5,-1,0,0,0,0,-1,14.0,8.0,-1087.0
1777591670.799328,init_hover,none,-,0,,,2,1,0.7653071117049042,0.6424892929049376,3.8168621422225035,3.8317513517608615,120,253455.00000000003,80,81.5,-1,0,0,0,0,0,-44.0,33.0,-930.0
1777591670.8498728,init_hover,none,-,0,,,2,1,0.6832877255715235,0.41585201518555337,3.825510454358691,3.838631030402211,120,253466.0,80,81.5,-1,0,0,0,0,0,-9.0,12.0,-972.0
1777591670.900169,init_hover,none,-,0,,,,,,,,,120,253466.0,80,81.5,-1,0,0,0,0,0,-9.0,12.0,-972.0
1777591670.950999,init_hover,none,-,0,,,,,,,,,120,253465.0,80,81.5,-1,0,0,0,0,0,-29.0,21.0,-962.0
1777591670.999754,init_hover,none,-,0,,,2,1,0.5325172094850227,0.5184580825801498,3.8054700465168922,3.8359059883805173,120,253465.0,80,81.5,-1,0,0,0,0,0,-29.0,21.0,-962.0
1777591671.05076,init_hover,none,-,0,,,,,,,,,120,253461.0,80,81.5,-1,0,0,0,0,0,-5.0,-4.0,-1005.0
1777591671.114315,init_hover,none,-,0,,,2,1,0.5337245628209033,0.5167142695757669,3.8056330899725013,3.8358673360183886,120,253461.0,80,81.5,-1,0,0,0,0,0,-5.0,-4.0,-1005.0
1777591671.1646342,init_hover,none,-,0,,,2,1,0.6796584875097016,0.40716101040411995,3.8240515459552995,3.8374523046961375,120,253459.0,80,81.5,-1,0,0,0,0,0,-17.0,-11.0,-1000.0
1777591671.21221,init_hover,none,-,0,,,2,1,0.9927707245979576,0.7220536002561757,3.824280686839046,3.8378240652211937,120,253459.0,80,81.5,-1,0,0,0,0,0,-17.0,-11.0,-1000.0
1777591671.260201,init_hover,none,-,0,,,2,1,0.8918502196141749,0.8713243317917635,3.8056741762905237,3.836274095632507,120,253458.0,80,81.0,0,0,0,0,0,0,-28.0,23.0,-958.0
1777591671.306358,init_hover,none,-,0,,,2,1,0.995250155245729,0.7287448873790556,3.8367428933687786,3.850804044848152,120,253458.0,80,81.0,0,0,0,0,0,0,-28.0,23.0,-958.0
1777591671.3536482,init_hover,none,-,0,,,2,1,0.6808190430349769,0.4041602087603372,3.82406686743429,3.8373664403122545,120,253460.0,80,81.0,0,0,0,0,0,0,1.0,-4.0,-959.0
1777591671.400649,init_hover,none,-,0,,,2,1,0.6808190430349769,0.4041602087603372,3.82406686743429,3.8373664403122545,120,253460.0,80,81.0,0,0,0,0,0,0,1.0,-4.0,-959.0
1777591671.449504,init_hover,none,-,0,,,2,1,0.6808190430349769,0.4041602087603372,3.82406686743429,3.8373664403122545,120,253451.00000000003,80,81.0,0,0,0,0,0,0,1.0,-12.0,-1001.0
1777591671.4963279,init_hover,none,-,0,,,2,1,0.5370542097063651,0.5128057453553277,3.806410823448754,3.83611878046074,120,253451.00000000003,80,81.0,0,0,0,0,0,0,1.0,-12.0,-1001.0
1777591671.545441,init_hover,none,-,0,,,2,1,0.7785138157621455,0.6331798218637197,3.8310888808292067,3.844563820766385,120,253455.00000000003,80,81.0,0,0,0,0,0,0,-20.0,19.0,-988.0
1777591671.59668,init_hover,none,-,0,,,2,1,0.9957631792294225,0.7230328274822282,3.8240284682701255,3.837650568306313,120,253455.00000000003,80,81.0,0,0,0,0,0,0,-20.0,19.0,-988.0
1777591671.649183,init_hover,none,-,0,,,2,1,0.7785138157621455,0.6331798218637197,3.8310888808292067,3.844563820766385,120,253458.0,80,81.0,0,0,0,0,0,0,0.0,17.0,-1041.0
1777591671.700812,init_hover,none,-,0,,,2,1,0.7785138157621455,0.6331798218637197,3.8310888808292067,3.844563820766385,120,253458.0,80,81.0,0,0,0,0,0,0,0.0,17.0,-1041.0
1777591671.75338,init_hover,none,-,0,,,2,1,1.0119613289958507,0.9617152729239391,3.796698047875941,3.838044187860836,120,253465.0,80,81.0,0,0,0,0,0,0,-14.0,11.0,-969.0
1777591671.804947,init_hover,none,-,0,,,2,1,0.9981793811809164,0.7297166827962545,3.8364881472373407,3.8506308196787256,120,253465.0,80,81.0,0,0,0,0,0,0,-14.0,11.0,-969.0
1777591671.856371,init_hover,none,-,0,,,2,1,1.0146961042761036,0.7244367174888181,3.824055440749672,3.8378216703050416,120,253455.00000000003,80,81.0,-1,0,0,0,0,0,-18.0,23.0,-1023.0
1777591671.9078689,init_hover,none,-,0,,,2,1,1.117895010536477,0.8713315804535386,3.805491899819081,3.8363812756073736,120,253455.00000000003,80,81.0,-1,0,0,0,0,0,-18.0,23.0,-1023.0
1777591671.958981,init_hover,none,-,0,,,2,1,0.7871865252504364,0.6207220138572472,3.832889551695604,3.8451333004115105,120,253452.0,80,81.0,-1,0,0,0,0,0,7.0,8.0,-1020.0
1777591672.010622,init_hover,none,-,0,,,2,1,1.0005155106765573,0.735115425866658,3.8364332392662974,3.8510417569473776,120,253452.0,80,81.0,-1,0,0,0,0,0,7.0,8.0,-1020.0
1777591672.06228,init_hover,none,-,0,,,2,1,0.6839065920424221,0.4053816296259578,3.8248278309149506,3.8378707561137633,120,253460.0,80,81.0,-1,0,0,0,0,0,-9.0,31.0,-973.0
1777591672.113373,init_hover,none,-,0,,,2,1,0.994706992237958,0.7261258660161587,3.8240129308907576,3.8378979913535587,120,253460.0,80,81.0,-1,0,0,0,0,0,-9.0,31.0,-973.0
1777591672.162712,init_hover,none,-,0,,,2,1,0.6839065920424221,0.4053816296259578,3.8248278309149506,3.8378707561137633,120,253454.0,80,81.0,-1,0,0,0,0,0,11.0,-9.0,-1021.0
1777591672.213067,init_hover,none,-,0,,,2,1,0.6839065920424221,0.4053816296259578,3.8248278309149506,3.8378707561137633,120,253454.0,80,81.0,-1,0,0,0,0,0,11.0,-9.0,-1021.0
1777591672.264029,init_hover,none,-,0,,,2,1,0.6839065920424221,0.4053816296259578,3.8248278309149506,3.8378707561137633,120,253457.00000000003,80,80.5,-1,0,0,0,0,0,-36.0,32.0,-993.0
1777591672.31473,init_hover,none,-,0,,,2,1,0.5366794736760082,0.5162413968346963,3.8064431261156706,3.8362986386365256,120,253457.00000000003,80,80.5,-1,0,0,0,0,0,-36.0,32.0,-993.0
1777591672.364793,init_hover,none,-,0,,,2,1,0.5366794736760082,0.5162413968346963,3.8064431261156706,3.8362986386365256,120,253459.0,80,80.5,-1,0,0,0,0,0,-13.0,2.0,-1003.0
1777591672.416221,init_hover,none,-,0,,,2,1,0.7841354787661637,0.6220251749724555,3.8326563762386034,3.8451459748846313,120,253459.0,80,80.5,-1,0,0,0,0,0,-13.0,2.0,-1003.0
1777591672.4662971,init_hover,none,-,0,,,2,1,1.0117782845680368,0.7232650431731772,3.824352120923155,3.8380083586327105,120,253462.0,80,80.5,-1,0,0,0,0,0,-3.0,1.0,-993.0
1777591672.5166929,init_hover,none,-,0,,,2,1,1.3161745337005653,0.40313423362061807,3.838499099923901,3.85149990254417,120,253462.0,80,80.5,-1,0,0,0,0,0,-3.0,1.0,-993.0
1777591672.56615,init_hover,none,-,0,,,2,1,0.9975881911237049,0.7341230167697478,3.836697497458345,3.851219507397689,120,253462.0,80,80.5,-1,0,0,0,0,0,-3.0,1.0,-993.0
1777591672.615007,init_hover,none,-,0,,,2,1,1.3161745337005653,0.40313423362061807,3.838499099923901,3.85149990254417,120,253457.00000000003,80,80.5,-1,0,0,0,0,0,-16.0,13.0,-1001.0
1777591672.665421,init_hover,none,-,0,,,,,,,,,120,253457.00000000003,80,80.5,-1,0,0,0,0,0,-16.0,13.0,-1001.0
1777591672.715892,init_hover,none,-,0,,,2,1,1.1156600815481144,0.8672404636456794,3.8062489931391736,3.8365638666786865,120,253451.00000000003,80,80.5,-1,0,0,0,0,0,6.0,16.0,-1003.0
1777591672.766655,init_hover,none,-,0,,,2,1,1.0103527080186534,0.7282483478270536,3.837378295060709,3.8514057609939703,120,253451.00000000003,80,80.5,-1,0,0,0,0,0,6.0,16.0,-1003.0
1777591672.817,init_hover,none,-,0,,,2,1,0.5329170345221523,0.5150763340465224,3.8054437874968117,3.8357282853579777,120,253452.0,80,80.5,-1,0,0,0,0,0,-28.0,26.0,-984.0
1777591672.866106,init_hover,none,-,0,,,2,1,0.9908330028322839,0.7179437008585977,3.824551767934635,3.837755653551262,120,253452.0,80,80.5,-1,0,0,0,0,0,-28.0,26.0,-984.0
1777591672.917152,init_hover,none,-,0,,,2,1,0.9968437893166574,0.726997551243941,3.837001225350228,3.850911030330948,120,253450.0,80,80.5,-1,-1,0,0,0,0,-35.0,23.0,-1008.0
1777591672.967864,init_hover,none,-,0,,,2,1,1.3234344589972613,0.40238405019286916,3.8369799696176328,3.8505883732501327,120,253450.0,80,80.5,-1,-1,0,0,0,0,-35.0,23.0,-1008.0
1777591673.018709,init_hover,none,-,0,,,2,1,1.2264234946056616,0.6158763607630482,3.8313802267946326,3.8441311949930412,120,253464.0,80,80.5,0,-1,0,0,0,0,-29.0,17.0,-1022.0
1777591673.068876,init_hover,none,-,0,,,2,1,0.9979748115053985,0.7239274201531012,3.83702100432483,3.8506704951924164,120,253464.0,80,80.5,0,-1,0,0,0,0,-29.0,17.0,-1022.0
1777591673.1198132,init_hover,none,-,0,,,2,1,0.6696173983063046,0.40634101340899914,3.8217971615432713,3.8360561017708217,120,253464.0,80,80.5,0,-1,0,0,0,0,7.0,-7.0,-1023.0
1777591673.17084,init_hover,none,-,0,,,2,1,0.6696173983063046,0.40634101340899914,3.8217971615432713,3.8360561017708217,120,253464.0,80,80.5,0,-1,0,0,0,0,7.0,-7.0,-1023.0
1777591673.221468,init_hover,none,-,0,,,2,1,0.9991276320147717,0.7208610322789908,3.8370398626421514,3.8504321147847733,120,253456.0,80,80.5,0,0,-1,0,0,0,-19.0,4.0,-983.0
1777591673.271939,init_hover,none,-,0,,,2,1,1.0081274427101587,0.7156192334227415,3.8377239200302284,3.850689086670534,120,253456.0,80,80.5,0,0,-1,0,0,0,-19.0,4.0,-983.0
1777591673.322746,init_hover,none,-,0,,,2,1,1.0156294618711488,0.7162641002537673,3.8373878980686853,3.8504302540666426,120,253448.99999999997,80,81.0,0,0,-1,0,0,0,-13.0,12.0,-1009.0
1777591673.371535,init_hover,none,-,0,,,2,1,1.0156294618711488,0.7162641002537673,3.8373878980686853,3.8504302540666426,120,253448.99999999997,80,81.0,0,0,-1,0,0,0,-13.0,12.0,-1009.0
1777591673.422706,init_hover,none,-,0,,,2,1,1.0121639329699437,0.951729123207316,3.797319425494694,3.837210941022107,120,253448.99999999997,80,81.0,0,0,-1,0,0,0,-16.0,27.0,-1016.0
1777591673.473697,init_hover,none,-,0,,,,,,,,,120,253448.99999999997,80,81.0,0,0,-1,0,0,0,-16.0,27.0,-1016.0
1777591673.5254521,init_hover,none,-,0,,,,,,,,,120,253448.0,80,81.0,-1,0,-1,0,0,0,13.0,0.0,-1027.0
1777591673.576437,init_hover,none,-,0,,,,,,,,,120,253448.0,80,81.0,-1,0,-1,0,0,0,13.0,0.0,-1027.0
1777591673.62736,init_hover,none,-,0,,,2,1,1.006912856776069,0.7097598912832119,3.8368243200288834,3.8493142039331754,120,253457.00000000003,80,81.0,-1,0,-1,0,0,0,-6.0,-2.0,-1001.0
1777591673.679096,init_hover,none,-,0,,,2,1,1.2536351904739869,0.624080252096289,3.8261673384245087,3.8411065164679825,120,253457.00000000003,80,81.0,-1,0,-1,0,0,0,-6.0,-2.0,-1001.0
1777591673.730527,init_hover,none,-,0,,,2,1,1.0159901639888427,0.947267847687545,3.7970621854109954,3.836331453659221,120,253462.0,80,81.0,-1,0,-1,0,0,0,4.0,3.0,-958.0
1777591673.7803369,init_hover,none,-,0,,,2,1,1.0159901639888427,0.947267847687545,3.7970621854109954,3.836331453659221,120,253462.0,80,81.0,-1,0,-1,0,0,0,4.0,3.0,-958.0
1777591673.831885,init_hover,none,-,0,,,2,1,1.2531631239063614,0.6271242891118953,3.8392621411379375,3.8542977049503677,120,253460.0,80,81.0,0,0,-1,0,0,0,-23.0,26.0,-1010.0
1777591673.8825028,init_hover,none,-,0,,,2,1,1.0056557507871287,0.7013395799117721,3.836847933820112,3.848667249477153,120,253460.0,80,81.0,0,0,-1,0,0,0,-23.0,26.0,-1010.0
1777591673.933565,init_hover,none,-,0,,,2,1,0.7669843055727082,0.6125322680092051,3.8420923968615113,3.8550149500119453,120,253454.0,80,81.0,0,0,-1,0,0,0,-53.0,31.0,-1013.0
1777591673.984807,init_hover,none,-,0,,,2,1,0.7669843055727082,0.6125322680092051,3.8420923968615113,3.8550149500119453,120,253448.99999999997,80,81.0,0,0,-1,0,0,0,-2.0,10.0,-979.0
1777591674.035239,init_hover,none,-,0,,,2,1,1.0061427470077329,0.7110219173650808,3.8497275318540463,3.8622758104435397,120,253448.99999999997,80,81.0,0,0,-1,0,0,0,-2.0,10.0,-979.0
1777591674.086451,init_hover,none,-,0,,,2,1,1.2558865880416614,0.6260868758857123,3.8387377004358,3.853894180453649,120,253459.0,79,81.0,-1,0,-1,0,0,0,-37.0,38.0,-990.0
1777591674.1372721,init_hover,none,-,0,,,2,1,1.02797546955284,0.7102982921481776,3.8495590316772157,3.862146086746901,120,253459.0,79,81.0,-1,0,-1,0,0,0,-37.0,38.0,-990.0
1777591674.187488,init_hover,none,-,0,,,2,1,1.02797546955284,0.7102982921481776,3.8495590316772157,3.862146086746901,120,253455.00000000003,79,81.0,-1,0,-1,0,0,0,-7.0,-8.0,-969.0
1777591674.2382212,init_hover,none,-,0,,,2,1,0.6605772649742232,0.3770152026256714,3.845770757021469,3.860788625336047,120,253455.00000000003,79,81.0,-1,0,-1,0,0,0,-7.0,-8.0,-969.0
1777591674.289737,init_hover,none,-,0,,,2,1,0.8975008406733943,0.8650272178246929,3.8314274562547026,3.860905689540061,120,253455.00000000003,79,81.0,-1,0,-1,0,0,0,-7.0,-8.0,-969.0
1777591674.340777,init_hover,none,-,0,,,2,1,0.7806126903371016,0.6003163680601236,3.857926222538052,3.8693477715889855,120,253457.00000000003,79,80.5,-1,0,-1,0,0,0,-36.0,29.0,-982.0
1777591674.391937,init_hover,none,-,0,,,2,1,0.8975008406733943,0.8650272178246929,3.8314274562547026,3.860905689540061,120,253457.00000000003,79,80.5,-1,0,-1,0,0,0,-36.0,29.0,-982.0
1777591674.442743,init_hover,none,-,0,,,2,1,0.8975008406733943,0.8650272178246929,3.8314274562547026,3.860905689540061,130,253458.0,79,80.5,-1,0,-1,0,0,0,-17.0,3.0,-971.0
1777591674.49293,init_hover,none,-,0,,,2,1,0.7730527451621994,0.6172118400544149,3.856332822136561,3.8691069867639967,130,253458.0,79,80.5,-1,0,-1,0,0,0,-55.0,17.0,-985.0
1777591674.543469,init_hover,none,-,0,,,2,1,0.6628785246431042,0.39380789579266096,3.8459784516841853,3.8607304337547848,130,253458.0,79,80.5,-1,0,-1,0,0,0,-55.0,17.0,-985.0
1777591674.5935402,init_hover,none,-,0,,,2,1,1.0061427470077329,0.7110219173650808,3.8497275318540463,3.8622758104435397,120,253466.0,79,80.5,-1,0,0,0,0,0,6.0,-12.0,-1020.0
1777591674.644402,init_hover,none,-,0,,,2,1,0.6628785246431042,0.39380789579266096,3.8459784516841853,3.8607304337547848,120,253466.0,79,80.5,-1,0,0,0,0,0,6.0,-12.0,-1020.0
1777591674.695582,init_hover,none,-,0,,,2,1,1.0109897251963433,0.7235392664180189,3.862290477830469,3.875833609188366,120,253457.00000000003,79,80.5,-1,-1,0,0,0,0,-27.0,28.0,-983.0
1777591674.745898,init_hover,none,-,0,,,2,1,0.7747163383475383,0.6196192579213998,3.856145665988075,3.868959129271864,120,253457.00000000003,79,80.5,-1,-1,0,0,0,0,-27.0,28.0,-983.0
1777591674.796863,init_hover,none,-,0,,,2,1,1.0097610734213107,0.7264382612724185,3.862279940930544,3.876062894109349,120,253446.0,79,80.5,-1,0,0,0,0,0,-6.0,0.0,-1030.0
1777591674.848002,init_hover,none,-,0,,,2,1,1.2464203760802854,0.638198889722837,3.853402202972706,3.868613479101737,120,253446.0,79,80.5,-1,0,0,0,0,0,-6.0,0.0,-1030.0
1777591674.898208,init_hover,none,-,0,,,2,1,1.2464203760802854,0.638198889722837,3.853402202972706,3.868613479101737,120,253459.0,79,80.5,-1,0,0,0,0,0,3.0,13.0,-987.0
1777591674.9482439,init_hover,none,-,0,,,2,1,1.3279292078821114,0.41432562592091177,3.861952886991482,3.875877047879881,120,253459.0,79,80.5,-1,0,0,0,0,0,3.0,13.0,-987.0
1777591674.99849,init_hover,none,-,0,,,,,,,,,120,253459.0,79,80.5,-1,0,0,0,0,0,-22.0,20.0,-953.0
1777591675.049143,init_hover,none,-,0,,,2,1,1.0073668297756884,0.7322531409026966,3.8622559891557118,3.8765277950235073,120,253459.0,79,80.5,-1,0,0,0,0,0,-22.0,20.0,-953.0
1777591675.100448,init_hover,none,-,0,,,2,1,1.1254770380007844,0.8829095971577116,3.842765023596981,3.8750211860934103,120,253459.0,79,80.5,-1,0,0,0,0,0,6.0,11.0,-1037.0
1777591675.1500318,init_hover,none,-,0,,,2,1,1.0062003685092318,0.7351660283588278,3.862243001598436,3.876763561855633,120,253459.0,79,80.5,-1,0,0,0,0,0,6.0,11.0,-1037.0
1777591675.200564,init_hover,none,-,0,,,2,1,1.0062003685092318,0.7351660283588278,3.862243001598436,3.876763561855633,120,253450.0,79,80.5,-1,0,0,0,0,0,-9.0,7.0,-954.0
1777591675.252102,init_hover,none,-,0,,,2,1,1.2260135910500924,0.631206163507072,3.8570080868349934,3.8705361147124764,120,253450.0,79,80.5,-1,0,0,0,0,0,-9.0,7.0,-954.0
1777591675.303105,init_hover,none,-,0,,,2,1,1.3158108491178668,0.41017664881843785,3.8649289794151347,3.877823625762863,120,253451.00000000003,79,81.0,-1,-1,0,0,0,0,1.0,14.0,-1039.0
1777591675.354178,init_hover,none,-,0,,,2,1,1.2281196629567415,0.6466285645919985,3.870120532685566,3.884674653946533,120,253451.00000000003,79,81.0,-1,-1,0,0,0,0,1.0,14.0,-1039.0
1777591675.40432,init_hover,none,-,0,,,2,1,1.3126445602365577,0.40909404124098336,3.8656887533104514,3.8783216550593784,120,253450.0,79,81.0,0,-1,0,0,0,0,-30.0,31.0,-990.0
1777591675.454793,init_hover,none,-,0,,,2,1,1.3094235133462715,0.40798855702470826,3.8664540974183055,3.878823792736361,120,253450.0,79,81.0,0,-1,0,0,0,0,-30.0,31.0,-990.0
1777591675.50627,init_hover,none,-,0,,,,,,,,,120,253442.99999999997,79,81.0,0,-1,0,0,0,0,8.0,-12.0,-987.0
1777591675.557224,init_hover,none,-,0,,,,,,,,,120,253442.99999999997,79,81.0,0,-1,0,0,0,0,8.0,-12.0,-987.0
1777591675.67907,recenter,right,-,1,,,2,,1.3027991079446495,0.4057155820976292,3.868004078134765,3.879842202476534,120,253456.0,79,81.0,-1,-1,-1,0,0,0,-10.0,19.0,-993.0
1777591675.7316082,recenter,right,-,1,,,2,,0.999615365843874,0.7527179413545153,3.8621527659100887,3.878225635690083,120,253450.0,79,81.0,0,0,-1,0,0,0,-34.0,22.0,-1007.0
1777591675.782939,recenter,right,-,1,,,2,,1.299395126678804,0.40454025389961157,3.868787839069552,3.880357895802517,120,253450.0,79,81.0,0,0,-1,0,0,0,-34.0,22.0,-1007.0
1777591675.833109,recenter,right,-,1,,,2,,1.2938940753036443,0.4069318618758173,3.8699898935103723,3.881139465940392,120,253446.0,79,81.0,0,0,-1,0,0,0,-6.0,23.0,-978.0
1777591675.882596,recenter,right,-,1,,,2,,1.0052914643156226,0.7534047739731,3.8628873023596415,3.8790232333144035,120,253446.0,79,81.0,0,0,-1,0,0,0,-6.0,23.0,-978.0
1777591675.93019,recenter,right,-,1,,,2,,0.7968316717257864,0.6419692062703561,3.860486518981575,3.8733942001344666,120,253444.0,79,81.0,0,0,-1,0,0,0,-22.0,27.0,-992.0
1777591675.976952,recenter,right,-,1,,,2,,0.8005569326525903,0.647318327347919,3.860838311668536,3.8738890486180253,120,253444.0,79,81.0,0,0,-1,0,0,0,-22.0,27.0,-992.0
1777591676.026787,recenter,right,-,1,,,2,,1.2912564418441954,0.4056191384703227,3.87036433298787,3.8813118864241676,120,253438.0,79,81.0,0,-1,-1,0,0,0,3.0,4.0,-1008.0
1777591676.078068,recenter,right,-,1,,,2,,1.2912564418441954,0.4056191384703227,3.87036433298787,3.8813118864241676,120,253438.0,79,81.0,0,-1,-1,0,0,0,3.0,4.0,-1008.0
1777591676.1303082,recenter,right,-,1,,,2,,0.7923948275405941,0.6650820494133691,3.8722328729332163,3.8868439411401283,120,253436.0,78,81.0,0,-1,-1,0,0,0,-29.0,25.0,-1010.0
1777591676.1827252,recenter,right,-,1,,,2,,1.0113504989602453,0.7691355879475348,3.8752569725756825,3.8928147296798574,120,253436.0,78,81.0,0,-1,-1,0,0,0,-29.0,25.0,-1010.0
1777591676.2342248,recenter,right,-,1,,,2,,1.2912564418441954,0.4056191384703227,3.87036433298787,3.8813118864241676,120,253432.00000000003,78,81.0,-1,-1,-1,0,0,0,-23.0,20.0,-1057.0
1777591676.491055,recenter,right,-,1,,,2,,0.9984907701389831,0.7725752734191279,3.874665839434716,3.8925377299931783,120,253451.00000000003,78,81.0,-1,-1,-1,0,0,0,-22.0,23.0,-947.0
1777591676.541863,recenter,right,-,1,,,2,,0.8175483429491942,0.6633766281595197,3.888888184284884,3.9020644747738147,120,253446.99999999997,78,81.0,-1,0,-1,0,0,0,-3.0,29.0,-984.0
1777591676.643775,recenter,right,-,1,,,2,,1.0194639274027677,0.772174703958272,3.874387290704343,3.8922705112964215,120,253451.00000000003,78,81.0,-1,0,-1,0,0,0,-9.0,30.0,-1034.0
1777591676.695599,recenter,right,-,1,,,2,,0.560266710827027,0.5065009501282606,3.868598347407268,3.8949661091654377,120,253451.00000000003,78,81.0,-1,0,-1,0,0,0,-9.0,30.0,-1034.0
1777591676.74699,recenter,right,-,1,,,2,,1.0048994435302372,0.7714367039538095,3.874173889301512,3.8919420029256067,120,253453.00000000003,78,81.0,-1,0,-1,0,0,0,-8.0,28.0,-1019.0
1777591676.798101,recenter,right,-,1,,,2,,1.022137017038022,0.7731830913858297,3.874098644893792,3.892094035039177,120,253453.00000000003,78,81.0,-1,0,-1,0,0,0,-8.0,28.0,-1019.0
1777591676.8497138,recenter,right,-,1,,,2,,0.7192285981949893,0.37346013118232374,3.885154560756807,3.895377119827788,120,253448.0,78,81.0,-1,0,-1,0,0,0,3.0,17.0,-999.0
1777591676.899808,recenter,right,-,1,,,2,,0.7253281780190655,0.39507894282227624,3.899402427250979,3.9090674228318063,120,253448.0,78,81.0,-1,0,-1,0,0,0,3.0,17.0,-999.0
1777591676.950411,recenter,right,-,1,,,2,,0.5554594939368437,0.5156678547156069,3.8660492369782626,3.893241838993001,120,253444.99999999997,78,81.0,-1,0,-1,0,0,0,-18.0,19.0,-1027.0
1777591677.000438,recenter,right,-,1,,,2,,0.8119427706415877,0.6626357109606771,3.8872284944612283,3.9006266684133064,120,253444.99999999997,78,81.0,-1,0,-1,0,0,0,-18.0,19.0,-1027.0
1777591677.050546,recenter,right,-,1,,,2,,0.5564199242399048,0.502337270146286,3.866916999776578,3.893620844873499,120,253446.99999999997,78,81.0,-1,0,-1,0,0,0,-1.0,-2.0,-1019.0
1777591677.101022,recenter,right,-,1,,,2,,0.8244925796311466,0.6501088832390305,3.889122244806896,3.9011061435356305,120,253446.99999999997,78,81.0,-1,0,-1,0,0,0,-1.0,-2.0,-1019.0
1777591677.15121,recenter,right,-,1,,,2,,0.8244925796311466,0.6501088832390305,3.889122244806896,3.9011061435356305,120,253440.0,78,81.0,-1,0,-1,0,0,0,-33.0,35.0,-967.0
1777591677.2012029,recenter,right,-,1,,,2,,0.8244925796311466,0.6501088832390305,3.889122244806896,3.9011061435356305,120,253440.0,78,81.0,-1,0,-1,0,0,0,-33.0,35.0,-967.0
1777591677.251348,recenter,right,-,1,,,2,,0.8244925796311466,0.6501088832390305,3.889122244806896,3.9011061435356305,120,253448.0,78,81.0,-1,0,-1,0,0,0,-4.0,-3.0,-1029.0
1777591677.301333,recenter,right,-,1,,,2,,0.7163016481628809,0.36891264758470466,3.8842720579422916,3.894742687062463,120,253448.0,78,81.0,-1,0,-1,0,0,0,-4.0,-3.0,-1029.0
1777591677.3518562,recenter,right,-,1,,,2,,0.7200642355675508,0.36975207553050793,3.885083538368678,3.895273170041657,120,253448.0,78,81.0,-1,-1,-1,0,0,0,-3.0,16.0,-971.0
1777591677.402533,recenter,right,-,1,,,2,,0.8190251499200277,0.6476468581340329,3.8754663275246,3.8875853840761025,120,253448.0,78,81.0,-1,-1,-1,0,0,0,-3.0,16.0,-971.0
1777591677.4528,recenter,right,-,1,,,2,,0.8190251499200277,0.6476468581340329,3.8754663275246,3.8875853840761025,120,253453.00000000003,78,81.0,-1,0,-1,0,0,0,-18.0,39.0,-977.0
1777591677.502114,recenter,right,-,1,,,2,,1.0251709609353417,0.7687699089551359,3.8607839720154837,3.878437533543224,120,253453.00000000003,78,81.0,-1,0,-1,0,0,0,-18.0,39.0,-977.0
1777591677.552182,recenter,right,-,1,,,2,,0.8200886592766847,0.6510756298263461,3.875608129145525,3.8878973022846726,120,253451.00000000003,78,81.0,0,-1,-1,0,0,0,-25.0,3.0,-950.0
1777591677.60235,recenter,right,-,1,,,2,,1.0251709609353417,0.7687699089551359,3.8607839720154837,3.878437533543224,120,253451.00000000003,78,81.0,0,-1,-1,0,0,0,-25.0,3.0,-950.0
1777591677.654001,recenter,right,-,1,,,2,,0.8212125825300258,0.6440763669717824,3.862316997092454,3.8741490419947704,120,253452.0,78,81.0,0,-1,-1,0,0,0,-29.0,18.0,-975.0
1777591677.704969,recenter,right,-,1,,,2,,1.0240913222841856,0.7715679343437749,3.8607924032741208,3.8787061119426234,120,253452.0,78,81.0,0,-1,-1,0,0,0,-29.0,18.0,-975.0
1777591677.755847,recenter,right,-,1,,,2,,1.2782449891366718,0.4255637906751722,3.871751888924777,3.8818212826926914,120,253448.0,78,81.0,-1,-1,-1,0,0,0,0.0,-3.0,-968.0
1777591677.8580532,recenter,right,-,1,,,2,,1.2782449891366718,0.4255637906751722,3.871751888924777,3.8818212826926914,120,253444.99999999997,78,81.0,-1,-1,-1,0,0,0,17.0,13.0,-1028.0
1777591677.90889,recenter,right,-,1,,,2,,0.8134878950568551,0.6588302895917415,3.860846223332152,3.8740048327691343,120,253444.99999999997,78,81.0,-1,-1,-1,0,0,0,17.0,13.0,-1028.0
1777591677.9604611,recenter,right,-,1,,,2,,0.7217734836241381,0.369946126114763,3.8585351880934025,3.8686699300282963,120,253442.99999999997,78,81.0,-1,0,-1,0,0,0,-9.0,10.0,-1001.0
1777591678.012064,recenter,right,-,1,,,2,,0.7217734836241381,0.369946126114763,3.8585351880934025,3.8686699300282963,120,253442.99999999997,78,81.0,-1,0,-1,0,0,0,-9.0,10.0,-1001.0
1777591678.063949,recenter,right,-,1,,,2,,0.8204590520022299,0.6441068367097553,3.849245226431772,3.8611542203004743,120,253446.99999999997,78,81.0,0,0,-1,0,0,0,-34.0,33.0,-970.0
1777591678.115746,recenter,right,-,1,,,2,,0.7211076054454252,0.37223350914444825,3.858084678740699,3.868251456936136,120,253446.99999999997,78,81.0,0,0,-1,0,0,0,-34.0,33.0,-970.0
1777591678.166712,recenter,right,-,1,,,2,,0.4646885277841093,0.3847460692837282,3.803572515430352,3.8410877280824263,120,253456.0,77,81.0,0,0,-1,0,0,0,-33.0,41.0,-1015.0
1777591678.218466,recenter,right,-,1,,,2,,0.7210083074113176,0.3920662902947694,3.8446856673464844,3.8548031323250047,120,253456.0,77,81.0,0,0,-1,0,0,0,-33.0,41.0,-1015.0
1777591678.371346,recenter,right,-,1,,,2,,0.8260899508502668,0.6499539777911851,3.849781796672056,3.8618054816622265,120,253453.00000000003,77,81.0,0,0,-1,0,0,0,-7.0,8.0,-1000.0
1777591678.4224021,recenter,right,-,1,,,2,,1.0213919160302112,0.7645058540022185,3.8349919567013915,3.8523350632619815,120,253453.00000000003,77,81.0,0,0,-1,0,0,0,-7.0,8.0,-1000.0
1777591678.473693,recenter,right,-,1,,,2,,0.5642832130302708,0.499579491858804,3.8147944003072762,3.8408881147804648,120,253458.0,77,81.0,0,0,0,0,0,0,-18.0,24.0,-940.0
1777591678.525153,recenter,right,-,1,,,2,,1.0258976336211947,0.771009514157761,3.8345528607212316,3.8525464810548535,120,253454.0,77,81.0,0,0,-1,0,0,0,-2.0,18.0,-958.0
1777591678.57576,recenter,right,-,1,,,2,,0.5663849818770759,0.5008484467677754,3.815521900631763,3.8414059623213266,120,253454.0,77,81.0,0,0,-1,0,0,0,-2.0,18.0,-958.0
1777591678.67889,recenter,right,-,1,,,2,,0.727923166286041,0.37051050337431984,3.833314495776257,3.8430710971023463,120,253448.99999999997,77,81.0,0,0,0,0,0,0,-35.0,38.0,-994.0
1777591678.728878,recenter,right,-,1,,,2,,1.0238730989549514,0.7767454328718344,3.834573636903617,3.853110694345509,120,253453.00000000003,77,81.0,0,-1,0,0,0,0,-27.0,21.0,-1007.0
1777591678.780405,recenter,right,-,1,,,2,,1.0190634537309506,0.7680763587300006,3.8221904635660833,3.839919733653244,120,253453.00000000003,77,81.0,0,-1,0,0,0,0,-27.0,21.0,-1007.0
1777591678.831674,recenter,right,-,1,,,2,,0.8308721989102906,0.6538619663193851,3.8371299682081883,3.8492358337683545,120,253450.0,77,81.0,-1,-1,0,0,0,0,-51.0,32.0,-984.0
1777591678.8829901,recenter,right,-,1,,,2,,0.8441093085209216,0.6458779384711326,3.839195559333877,3.850218229026194,120,253450.0,77,81.0,-1,-1,0,0,0,0,-51.0,32.0,-984.0
1777591678.93393,recenter,right,-,1,,,2,,0.5718662075427245,0.5012835881859637,3.8171746531420396,3.8424444357816965,120,253448.99999999997,77,81.0,-1,-1,0,0,0,0,-22.0,38.0,-1015.0
1777591678.984401,recenter,right,-,1,,,2,,1.0266352491056248,0.7692884049719921,3.821627560794529,3.839520878438613,120,253448.99999999997,77,81.0,-1,-1,0,0,0,0,-22.0,38.0,-1015.0
1777591679.0353138,recenter,right,-,1,,,2,,0.7326770211957585,0.3672254433192423,3.834089501607929,3.8435371798517224,120,253451.00000000003,77,81.0,-1,0,0,0,0,0,1.0,11.0,-1000.0
1777591679.0852008,recenter,right,-,1,,,2,,0.8449826323825289,0.6423249566221954,3.839310181224808,3.850072004069725,120,253451.00000000003,77,81.0,-1,0,0,0,0,0,1.0,11.0,-1000.0
1777591679.135205,recenter,right,-,1,,,2,,1.0123218047652487,0.7709234737013464,3.821538744166479,3.8395174727276418,120,253448.0,77,81.0,-1,0,-1,0,0,0,-33.0,12.0,-1025.0
1777591679.185956,recenter,right,-,1,,,2,,0.7318881677819178,0.3695334202245641,3.833648981038876,3.843133705308594,120,253448.0,77,81.0,-1,0,-1,0,0,0,-33.0,12.0,-1025.0
1777591679.237437,recenter,right,-,1,,,2,,1.024636462367438,0.7698889510284217,3.8216749825209724,3.8396125407907453,120,253448.99999999997,77,81.0,0,0,0,0,0,0,-31.0,16.0,-1045.0
1777591679.288502,recenter,right,-,1,,,2,,0.8316397791064094,0.6455264005155605,3.8242782245641163,3.835848317674297,120,253448.99999999997,77,81.0,0,0,0,0,0,0,-31.0,16.0,-1045.0
1777591679.3399968,recenter,right,-,1,,,2,,0.7284515239197352,0.36491603939337447,3.8327032067397346,3.8424709927475584,120,253444.99999999997,77,80.0,-1,-1,0,0,0,0,-1.0,20.0,-991.0
1777591679.391378,recenter,right,-,1,,,2,,0.5691154088635724,0.5042411771839307,3.8020545246863677,3.8278122162127524,120,253444.99999999997,77,80.0,-1,-1,0,0,0,0,-1.0,20.0,-991.0
1777591679.442049,recenter,right,-,1,,,2,,0.56986425673989,0.49446522495653894,3.8160501541138396,3.8413772549787764,120,253455.00000000003,77,80.0,-1,-1,0,0,0,0,-2.0,12.0,-1020.0
1777591679.4928372,recenter,right,-,1,,,2,,0.8325643284901136,0.6371031078189369,3.824197463917923,3.8351973653082885,120,253455.00000000003,77,80.0,-1,-1,0,0,0,0,-2.0,12.0,-1020.0
1777591679.54396,recenter,right,-,1,,,2,,0.7211257990003883,0.35995691409421676,3.830911130780308,3.8412568725156206,120,253448.99999999997,77,80.0,-1,-1,0,0,0,0,-18.0,5.0,-980.0
1777591679.596396,recenter,right,-,1,,,2,,0.7221302064598805,0.35393819482129085,3.831213295795655,3.841552893029036,120,253448.99999999997,77,80.0,-1,-1,0,0,0,0,-18.0,5.0,-980.0
1777591679.6455371,recenter,right,-,1,,,2,,0.8333553182161213,0.6285908506389026,3.8241058623485986,3.8345547164451292,120,253446.0,77,80.0,0,0,0,0,0,0,-7.0,18.0,-978.0
1777591679.696788,recenter,right,-,1,,,2,,1.0398317733495732,0.7555560354514672,3.8080445074997247,3.8248149805726492,120,253446.0,77,80.0,0,0,0,0,0,0,-7.0,18.0,-978.0
1777591679.7490408,recenter,right,-,1,,,2,,1.0368677096475791,0.7612326355699772,3.8208186489084572,3.8380337925638615,120,253444.99999999997,77,80.0,0,0,0,0,0,0,-9.0,10.0,-1016.0
1777591679.800554,recenter,right,-,1,,,2,,0.5669696388999477,0.47225664939640166,3.8014694475480315,3.8267357209059494,120,253444.99999999997,77,80.0,0,0,0,0,0,0,-9.0,10.0,-1016.0
1777591679.8518422,recenter,right,-,1,,,2,,0.8389217653443615,0.622233821934371,3.8244390739028318,3.834275459495064,120,253448.99999999997,77,80.0,0,0,-1,0,0,0,-36.0,21.0,-1046.0
1777591679.902678,recenter,right,-,1,,,2,,0.7111090317181135,0.34784221254359193,3.828082382632923,3.83932196547408,120,253448.99999999997,77,80.0,0,0,-1,0,0,0,-36.0,21.0,-1046.0
1777591680.005227,recenter,right,-,1,,,2,,1.0501539364703645,0.7529379584378408,3.8071622422597198,3.8238154974760223,120,253440.0,77,80.0,0,0,-1,0,0,0,20.0,-12.0,-1010.0
1777591680.0568461,recenter,right,-,1,,,2,,0.8602763100091044,0.5996556586298826,3.8267593196268903,3.83451065742669,120,253451.00000000003,77,80.0,0,0,-1,0,0,0,-20.0,22.0,-939.0
1777591680.1085749,recenter,right,-,1,,,2,,0.8430355548132591,0.6119804091345356,3.8245983765325215,3.833683121057976,120,253451.00000000003,77,80.0,0,0,-1,0,0,0,-20.0,22.0,-939.0
1777591680.15991,recenter,right,-,1,,,2,,1.053930217406373,0.751178004826776,3.806851437678777,3.8233953925772033,120,253454.0,77,80.0,0,0,-1,0,0,0,-11.0,28.0,-1018.0
1777591680.211276,recenter,right,-,1,,,2,,1.0666536445364905,0.7520866640869839,3.8064268245415405,3.823256844360223,120,253454.0,77,80.0,0,0,-1,0,0,0,-11.0,28.0,-1018.0
1777591680.263514,recenter,right,-,1,,,2,,0.8450453852917215,0.6067469112709971,3.824676221347915,3.8333931987318564,120,253452.0,77,80.0,-1,0,-1,0,0,0,11.0,3.0,-1004.0
1777591680.3152661,recenter,right,-,1,,,2,,0.443649027392902,0.5452830170481692,3.765063650925279,3.808718663183496,120,253452.0,77,80.0,-1,0,-1,0,0,0,11.0,3.0,-1004.0
1777591680.3665438,recenter,right,-,1,,,2,,0.8470245909526322,0.6014252053248719,3.824753752750808,3.8331077285010875,120,253458.0,77,80.0,0,0,0,0,0,0,-29.0,29.0,-931.0
1777591680.416621,recenter,right,-,1,,,2,,0.5565545771623086,0.46863584558172283,3.783471185470097,3.8099880490123477,120,253458.0,77,80.0,0,0,0,0,0,0,-29.0,29.0,-931.0
1777591680.467336,recenter,right,-,1,,,2,,0.5565545771623086,0.46863584558172283,3.783471185470097,3.8099880490123477,120,253458.0,77,80.0,0,0,-1,0,0,0,-22.0,31.0,-998.0
1777591680.517858,recenter,right,-,1,,,2,,0.9388141456659774,0.8661327399636507,3.7801960449356695,3.80931825635295,120,253458.0,77,80.0,0,0,-1,0,0,0,-22.0,31.0,-998.0
1777591680.569356,recenter,right,-,1,,,2,,0.5553408201655696,0.46574250342940515,3.7828765891579836,3.8094880432635208,120,253457.00000000003,77,80.0,0,0,-1,0,0,0,-2.0,17.0,-1005.0
1777591680.62055,recenter,right,-,1,,,2,,0.5553408201655696,0.46574250342940515,3.7828765891579836,3.8094880432635208,120,253457.00000000003,77,80.0,0,0,-1,0,0,0,-2.0,17.0,-1005.0
1777591680.671398,recenter,right,-,1,,,2,,0.8472212268056054,0.584432871300113,3.811870688347115,3.8193867285514167,120,253457.00000000003,77,80.0,0,0,-1,0,0,0,-20.0,21.0,-984.0
1777591680.722752,recenter,right,-,1,,,2,,1.0779385523672433,0.7475991812629793,3.8053440633210593,3.8219815605275524,120,253457.00000000003,77,80.0,0,0,-1,0,0,0,-20.0,21.0,-984.0
1777591680.7736561,recenter,right,-,1,,,2,,1.315853064862761,0.4829885371902797,3.808370532858708,3.8223469716176606,120,253456.0,77,80.0,0,0,-1,0,0,0,-19.0,8.0,-1014.0
1777591680.876161,recenter,right,-,1,,,2,,0.849640420741017,0.5780015412689127,3.811775053091351,3.8188901014743295,120,253458.0,77,80.0,0,0,-1,0,0,0,-34.0,32.0,-975.0
1777591680.9274828,recenter,right,-,1,,,2,,0.9433592331685737,0.8621824932201086,3.780132443587036,3.8087034702856175,120,253458.0,77,80.0,0,0,-1,0,0,0,-34.0,32.0,-975.0
1777591680.978932,recenter,right,-,1,,,2,,0.8609695360641686,0.5595344710216542,3.813465686968437,3.819332567744268,120,253451.00000000003,77,80.0,0,0,-1,0,0,0,-26.0,31.0,-989.0
1777591681.030745,recenter,right,-,1,,,2,,0.8609695360641686,0.5595344710216542,3.813465686968437,3.819332567744268,120,253451.00000000003,77,80.0,0,0,-1,0,0,0,-26.0,31.0,-989.0
1777591681.082038,recenter,right,-,1,,,2,,0.6291044712932422,0.6050400061839741,3.7800876996495996,3.8037702236587307,120,253446.99999999997,76,80.0,0,0,-1,0,0,0,-20.0,27.0,-986.0
1777591681.133857,recenter,right,-,1,,,2,,0.6291044712932422,0.6050400061839741,3.7800876996495996,3.8037702236587307,120,253446.99999999997,76,80.0,0,0,-1,0,0,0,-20.0,27.0,-986.0
1777591681.1851048,recenter,right,-,1,,,2,,0.8470070972474074,0.5660719805899143,3.7988708484768106,3.8055757060445723,120,253446.0,76,80.0,0,0,-1,0,0,0,-22.0,34.0,-996.0
1777591681.236008,recenter,right,-,1,,,2,,0.9462995798876872,0.8548792292785204,3.767520298431475,3.795261262079654,120,253446.0,76,80.0,0,0,-1,0,0,0,-22.0,34.0,-996.0
1777591681.286786,recenter,right,-,1,,,2,,0.6256070424980736,0.6037258192066808,3.7790301278625384,3.8029913230680963,120,253446.99999999997,76,80.0,0,0,-1,0,0,0,-14.0,12.0,-1007.0
1777591681.335816,recenter,right,-,1,,,2,,0.6305920577979255,0.6033493183480757,3.7803828643537973,3.803828042135241,120,253446.99999999997,76,80.0,0,0,-1,0,0,0,-14.0,12.0,-1007.0
1777591681.386807,recenter,right,-,1,,,2,,0.6305920577979255,0.6033493183480757,3.7803828643537973,3.803828042135241,120,253446.99999999997,76,80.0,0,0,-1,0,0,0,-27.0,19.0,-985.0
1777591681.43629,recenter,right,-,1,,,2,,1.0696332223111538,0.730753250029827,3.7930641420101443,3.808094285001079,120,253446.99999999997,76,80.0,0,0,-1,0,0,0,-27.0,19.0,-985.0
1777591681.487286,recenter,right,-,1,,,2,,0.8426953087720137,0.5666268228346512,3.7983778039916536,3.805283590723135,120,253448.99999999997,76,80.0,0,0,-1,0,0,0,-27.0,33.0,-1003.0
1777591681.5382981,recenter,right,-,1,,,2,,1.0522051746685175,0.9554224350175695,3.754586365782252,3.795805347973075,120,253448.99999999997,76,80.0,0,0,-1,0,0,0,-27.0,33.0,-1003.0
1777591681.588484,recenter,right,-,1,,,2,,0.9453603090602226,0.8547790754351247,3.7677254684831865,3.795466336188014,120,253442.0,76,80.0,0,0,-1,0,0,0,13.0,14.0,-1030.0
1777591681.620506,pre_hover,right,x,1,,,2,1,1.1200158577243953,1.0410631197387878,3.724836863457687,3.781504381720039,120,253442.0,76,80.0,0,0,-1,0,0,0,13.0,14.0,-1030.0
1777591681.672132,pre_hover,right,x,1,,,2,1,1.0426660749476169,0.9462687372855431,3.742920164592119,3.782813937507008,120,253454.0,76,80.0,0,0,-1,0,0,0,-7.0,4.0,-988.0
1777591681.724184,pre_hover,right,x,1,,,,,,,,,120,253454.0,76,80.0,0,0,-1,0,0,0,-7.0,4.0,-988.0
1777591681.7746072,pre_hover,right,x,1,,,2,1,0.8492022178457999,0.5699325216626897,3.799121118999637,3.805908342281816,120,253441.0,76,80.0,0,0,-1,0,0,0,4.0,27.0,-976.0
1777591681.826905,pre_hover,right,x,1,,,2,1,0.6281419443801404,0.6029366906505829,3.7667783733878597,3.790525165219733,120,253441.0,76,80.0,0,0,-1,0,0,0,4.0,27.0,-976.0
1777591681.8784719,pre_hover,right,x,1,,,2,1,0.8513416932233842,0.5738311384046662,3.799361504270548,3.8062401917096245,120,253451.00000000003,76,80.0,0,0,-1,0,0,0,-7.0,13.0,-982.0
1777591681.9296582,pre_hover,right,x,1,,,2,1,0.8454107513195813,0.5799204985772103,3.7988417059779658,3.806240603100838,120,253451.00000000003,76,80.0,0,0,-1,0,0,0,-7.0,13.0,-982.0
1777591681.98115,pre_hover,right,x,1,,,2,1,0.6316078390743616,0.6061459667837201,3.767796207164591,3.7913714144853357,120,253459.0,76,80.0,0,0,-1,0,0,0,-13.0,26.0,-1040.0
1777591682.033144,pre_hover,right,x,1,,,2,1,0.5570254138138366,0.46298834800855093,3.7570600619871337,3.783608637976504,120,253459.0,76,80.0,0,0,-1,0,0,0,-13.0,26.0,-1040.0
1777591682.084461,pre_hover,right,x,1,,,2,1,0.8624833573321746,0.5693170700348773,3.788441945087057,3.7947162566535626,120,253457.00000000003,76,80.0,0,0,-1,0,0,0,11.0,13.0,-991.0
1777591682.135884,pre_hover,right,x,1,,,2,1,0.8645323422803084,0.5736138453585584,3.788657293816772,3.7950516918191335,120,253469.0,76,80.0,0,0,-1,0,0,0,-7.0,9.0,-1014.0
1777591682.1871219,pre_hover,right,x,1,,,2,1,0.8665054104216828,0.577935801263576,3.788861682664324,3.795385988958163,120,253469.0,76,80.0,0,0,-1,0,0,0,-7.0,9.0,-1014.0
1777591682.2372942,pre_hover,right,x,1,,,2,1,0.940055979722103,0.8649870252408582,3.7554073657600524,3.7845595122833355,120,253469.99999999997,76,80.0,0,0,-1,0,0,0,-15.0,25.0,-981.0
1777591682.2887502,pre_hover,right,x,1,,,2,1,0.9398853700240001,0.8672241610376059,3.7553917677622772,3.7848222566946426,120,253469.99999999997,76,80.0,0,0,-1,0,0,0,-15.0,25.0,-981.0
1777591682.3391218,pre_hover,right,x,1,,,2,1,0.8050471405972767,0.7928431783204869,3.754818955563174,3.7803436046474355,120,253469.99999999997,76,80.0,0,0,-1,0,0,0,-15.0,25.0,-981.0
1777591682.389811,pre_hover,right,x,1,,,2,1,0.8719678693393096,0.5909988291688177,3.7894126884684938,3.796382660211085,120,253459.0,76,80.0,0,0,-1,0,0,0,-12.0,10.0,-1041.0
1777591682.4399219,pre_hover,right,x,1,,,2,1,0.8684881448687273,0.5887409308835592,3.7892023710806355,3.796178751854814,120,253459.0,76,80.0,0,0,-1,0,0,0,-12.0,10.0,-1041.0
1777591682.490707,pre_hover,right,x,1,,,2,1,0.8736438693652706,0.5953755585031753,3.789577148825604,3.7967133744214348,120,253456.0,76,80.0,0,0,-1,0,0,0,-29.0,26.0,-1030.0
1777591682.541919,pre_hover,right,x,1,,,2,1,0.5720414365563489,0.4689740259110797,3.76234583545303,3.787235420966842,120,253456.0,76,80.0,0,0,-1,0,0,0,-29.0,26.0,-1030.0
1777591682.594557,pre_hover,right,x,1,,,2,1,0.5742919438135018,0.46988250855500213,3.7631231620299452,3.787770696162887,120,253442.0,76,80.0,0,0,-1,0,0,0,7.0,11.0,-1029.0
1777591682.645067,pre_hover,right,x,1,,,2,1,0.5742919438135018,0.46988250855500213,3.7631231620299452,3.787770696162887,120,253442.0,76,80.0,0,0,-1,0,0,0,7.0,11.0,-1029.0
1777591682.695776,pre_hover,right,x,1,,,2,1,0.8759902821796675,0.595835884340006,3.7898160257277818,3.79689815672902,120,253436.0,76,80.0,0,0,0,0,0,0,5.0,19.0,-1025.0
1777591682.746498,pre_hover,right,x,1,,,2,1,0.8810177315723092,0.6026834188837142,3.7901379777873845,3.797417970036592,120,253429.0,76,80.0,0,0,0,0,0,0,-20.0,44.0,-1014.0
1777591682.796277,pre_hover,right,x,1,,,2,1,0.8810177315723092,0.6026834188837142,3.7901379777873845,3.797417970036592,120,253429.0,76,80.0,0,0,0,0,0,0,-20.0,44.0,-1014.0
1777591682.846006,pre_hover,right,x,1,,,2,1,0.5774327492092574,0.46851802419861505,3.7640525844953623,3.78831752364122,120,253444.99999999997,76,80.0,0,0,0,0,0,0,-26.0,22.0,-995.0
1777591682.896013,pre_hover,right,x,1,,,2,1,0.6513307752287176,0.6217276297207133,3.7732844662983935,3.7958410179686033,120,253444.99999999997,76,80.0,0,0,0,0,0,0,-26.0,22.0,-995.0
1777591682.947368,pre_hover,right,x,1,,,2,1,1.0683437655385017,0.7592805702021123,3.7808431705365284,3.798490289392016,120,253448.0,76,80.0,0,0,0,0,0,0,-12.0,5.0,-1022.0
1777591682.997695,pre_hover,right,x,1,,,2,1,0.8690404071368434,0.6120017273432663,3.8011961020943494,3.809355188734268,120,253448.0,76,80.0,0,0,0,0,0,0,-12.0,5.0,-1022.0
1777591683.047188,pre_hover,right,x,1,,,2,1,0.5736861066536207,0.4644987057424514,3.7626241250098187,3.7872475394154663,120,253439.0,76,80.0,-1,0,0,0,0,0,7.0,-2.0,-1032.0
1777591683.097932,pre_hover,right,x,1,,,2,1,0.45677720986624737,0.5390592852261048,3.743257522182393,3.7850238258039224,120,253439.0,76,80.0,-1,0,0,0,0,0,7.0,-2.0,-1032.0
1777591683.147874,pre_hover,right,x,1,,,2,1,0.5735113640110909,0.45084368174222544,3.775792434731492,3.800142911362197,120,253442.99999999997,76,80.0,0,0,-1,0,0,0,-8.0,34.0,-992.0
1777591683.19905,pre_hover,right,x,1,,,2,1,0.6443968819314616,0.6150272265575356,3.784210498825645,3.806959335895687,120,253442.99999999997,76,80.0,0,0,-1,0,0,0,-8.0,34.0,-992.0
1777591683.249929,pre_hover,right,x,1,,,,,,,,,120,253439.0,76,80.0,0,0,-1,0,0,0,13.0,-5.0,-988.0
1777591683.300647,pre_hover,right,x,1,,,2,1,1.050688248128553,0.9644804485645997,3.7546888639979787,3.7972221347638415,120,253439.0,76,80.0,0,0,-1,0,0,0,13.0,-5.0,-988.0
1777591683.3514922,pre_hover,right,x,1,,,2,1,0.8645111369024719,0.5800069217837556,3.800474757473089,3.807146977213207,120,253432.00000000003,76,79.5,0,0,-1,0,0,0,-5.0,2.0,-1006.0
1777591683.402272,pre_hover,right,x,1,,,2,1,0.862472283710317,0.5759366137619599,3.8002588349007618,3.8068142556540865,120,253432.00000000003,76,79.5,0,0,-1,0,0,0,-5.0,2.0,-1006.0
1777591683.4528708,pre_hover,right,x,1,,,2,1,1.091255908700594,0.7450573992627633,3.791360704455984,3.808123979199171,120,253437.0,76,79.5,0,0,-1,0,0,0,-10.0,23.0,-1050.0
1777591683.503039,pre_hover,right,x,1,,,,,,,,,120,253437.0,76,79.5,0,0,-1,0,0,0,-10.0,23.0,-1050.0
1777591683.552512,pre_hover,right,x,1,,,2,1,0.9536341274885851,0.8630245946655439,3.779911822433768,3.8084478406266125,120,253439.0,76,79.5,0,0,-1,0,0,0,-31.0,20.0,-956.0
1777591683.602565,pre_hover,right,x,1,,,2,1,0.8523141653254802,0.5713585239358617,3.811755484764562,3.818462350884412,120,253439.0,76,79.5,0,0,-1,0,0,0,-31.0,20.0,-956.0
1777591683.653777,pre_hover,right,x,1,,,2,1,0.6393373859072258,0.5854616553018102,3.795686681559361,3.817291046194753,120,253444.0,76,79.5,0,0,-1,0,0,0,15.0,13.0,-1048.0
1777591683.7039628,pre_hover,right,x,1,,,2,1,0.8121686315001855,0.7732948410243997,3.7801237322466146,3.8031519943886045,120,253444.0,76,79.5,0,0,-1,0,0,0,15.0,13.0,-1048.0
1777591683.754853,pre_hover,right,x,1,,,2,1,0.8128197181571024,0.7779864190861081,3.7928439256715936,3.8162252600479745,120,253451.00000000003,76,79.5,0,0,-1,0,0,0,18.0,9.0,-1021.0
1777591683.805564,pre_hover,right,x,1,,,2,1,0.8860609698852784,0.5399759107978799,3.8279487247974133,3.8322012992359005,120,253451.00000000003,76,79.5,0,0,-1,0,0,0,18.0,9.0,-1021.0
1777591683.8559701,pre_hover,right,x,1,,,2,1,0.4369708288015385,0.5249281225587944,3.7607256031771605,3.8046899933921967,120,253444.99999999997,76,79.5,0,0,-1,0,0,0,-20.0,25.0,-1032.0
1777591683.906993,pre_hover,right,x,1,,,2,1,0.8586467180595694,0.5514204354769311,3.8250283939480383,3.8306332522318116,120,253444.99999999997,76,79.5,0,0,-1,0,0,0,-20.0,25.0,-1032.0
1777591683.9581819,pre_hover,right,x,1,,,2,1,0.8561981772900003,0.5475429545139742,3.8247627748262536,3.8303078428943613,120,253444.99999999997,76,79.5,0,0,0,0,0,0,-6.0,5.0,-990.0
1777591684.009341,pre_hover,right,x,1,,,2,1,0.8561981772900003,0.5475429545139742,3.8247627748262536,3.8303078428943613,120,253444.99999999997,76,79.5,0,0,0,0,0,0,-6.0,5.0,-990.0
1777591684.061451,pre_hover,right,x,1,,,2,1,0.813417446168615,0.775993074472722,3.805462713508039,3.828541537628351,120,253448.99999999997,75,79.5,0,0,0,0,0,0,-25.0,28.0,-951.0
1777591684.112097,pre_hover,right,x,1,,,2,1,0.8796573100830741,0.5199738321744294,3.8271349576343274,3.8309056458453483,120,253448.99999999997,75,79.5,0,0,0,0,0,0,-25.0,28.0,-951.0
1777591684.1632981,pre_hover,right,x,1,,,2,1,1.0613851737246691,0.9561837528535798,3.7786069549837618,3.819814004207948,120,253446.0,75,79.5,0,0,0,0,0,0,-28.0,19.0,-1026.0
1777591684.214862,pre_hover,right,x,1,,,2,1,0.9509969981230598,0.8520697375243507,3.7924572804958703,3.819620474100067,120,253446.0,75,79.5,0,0,0,0,0,0,-28.0,19.0,-1026.0
1777591684.265625,pre_hover,right,x,1,,,2,1,0.808901124807971,0.7752355140713212,3.805117491382572,3.828346848751511,130,253444.99999999997,75,79.5,0,0,0,0,0,0,-20.0,23.0,-995.0
1777591684.315918,pre_hover,right,x,1,,,2,1,0.808901124807971,0.7752355140713212,3.805117491382572,3.828346848751511,130,253444.99999999997,75,79.5,0,0,0,0,0,0,-20.0,23.0,-995.0
1777591684.365858,pre_hover,right,x,1,,,2,1,0.808901124807971,0.7752355140713212,3.805117491382572,3.828346848751511,130,253446.99999999997,75,79.5,0,0,0,0,0,0,-2.0,22.0,-985.0
1777591684.41655,pre_hover,right,x,1,,,2,1,0.808901124807971,0.7752355140713212,3.805117491382572,3.828346848751511,130,253446.99999999997,75,79.5,0,0,0,0,0,0,-2.0,22.0,-985.0
1777591684.466026,pre_hover,right,x,1,,,2,1,0.6292661764713456,0.5911601929719613,3.8054756502306537,3.828267325015806,130,253446.0,75,79.5,0,0,0,0,0,0,5.0,14.0,-969.0
1777591684.517257,pre_hover,right,x,1,,,2,1,1.1045027640407559,0.7386843075637832,3.815378106999134,3.8318060999025523,130,253446.0,75,79.5,0,0,0,0,0,0,5.0,14.0,-969.0
1777591684.567893,pre_hover,right,x,1,,,2,1,0.6309943651279118,0.5926003925082408,3.8059715307380704,3.828665480627731,130,253448.0,75,79.5,0,0,0,0,0,0,-37.0,41.0,-985.0
1777591684.618934,pre_hover,right,x,1,,,2,1,1.1032649039501594,0.7410515008196819,3.8154661097012945,3.8320701195148192,130,253448.0,75,79.5,0,0,0,0,0,0,-37.0,41.0,-985.0
1777591684.6703281,response,right,x,1,1777591684.669996,0.00033211708068847656,2,1,0.8826022155862323,0.5246906153761639,3.827402054276407,3.8312317176630555,130,253444.99999999997,75,79.5,0,0,0,0,0,0,-15.0,18.0,-983.0
1777591684.7200232,response,right,x,1,1777591684.669996,0.05002713203430176,2,1,0.8586467180595694,0.5514204354769311,3.8250283939480383,3.8306332522318116,130,253444.99999999997,75,79.5,0,0,0,0,0,0,-15.0,18.0,-983.0
1777591684.771033,response,right,x,1,1777591684.669996,0.10103702545166016,2,1,0.8586467180595694,0.5514204354769311,3.8250283939480383,3.8306332522318116,120,253459.0,75,79.5,0,0,0,0,0,0,-24.0,31.0,-984.0
1777591684.8223722,response,right,x,1,1777591684.669996,0.1523761749267578,2,1,0.821327982778956,0.7741435572341985,3.807103424154132,3.829614024071331,120,253459.0,75,79.5,0,0,0,0,0,0,-24.0,31.0,-984.0
1777591684.873493,response,right,x,1,1777591684.669996,0.20349693298339844,2,1,0.8610308524220154,0.5553539716000832,3.825282558916625,3.83095731326025,120,253453.00000000003,75,79.5,0,0,0,0,0,0,-37.0,16.0,-1021.0
1777591684.924421,response,right,x,1,1777591684.669996,0.254425048828125,2,1,0.8633426309313215,0.5593353478797412,3.8255253345942775,3.831280083108959,120,253453.00000000003,75,79.5,0,0,0,0,0,0,-37.0,16.0,-1021.0
1777591684.9755049,response,right,x,1,1777591684.669996,0.3055088520050049,2,1,0.9695942151817492,1.0423007236070623,3.753344598743425,3.808027101822282,120,253446.99999999997,75,79.5,0,3,0,0,0,0,-13.0,14.0,-951.0
1777591685.026664,response,right,x,1,1777591684.669996,0.35666799545288086,2,1,0.6547744731859583,0.757041469012092,3.7863179026682388,3.8187514366641295,120,253446.99999999997,75,79.5,0,3,0,0,0,0,-13.0,14.0,-951.0
1777591685.077557,response,right,x,1,1777591684.669996,0.4075610637664795,2,1,0.8091521696822679,0.7813612302061328,3.792526350956542,3.8164270469826964,120,253439.0,75,79.5,0,4,0,0,1,0,-35.0,19.0,-1020.0
1777591685.129285,response,right,x,1,1777591684.669996,0.4592890739440918,2,1,0.955297009868784,0.862988835306902,3.793027661694816,3.8214415946508407,120,253439.0,75,79.5,0,4,0,0,1,0,-35.0,19.0,-1020.0
1777591685.180448,response,right,x,1,1777591684.669996,0.5104520320892334,2,1,0.8398113345314255,0.5774000000857189,3.8237441845210327,3.831207480316543,120,253441.0,75,79.5,0,2,0,0,1,0,3.0,3.0,-1046.0
1777591685.231761,response,right,x,1,1777591684.669996,0.5617649555206299,2,1,1.0733128843178874,0.7350134388157118,3.8190731141584413,3.834439754968382,120,253441.0,75,79.5,0,2,0,0,1,0,3.0,3.0,-1046.0
1777591685.2827709,response,right,x,1,1777591684.669996,0.6127748489379883,,,,,,,120,253441.0,75,79.5,0,0,0,0,2,0,14.0,3.0,-999.0
1777591685.3333719,response,right,x,1,1777591684.669996,0.6633758544921875,2,1,0.9178989648510281,0.8633139065666584,3.8061778414267393,3.8351519026706757,120,253441.0,75,79.5,0,0,0,0,2,0,14.0,3.0,-999.0
1777591685.384099,response,right,x,1,1777591684.669996,0.7141029834747314,2,1,0.8376256558305839,0.9745544394303665,3.772350304370012,3.819306880887436,120,253442.0,75,80.0,0,0,0,0,2,0,-10.0,11.0,-1002.0
1777591685.4342132,response,right,x,1,1777591684.669996,0.7642171382904053,2,1,0.7793578218405778,0.5998866023034342,3.8180885101039084,3.8296785107304805,120,253442.0,75,80.0,0,0,0,0,2,0,-10.0,11.0,-1002.0
1777591685.484562,response,right,x,1,1777591684.669996,0.814565896987915,2,1,1.0298477323389654,0.70914983378648,3.824689260939885,3.8372793030485637,120,253456.0,75,80.0,0,0,0,0,2,0,-12.0,-4.0,-1010.0
1777591685.535109,response,right,x,1,1777591684.669996,0.8651130199432373,2,1,1.003910905382363,0.7042393920341368,3.825494814180521,3.837575729046695,120,253456.0,75,80.0,0,0,0,0,2,0,-12.0,-4.0,-1010.0
1777591685.586238,response,right,x,1,1777591684.669996,0.9162418842315674,2,1,0.9973892568673852,0.6989967712289491,3.826503853919551,3.8381685253837166,120,253440.0,75,80.0,0,0,0,0,2,0,-29.0,18.0,-987.0
1777591685.636299,response,right,x,1,1777591684.669996,0.9663028717041016,2,1,0.9933293466257802,0.9380652217068717,3.7879713686322822,3.8260012767907994,120,253440.0,75,80.0,0,0,0,0,2,0,-29.0,18.0,-987.0
1777591685.686924,response,right,x,1,1777591684.669996,1.01692795753479,2,1,1.0983648336600413,0.8436642959314886,3.8118430521635025,3.8388359045826013,120,253441.0,75,80.0,0,0,0,0,2,0,-2.0,-3.0,-1009.0
1777591685.7377741,response,right,x,1,1777591684.669996,1.0677781105041504,2,1,1.0930124788844962,0.8395292806825727,3.8133290991859803,3.8397026093831985,120,253441.0,75,80.0,0,0,0,0,2,0,-2.0,-3.0,-1009.0
1777591685.788651,response,right,x,1,1777591684.669996,1.1186549663543701,2,1,1.3601025677401781,0.3529999697448606,3.833983197157016,3.851143988248088,120,253444.99999999997,75,80.0,0,0,0,0,2,0,-31.0,25.0,-1005.0
1777591685.839395,response,right,x,1,1777591684.669996,1.1693990230560303,2,1,1.0932931687478191,0.8327236541931702,3.8160739074920094,3.8416628487771587,120,253444.99999999997,75,80.0,0,0,0,0,2,0,-31.0,25.0,-1005.0
1777591685.8909178,response,right,x,1,1777591684.669996,1.2209217548370361,2,1,1.2295213093182629,0.7482801999976652,3.8277708696698753,3.850429711062761,130,253444.99999999997,75,80.0,0,0,0,0,2,0,0.0,-9.0,-1020.0
1777591685.941364,response,right,x,1,1777591684.669996,1.2713680267333984,2,1,1.2332459799354671,0.536120437256488,3.841581437145541,3.8510622429163814,130,253444.99999999997,75,80.0,0,0,0,0,2,0,0.0,-9.0,-1020.0
1777591685.992695,response,right,x,1,1777591684.669996,1.3226990699768066,2,1,1.2217887277867518,0.738177057631958,3.831958247337709,3.8532399317225705,130,253450.0,75,80.0,0,0,0,0,2,0,-19.0,-3.0,-987.0
1777591686.04356,response,right,x,1,1777591684.669996,1.3735640048980713,2,1,1.3823674615639712,0.7191449799887967,3.822647308748372,3.854956658770121,130,253450.0,75,80.0,0,0,0,0,2,0,-19.0,-3.0,-987.0
1777591686.1044888,response,right,x,1,1777591684.669996,1.434492826461792,2,1,1.0423206304821808,0.8090068046412282,3.8400206520662503,3.861973098081154,120,253441.0,75,80.0,0,0,0,0,2,0,-2.0,-9.0,-968.0
1777591686.155686,response,right,x,1,1777591684.669996,1.4856898784637451,2,1,1.2424907053006917,0.8614092858240061,3.8215263458659456,3.856911184270306,120,253441.0,75,80.0,0,0,0,0,2,0,-2.0,-9.0,-968.0
1777591686.206366,response,right,x,1,1777591684.669996,1.536370038986206,2,1,1.1172977313648016,0.9280161518459444,3.8258005349570405,3.8638464705098086,120,253446.0,75,80.0,0,0,0,0,2,0,10.0,0.0,-1012.0
1777591686.257277,response,right,x,1,1777591684.669996,1.5872809886932373,2,1,1.3707057834707312,0.8234176381810374,3.8220882869085786,3.8632970565496527,120,253446.0,75,80.0,0,0,0,0,2,0,10.0,0.0,-1012.0
1777591686.307582,response,right,x,1,1777591684.669996,1.6375858783721924,2,1,1.3903470361707775,0.9475271991254145,3.8037699805532466,3.8627481030203716,120,253448.0,75,80.0,0,-1,0,0,2,0,-14.0,-5.0,-975.0
1777591686.359252,response,right,x,1,1777591684.669996,1.689255952835083,2,1,1.1869414643550535,0.6570034420152694,3.866687206940941,3.8797252269488935,120,253448.0,75,80.0,0,-1,0,0,2,0,-14.0,-5.0,-975.0
1777591686.410484,response,right,x,1,1777591684.669996,1.740488052368164,2,1,1.516461667490375,0.6838465988993558,3.8187706666500083,3.8639760545531625,120,253448.0,75,80.5,0,-5,0,0,1,0,-31.0,24.0,-999.0
1777591686.461371,response,right,x,1,1777591684.669996,1.791374921798706,2,1,1.3666439570216893,0.8002187136594308,3.8304050884224683,3.8686697909483656,120,253448.0,75,80.5,0,-5,0,0,1,0,-31.0,24.0,-999.0
1777591686.512096,response,right,x,1,1777591684.669996,1.842099905014038,2,1,1.490038300770145,0.7933581224877491,3.8039242902513926,3.8554776817812524,120,253440.0,75,80.5,0,-3,0,0,0,0,-22.0,21.0,-977.0
1777591686.562565,response,right,x,1,1777591684.669996,1.8925690650939941,2,1,1.511879493867967,0.6738941912526051,3.823414682778816,3.8672391289824675,120,253451.00000000003,75,80.5,0,-1,0,0,0,0,14.0,-14.0,-1039.0
1777591686.614052,response,right,x,1,1777591684.669996,1.9440560340881348,2,1,1.3682390536042006,0.7987870158110746,3.832824554068226,3.8710689927779782,120,253451.00000000003,75,80.5,0,-1,0,0,0,0,14.0,-14.0,-1039.0
1777591686.6650748,response,right,x,1,1777591684.669996,1.9950788021087646,2,1,1.3732798148757883,0.9159105453489103,3.818530725402433,3.8712631545579983,120,253454.0,75,80.5,0,-1,0,0,0,0,-37.0,32.0,-993.0
1777591686.715552,response,right,x,1,1777591684.669996,2.04555606842041,2,1,1.5112848597961848,0.6618117649086654,3.8262945409636155,3.8691714258106167,120,253454.0,75,80.5,0,-1,0,0,0,0,-37.0,32.0,-993.0
1777591686.7665422,response,right,x,1,1777591684.669996,2.096546173095703,2,1,1.491681327572064,0.7921336260191386,3.8214702696790144,3.872874169215745,120,253450.0,75,80.5,0,0,0,0,0,0,-18.0,6.0,-1004.0
1777591686.8170571,response,right,x,1,1777591684.669996,2.1470611095428467,2,1,1.5939997204245717,0.7978631783312109,3.8053407193724094,3.8719179700827873,120,253450.0,75,80.5,0,0,0,0,0,0,-18.0,6.0,-1004.0
1777591686.867285,response,right,x,1,1777591684.669996,2.197288990020752,2,1,1.5098985125906528,0.6625326298820948,3.8419096531079377,3.884480616187822,120,253440.0,75,80.5,0,0,0,0,0,0,-7.0,11.0,-1026.0
1777591686.9161222,response,right,x,1,1777591684.669996,2.246126174926758,2,1,1.5890993167938716,0.7883172501554707,3.8083180485051424,3.873127244280173,120,253440.0,75,80.5,0,0,0,0,0,0,-7.0,11.0,-1026.0
1777591686.967587,response,right,x,1,1777591684.669996,2.297590970993042,2,1,1.3531594228254478,0.7846145001309242,3.8543449551019764,3.889553306558662,120,253442.0,75,80.5,0,0,0,0,0,0,9.0,7.0,-1010.0
1777591687.01806,response,right,x,1,1777591684.669996,2.3480639457702637,2,1,1.4836707912242646,0.7833116234292129,3.8401751443778007,3.889448595165708,120,253442.0,75,80.5,0,0,0,0,0,0,9.0,7.0,-1010.0
1777591687.06718,response,right,x,1,1777591684.669996,2.397183895111084,2,1,1.3926411193407018,1.0174766629687757,3.803617074722667,3.8733638260599785,120,253440.0,74,80.5,0,0,0,0,0,0,-32.0,10.0,-1014.0
1777591687.11836,response,right,x,1,1777591684.669996,2.448364019393921,2,1,1.4838309737982802,0.7811102030879626,3.8408825686541097,3.889950681473395,120,253440.0,74,80.5,0,0,0,0,0,0,-32.0,10.0,-1014.0
1777591687.1695738,response,right,x,1,1777591684.669996,2.499577760696411,2,1,1.3718216767155227,0.9158714719326314,3.83699311818756,3.889330395305621,120,253440.0,74,80.5,0,0,0,0,0,0,13.0,11.0,-1008.0
1777591687.2203379,response,right,x,1,1777591684.669996,2.550341844558716,2,1,1.4840084161092972,0.7788913767725795,3.8415906010225025,3.890455136371796,120,253440.0,74,80.5,0,0,0,0,0,0,13.0,11.0,-1008.0
1777591687.270745,response,right,x,1,1777591684.669996,2.6007490158081055,2,1,1.4840084161092972,0.7788913767725795,3.8415906010225025,3.890455136371796,120,253438.0,74,80.5,0,0,0,0,0,0,-46.0,26.0,-1001.0
1777591687.321491,response,right,x,1,1777591684.669996,2.6514949798583984,2,1,1.5971359750889462,0.800849908656366,3.822082074876264,3.8891597304695122,120,253438.0,74,80.5,0,0,0,0,0,0,-46.0,26.0,-1001.0
1777591687.3718212,response,right,x,1,1777591684.669996,2.7018251419067383,2,1,1.5971359750889462,0.800849908656366,3.822082074876264,3.8891597304695122,120,253444.0,74,79.5,0,-1,0,0,0,0,20.0,5.0,-1032.0
1777591687.422147,response,right,x,1,1777591684.669996,2.7521510124206543,2,1,1.364593603824463,0.9126034988759423,3.8535412867062075,3.904544953174301,120,253444.0,74,79.5,0,-1,0,0,0,0,20.0,5.0,-1032.0
1777591687.472615,response,right,x,1,1777591684.669996,2.802618980407715,2,1,1.476358757380897,0.8935338160916984,3.8315377454726596,3.892451000120775,120,253454.0,74,79.5,0,-1,0,0,0,0,-26.0,11.0,-939.0
1777591687.524541,response,right,x,1,1777591684.669996,2.8545448780059814,2,1,1.3898692673302517,1.0207968141325225,3.8193454300179335,3.8890598148967306,120,253454.0,74,79.5,0,-1,0,0,0,0,-26.0,11.0,-939.0
1777591687.576153,response,right,x,1,1777591684.669996,2.9061570167541504,2,1,1.4807673621533541,0.7777777130194186,3.8575884145892325,3.9057446963849474,120,253442.99999999997,74,79.5,0,0,0,0,0,0,-27.0,16.0,-1021.0
1777591687.627742,response,right,x,1,1777591684.669996,2.9577460289001465,2,1,1.6217219139216135,0.6886094793094374,3.838449193164293,3.8991698832317154,120,253442.99999999997,74,79.5,0,0,0,0,0,0,-27.0,16.0,-1021.0
1777591687.678719,response,right,x,1,1777591684.669996,3.008723020553589,2,1,1.4807673621533541,0.7777777130194186,3.8575884145892325,3.9057446963849474,120,253444.0,74,79.5,0,0,0,0,0,0,18.0,-2.0,-1023.0
1777591687.7290308,response,right,x,1,1777591684.669996,3.059034824371338,2,1,1.4813575587832524,0.9032323264721553,3.8436889241567167,3.906263229672236,120,253444.0,74,79.5,0,0,0,0,0,0,18.0,-2.0,-1023.0
1777591687.779605,response,right,x,1,1777591684.669996,3.1096088886260986,2,1,1.4873527049502437,0.7880767947822931,3.8552159016057357,3.9052280222369276,120,253446.99999999997,74,79.5,0,0,0,0,0,0,4.0,11.0,-976.0
1777591687.828896,response,right,x,1,1777591684.669996,3.158900022506714,2,1,1.3623414957865945,0.9131655441189769,3.8541563475233187,3.905016182603355,120,253446.99999999997,74,79.5,0,0,0,0,0,0,4.0,11.0,-976.0
1777591687.879406,response,right,x,1,1777591684.669996,3.2094099521636963,2,1,1.3623414957865945,0.9131655441189769,3.8541563475233187,3.905016182603355,120,253442.0,74,79.5,0,0,0,0,0,0,7.0,4.0,-1030.0
1777591687.9297311,response,right,x,1,1777591684.669996,3.259735107421875,2,1,1.5923616080827745,0.7961781332994604,3.8381791926211406,3.9037762362493225,120,253442.0,74,79.5,0,0,0,0,0,0,7.0,4.0,-1030.0
1777591687.979754,response,right,x,1,1777591684.669996,3.309757947921753,2,1,1.4839407264830642,0.7906412769494584,3.855862847226448,3.905698084930133,120,253441.0,74,79.5,0,0,0,0,0,0,1.0,-1.0,-998.0
1777591688.030656,response,right,x,1,1777591684.669996,3.3606600761413574,2,1,1.5948314243165305,0.8042127440426732,3.837010357809481,3.903826437194433,120,253441.0,74,79.5,0,0,0,0,0,0,1.0,-1.0,-998.0
1777591688.080736,response,right,x,1,1777591684.669996,3.4107398986816406,2,1,1.3605852750249703,0.9158542184171486,3.8538573689267466,3.904912794833527,120,253448.99999999997,74,79.5,0,0,0,0,0,0,12.0,-14.0,-998.0
1777591688.1313028,response,right,x,1,1777591684.669996,3.4613068103790283,2,1,1.7120307627588636,0.7244129005596198,3.8173766945510703,3.8967417627122956,120,253448.99999999997,74,79.5,0,0,0,0,0,0,12.0,-14.0,-998.0
1777591688.182624,response,right,x,1,1777591684.669996,3.5126280784606934,2,1,1.59260938947242,0.8059146804780489,3.837259394400423,3.903909870403359,120,253442.99999999997,74,79.5,0,0,0,0,0,0,-43.0,15.0,-1008.0
1777591688.233278,response,right,x,1,1777591684.669996,3.563282012939453,2,1,1.4757476035684112,0.790129559048875,3.8715225169884606,3.9201050310793235,120,253442.99999999997,74,79.5,0,0,0,0,0,0,-43.0,15.0,-1008.0
