timestamp,command_idx,sdk_cmd,t_send,t_since_send,base_x,base_y,base_z,pos_x,pos_y,pos_z,displacement_m,movement_detected,tello_height_cm,tello_battery,tello_pitch,tello_roll,tello_yaw,tello_vgx,tello_vgy,tello_vgz
1777595265.2847779,1,right,1777595265.284456,0.0003218650817871094,0.9823554509471862,1.3321449940691008,2.96464120906662,0.9749185344918281,1.343152050253107,2.9639842556527825,0.013300172930822989,False,130,88,0,0,0,0,0,0
1777595265.325878,1,right,1777595265.284456,0.04142189025878906,0.9823554509471862,1.3321449940691008,2.96464120906662,0.9749185344918281,1.343152050253107,2.9639842556527825,0.013300172930822989,False,130,88,0,0,0,0,0,0
1777595265.366079,1,right,1777595265.284456,0.08162307739257812,0.9823554509471862,1.3321449940691008,2.96464120906662,1.0115037173371288,1.4283306275247636,2.9128236348062613,0.11307678152049584,True,130,88,0,0,0,0,0,0
1777595265.405941,1,right,1777595265.284456,0.12148499488830566,0.9823554509471862,1.3321449940691008,2.96464120906662,0.9771480454594146,1.402811076692513,2.9329260172526492,0.07763160243773118,True,130,88,0,0,0,0,0,0
1777595265.446165,1,right,1777595265.284456,0.16170907020568848,0.9823554509471862,1.3321449940691008,2.96464120906662,0.9771480454594146,1.402811076692513,2.9329260172526492,0.07763160243773118,True,130,88,0,0,0,0,0,0
1777595265.4868789,1,right,1777595265.284456,0.2024228572845459,0.9823554509471862,1.3321449940691008,2.96464120906662,0.9708280556372538,1.3427451499372351,2.963683470968019,0.015689531838958947,False,130,88,0,0,0,0,0,0
1777595265.5270872,1,right,1777595265.284456,0.242631196975708,0.9823554509471862,1.3321449940691008,2.96464120906662,0.9781587385500529,1.3972768052590836,2.923397776743813,0.07720612626986141,True,130,88,0,0,0,0,0,0
1777595265.56736,1,right,1777595265.284456,0.28290390968322754,0.9823554509471862,1.3321449940691008,2.96464120906662,0.9816223085332222,1.4013460071831516,2.932860808240574,0.07615321129456283,True,130,88,0,0,0,0,0,0
1777595265.6076741,1,right,1777595265.284456,0.32321810722351074,0.9823554509471862,1.3321449940691008,2.96464120906662,0.9763204522273823,1.3361997048355339,2.954010028577858,0.012879591900836469,False,130,88,-1,2,0,0,0,0
1777595265.648514,1,right,1777595265.284456,0.3640580177307129,0.9823554509471862,1.3321449940691008,2.96464120906662,0.9757870268170448,1.4017647310137789,2.932998261754287,0.07675498734551821,True,130,88,0,2,0,0,0,0
1777595265.6886342,1,right,1777595265.284456,0.4041781425476074,0.9823554509471862,1.3321449940691008,2.96464120906662,1.0462972462047706,1.3950364267621755,2.923494060257582,0.0986761031965871,True,130,88,0,2,0,0,0,0
1777595265.7298229,1,right,1777595265.284456,0.44536685943603516,0.9823554509471862,1.3321449940691008,2.96464120906662,0.9814379256315041,1.3951063584482224,2.924460818082829,0.07469564295724183,True,130,88,0,2,0,0,0,0
1777595265.769962,1,right,1777595265.284456,0.4855060577392578,0.9823554509471862,1.3321449940691008,2.96464120906662,1.0158752783832021,1.4195678050034286,2.905235678397349,0.11088437120305623,True,130,88,0,1,0,0,1,0
1777595265.808459,1,right,1777595265.284456,0.5240030288696289,0.9823554509471862,1.3321449940691008,2.96464120906662,0.9824074740574907,1.3330767389795035,2.9558973601201393,0.008793506091482352,False,130,88,0,1,0,0,1,0
1777595265.84934,1,right,1777595265.284456,0.5648839473724365,0.9823554509471862,1.3321449940691008,2.96464120906662,1.0190342159323729,1.3601907709343695,2.9363917553982,0.054128818880326536,True,130,87,0,0,0,0,1,0
1777595265.890101,1,right,1777595265.284456,0.605644941329956,0.9823554509471862,1.3321449940691008,2.96464120906662,1.0204973193698244,1.4182412006020502,2.9060080914305866,0.11092881226198642,True,130,87,0,0,0,0,1,0
1777595271.31145,2,left,1777595271.31109,0.0003600120544433594,1.1373807536628688,1.3733445421687858,2.827394395007706,1.166047750501704,1.3336241059458585,2.8346641246355033,0.049521295725765205,True,130,85,0,0,0,0,0,0
1777595271.351823,2,left,1777595271.31109,0.04073309898376465,1.1373807536628688,1.3733445421687858,2.827394395007706,1.0971716033589405,1.3777192435364456,2.8053480231038797,0.046064696833279316,True,130,85,0,0,0,0,0,0
1777595271.392309,2,left,1777595271.31109,0.08121895790100098,1.1373807536628688,1.3733445421687858,2.827394395007706,1.1382272967437697,1.3001434235910863,2.8478462134288858,0.07600919202930098,True,130,85,0,0,0,0,0,0
1777595271.43203,2,left,1777595271.31109,0.12093997001647949,1.1373807536628688,1.3733445421687858,2.827394395007706,1.1297310412920605,1.3551885711167029,2.819928947743073,0.021068703972033708,False,130,85,0,0,0,0,0,0
1777595271.472169,2,left,1777595271.31109,0.16107892990112305,1.1373807536628688,1.3733445421687858,2.827394395007706,1.1245614408692348,1.3546800456880628,2.8205599353877777,0.023651808549799758,False,130,85,0,0,0,0,0,0
1777595271.5120451,2,left,1777595271.31109,0.20095515251159668,1.1373807536628688,1.3733445421687858,2.827394395007706,1.150501375262188,1.3814449372281623,2.7982874802430797,0.03293902849790375,True,130,85,0,0,0,0,0,0
1777595271.5506382,2,left,1777595271.31109,0.2395482063293457,1.1373807536628688,1.3733445421687858,2.827394395007706,1.1745843494784052,1.411756778306819,2.7847242626278277,0.06841306617924799,True,130,85,0,0,0,0,0,0
1777595271.590989,2,left,1777595271.31109,0.27989912033081055,1.1373807536628688,1.3733445421687858,2.827394395007706,1.107262482716111,1.265667010055867,2.86048603610308,0.11660453626311468,True,130,85,0,0,0,0,0,0
1777595271.6316102,2,left,1777595271.31109,0.32052016258239746,1.1373807536628688,1.3733445421687858,2.827394395007706,1.104350504844073,1.3245501772025676,2.831815133453725,0.05908832640967398,True,130,85,-1,-3,0,0,0,0
1777595271.6715012,2,left,1777595271.31109,0.3604111671447754,1.1373807536628688,1.3733445421687858,2.827394395007706,1.127171222497968,1.3561409967117015,2.8187462257016143,0.02179420416642632,False,130,85,-1,-3,0,0,0,0
1777595271.711126,2,left,1777595271.31109,0.400036096572876,1.1373807536628688,1.3733445421687858,2.827394395007706,1.133818639298955,1.2975738082605799,2.836833763887183,0.07643948234108192,True,130,85,-1,-4,0,0,0,0
1777595271.751033,2,left,1777595271.31109,0.4399430751800537,1.1373807536628688,1.3733445421687858,2.827394395007706,1.1499394802714427,1.3823194634163203,2.7962337060547267,0.034774406701663214,True,130,85,-1,-4,0,0,0,0
1777595271.791541,2,left,1777595271.31109,0.4804511070251465,1.1373807536628688,1.3733445421687858,2.827394395007706,1.0912998513053394,1.3265388045510376,2.8293601596844455,0.06571218202730732,True,130,85,-1,-4,0,0,0,0
1777595271.8330429,2,left,1777595271.31109,0.5219528675079346,1.1373807536628688,1.3733445421687858,2.827394395007706,1.117887703024822,1.3535552656341292,2.8066439700773023,0.034672389933993464,True,130,85,0,-3,0,0,-1,0
1777595277.354377,3,right,1777595277.354027,0.00034999847412109375,0.8785255442890509,1.2618635847932063,2.669872245360018,0.8649942756008153,1.254004936317866,2.6722036520290287,0.0158205260730641,False,120,82,0,0,0,0,0,0
1777595277.3944268,3,right,1777595277.354027,0.040399789810180664,0.8785255442890509,1.2618635847932063,2.669872245360018,0.9048990128883401,1.3248844113186489,2.6426028527552705,0.07355816878457123,True,120,82,0,0,0,0,0,0
1777595277.4330041,3,right,1777595277.354027,0.07897710800170898,0.8785255442890509,1.2618635847932063,2.669872245360018,0.8659065413688738,1.254737368244308,2.6719590479516473,0.014641616784278404,False,120,82,0,0,0,0,0,0
1777595277.4737148,3,right,1777595277.354027,0.11968779563903809,0.8785255442890509,1.2618635847932063,2.669872245360018,0.8659065413688738,1.254737368244308,2.6719590479516473,0.014641616784278404,False,120,82,0,0,0,0,0,0
1777595277.513643,3,right,1777595277.354027,0.15961599349975586,0.8785255442890509,1.2618635847932063,2.669872245360018,0.8605499671675421,1.258941497945247,2.679650519765338,0.02067062202121814,False,120,82,0,0,0,0,0,0
1777595277.554593,3,right,1777595277.354027,0.20056605339050293,0.8785255442890509,1.2618635847932063,2.669872245360018,0.8928461982808027,1.2782245090952111,2.667091272217043,0.021920191294542972,False,120,82,0,0,0,0,0,0
1777595277.594802,3,right,1777595277.354027,0.24077486991882324,0.8785255442890509,1.2618635847932063,2.669872245360018,0.8605499671675421,1.258941497945247,2.679650519765338,0.02067062202121814,False,120,82,0,0,0,0,0,0
1777595277.634679,3,right,1777595277.354027,0.2806520462036133,0.8785255442890509,1.2618635847932063,2.669872245360018,0.8398256009208616,1.285642085551387,2.659284491586154,0.046639074229489576,True,120,82,-1,2,0,0,0,0
1777595277.675144,3,right,1777595277.354027,0.32111692428588867,0.8785255442890509,1.2618635847932063,2.669872245360018,0.8712833467490291,1.3034515105628741,2.6474808131268195,0.047784738489250085,True,120,82,-1,2,0,0,0,0
1777595277.715743,3,right,1777595277.354027,0.36171603202819824,0.8785255442890509,1.2618635847932063,2.669872245360018,0.8659065413688738,1.254737368244308,2.6719590479516473,0.014641616784278404,False,120,82,-1,2,0,0,0,0
1777595277.756265,3,right,1777595277.354027,0.4022378921508789,0.8785255442890509,1.2618635847932063,2.669872245360018,0.8439295423948486,1.2806832837591202,2.65200122818119,0.04324855686883929,True,120,82,0,1,0,0,1,0
1777595277.7977128,3,right,1777595277.354027,0.44368577003479004,0.8785255442890509,1.2618635847932063,2.669872245360018,0.8672372874187678,1.253567490847471,2.6726714417269326,0.014285846780170508,False,120,82,0,1,0,0,1,0
1777595277.837568,3,right,1777595277.354027,0.48354101181030273,0.8785255442890509,1.2618635847932063,2.669872245360018,0.9089841493782015,1.3206255054442961,2.6354342052527198,0.07461011023322298,True,120,82,0,0,0,0,1,0
1777595277.8761861,3,right,1777595277.354027,0.5221590995788574,0.8785255442890509,1.2618635847932063,2.669872245360018,0.8680677113361681,1.2540830317444218,2.6731060964246267,0.013429857353055637,False,120,82,0,0,0,0,1,0
1777595277.916542,3,right,1777595277.354027,0.5625150203704834,0.8785255442890509,1.2618635847932063,2.669872245360018,0.8807562942495327,1.3023434101186937,2.649380410178046,0.0454258496111329,True,120,82,0,0,0,0,1,0
1777595283.3830001,4,left,1777595283.382693,0.0003070831298828125,1.0233933893822704,1.3501119175416147,2.500572989333721,1.0196356150618076,1.3544810442096893,2.498479372559924,0.006131342991607598,False,130,79,0,0,0,0,0,0
1777595283.423778,4,left,1777595283.382693,0.041085004806518555,1.0233933893822704,1.3501119175416147,2.500572989333721,1.0384904234094823,1.3755948329136394,2.490141342722791,0.0314025263839057,True,130,79,0,0,0,0,0,0
1777595283.463403,4,left,1777595283.382693,0.08070993423461914,1.0233933893822704,1.3501119175416147,2.500572989333721,1.0384904234094823,1.3755948329136394,2.490141342722791,0.0314025263839057,True,130,79,0,0,0,0,0,0
1777595283.503356,4,left,1777595283.382693,0.12066292762756348,1.0233933893822704,1.3501119175416147,2.500572989333721,1.0196233295508543,1.3955945119117854,2.4828284396067546,0.04896681311650502,True,130,79,0,0,0,0,0,0
1777595283.543114,4,left,1777595283.382693,0.16042089462280273,1.0233933893822704,1.3501119175416147,2.500572989333721,1.0196233295508543,1.3955945119117854,2.4828284396067546,0.04896681311650502,True,130,79,0,0,0,0,0,0
1777595283.58363,4,left,1777595283.382693,0.20093703269958496,1.0233933893822704,1.3501119175416147,2.500572989333721,1.0196233295508543,1.3955945119117854,2.4828284396067546,0.04896681311650502,True,130,79,0,0,0,0,0,0
1777595283.624156,4,left,1777595283.382693,0.24146294593811035,1.0233933893822704,1.3501119175416147,2.500572989333721,1.057859935260428,1.4268328413489058,2.452578092035284,0.09683776691613047,True,130,79,0,0,0,0,0,0
1777595283.6630971,4,left,1777595283.382693,0.28040409088134766,1.0233933893822704,1.3501119175416147,2.500572989333721,1.0626624231833897,1.393124399687355,2.4747879003065028,0.06369459515651742,True,130,79,0,0,0,0,0,0
1777595283.700682,4,left,1777595283.382693,0.31798887252807617,1.0233933893822704,1.3501119175416147,2.500572989333721,1.0211172595692468,1.3585579207471707,2.4984616105060486,0.008998536415881248,False,130,79,-1,-4,0,0,0,0
1777595283.740889,4,left,1777595283.382693,0.3581960201263428,1.0233933893822704,1.3501119175416147,2.500572989333721,1.0198271170706905,1.3589041496225995,2.4979562549928316,0.009842202079668478,False,130,79,-1,-4,0,0,0,0
1777595283.78196,4,left,1777595283.382693,0.39926695823669434,1.0233933893822704,1.3501119175416147,2.500572989333721,1.0185380412185203,1.359246102831765,2.4974574230771247,0.010803448514491677,False,130,79,-1,-4,0,0,0,0
1777595283.821148,4,left,1777595283.382693,0.43845486640930176,1.0233933893822704,1.3501119175416147,2.500572989333721,1.038842852318747,1.375341659885762,2.4820917159781724,0.03488242062443683,True,130,79,0,-4,0,0,0,0
1777595283.861724,4,left,1777595283.382693,0.4790308475494385,1.0233933893822704,1.3501119175416147,2.500572989333721,1.0137458909186892,1.3958695837382846,2.4736181957918766,0.053975912565274294,True,130,79,0,-4,0,0,0,0
1777595283.901052,4,left,1777595283.382693,0.5183589458465576,1.0233933893822704,1.3501119175416147,2.500572989333721,1.0090583512590117,1.3230130743267088,2.5174338531999294,0.03498755995916467,True,130,79,0,-3,0,0,-1,0
1777595283.940973,4,left,1777595283.382693,0.5582799911499023,1.0233933893822704,1.3501119175416147,2.500572989333721,1.0090974992863986,1.3187563679831462,2.509771374591768,0.03566725743735108,True,130,79,0,-3,0,0,-1,0
1777595289.414908,5,right,1777595289.414592,0.0003159046173095703,0.735324277777499,1.303329630470283,2.378174717899934,0.7153862090872576,1.2938659141027729,2.379875332010567,0.02213550539144628,False,120,78,0,0,0,0,0,0
1777595289.45603,5,right,1777595289.414592,0.04143786430358887,0.735324277777499,1.303329630470283,2.378174717899934,0.7501853376910319,1.2852347974137026,2.3916381461467613,0.02700996085255574,False,120,78,0,0,0,0,0,0
1777595289.496507,5,right,1777595289.414592,0.08191490173339844,0.735324277777499,1.303329630470283,2.378174717899934,0.7154875909433547,1.2951494056615775,2.379911637351282,0.021527357284565722,False,120,78,0,0,0,0,0,0
1777595289.535408,5,right,1777595289.414592,0.12081599235534668,0.735324277777499,1.303329630470283,2.378174717899934,0.750248052772855,1.2865531814744264,2.391657125915419,0.02619052551818308,False,120,78,0,0,0,0,0,0
1777595289.575077,5,right,1777595289.414592,0.16048502922058105,0.735324277777499,1.303329630470283,2.378174717899934,0.7155906402980639,1.2964391522226322,2.3799484779453133,0.0209771629003948,False,120,78,0,0,0,0,0,0
1777595289.6150248,5,right,1777595289.414592,0.20043277740478516,0.735324277777499,1.303329630470283,2.378174717899934,0.7244585468505726,1.2772516733040935,2.397829974721233,0.0344158841125604,True,120,78,0,1,0,0,0,0
1777595289.655444,5,right,1777595289.414592,0.24085187911987305,0.735324277777499,1.303329630470283,2.378174717899934,0.7396582567961858,1.310402705422844,2.380922836939535,0.008738645299746346,False,120,78,0,1,0,0,0,0
1777595289.696288,5,right,1777595289.414592,0.281696081161499,0.735324277777499,1.303329630470283,2.378174717899934,0.7245538497088013,1.2785903938890666,2.397864416899897,0.03340233815339171,True,120,78,0,1,0,0,0,0
1777595289.7368572,5,right,1777595289.414592,0.3222651481628418,0.735324277777499,1.303329630470283,2.378174717899934,0.7376429407962635,1.3156806277979936,2.3870882063289374,0.015406933801301015,False,120,78,0,2,0,0,0,0
1777595289.777271,5,right,1777595289.414592,0.36267900466918945,0.735324277777499,1.303329630470283,2.378174717899934,0.7287032510170859,1.3347640463026629,2.369455291501304,0.0332864670820772,True,120,78,0,2,0,0,0,0
1777595289.8173702,5,right,1777595289.414592,0.40277814865112305,0.735324277777499,1.303329630470283,2.378174717899934,0.7422525187218248,1.3128098224194216,2.3811539258743295,0.012114051433349822,False,120,78,0,1,0,0,1,0
1777595289.8560991,5,right,1777595289.414592,0.44150710105895996,0.735324277777499,1.303329630470283,2.378174717899934,0.7419951582918811,1.3178964968090567,2.387083808788871,0.018332106868448026,False,120,78,0,1,0,0,1,0
1777595289.897377,5,right,1777595289.414592,0.4827849864959717,0.735324277777499,1.303329630470283,2.378174717899934,0.7460140684764309,1.3137977971084278,2.3815078086613384,0.015328523476665875,False,120,78,0,1,0,0,1,0
1777595289.937234,5,right,1777595289.414592,0.5226418972015381,0.735324277777499,1.303329630470283,2.378174717899934,0.7472354516877527,1.3136840491140878,2.381628776372177,0.016156131012750288,False,120,78,0,0,0,0,1,0
1777595289.9771898,5,right,1777595289.414592,0.5625977516174316,0.735324277777499,1.303329630470283,2.378174717899934,0.7599844009902551,1.3494080381677498,2.3703402962476643,0.05284618714181592,True,120,78,0,0,0,0,1,0
1777595290.0175989,5,right,1777595289.414592,0.6030068397521973,0.735324277777499,1.303329630470283,2.378174717899934,0.7623373783907613,1.3462989254272815,2.363738025011681,0.05276822922359162,True,120,78,0,0,0,0,1,0
1777595290.058155,5,right,1777595289.414592,0.6435630321502686,0.735324277777499,1.303329630470283,2.378174717899934,0.7525397586572536,1.3155802938272352,2.3817236669953363,0.021425372208863112,False,120,78,0,0,0,0,1,0
1777595290.0988421,5,right,1777595289.414592,0.6842501163482666,0.735324277777499,1.303329630470283,2.378174717899934,0.7590098437774541,1.3115461171554794,2.376028070473746,0.025161971014978076,False,120,78,0,0,0,0,1,0
1777595290.138855,5,right,1777595289.414592,0.7242629528045654,0.735324277777499,1.303329630470283,2.378174717899934,0.7828126180532569,1.3254704836138576,2.3753014764778957,0.0524749021565626,True,120,78,0,0,0,0,1,0
1777595295.45067,6,left,1777595295.450381,0.00028896331787109375,0.9006173631041077,1.3381461441789726,2.324834692869034,0.8925447531954929,1.3304566418334018,2.326501836014507,0.011272747816158247,False,120,77,0,0,0,0,0,0
1777595295.4893801,6,left,1777595295.450381,0.038999080657958984,0.9006173631041077,1.3381461441789726,2.324834692869034,0.9195780592986683,1.3746248048817327,2.3033508471379025,0.04638702743492608,True,120,77,0,0,0,0,0,0
1777595295.526633,6,left,1777595295.450381,0.07625198364257812,0.9006173631041077,1.3381461441789726,2.324834692869034,0.8889870450911697,1.299465917300723,2.3459010505491906,0.045554535167678045,True,120,77,0,0,0,0,0,0
1777595295.562882,6,left,1777595295.450381,0.11250090599060059,0.9006173631041077,1.3381461441789726,2.324834692869034,0.8916696501966714,1.3320301524692546,2.3261787556122937,0.010921237362362309,False,120,77,0,0,0,0,0,0
1777595295.6003451,6,left,1777595295.450381,0.1499640941619873,0.9006173631041077,1.3381461441789726,2.324834692869034,0.9165422716057706,1.377059679672243,2.302715110038135,0.04750938749326659,True,120,77,0,0,0,0,0,0
1777595295.639454,6,left,1777595295.450381,0.189072847366333,0.9006173631041077,1.3381461441789726,2.324834692869034,0.9070050745498179,1.3175910172028003,2.341202963828728,0.027041383040262178,False,120,77,0,0,0,0,0,0
1777595295.679311,6,left,1777595295.450381,0.22892999649047852,0.9006173631041077,1.3381461441789726,2.324834692869034,0.8884560588358003,1.3025062617998593,2.3456192133277387,0.04301272867654049,True,120,77,0,0,0,0,0,0
1777595295.718129,6,left,1777595295.450381,0.2677478790283203,0.9006173631041077,1.3381461441789726,2.324834692869034,0.8888237767925045,1.3038918096419807,2.345670792350877,0.041792237966859845,True,120,77,0,-2,0,0,0,0
1777595295.758484,6,left,1777595295.450381,0.3081028461456299,0.9006173631041077,1.3381461441789726,2.324834692869034,0.9117274241245154,1.35241887938056,2.321800242816779,0.018339910390496626,False,120,77,0,-2,0,0,0,0
1777595295.7986681,6,left,1777595295.450381,0.34828710556030273,0.9006173631041077,1.3381461441789726,2.324834692869034,0.9135909514181207,1.3546578606374982,2.3212597686531047,0.021300959069907623,False,120,77,0,-4,0,0,0,0
1777595295.837339,6,left,1777595295.450381,0.38695788383483887,0.9006173631041077,1.3381461441789726,2.324834692869034,0.9126471068708178,1.3562200535079056,2.320973537667476,0.022051971635518596,False,120,77,0,-4,0,0,0,0
1777595295.87786,6,left,1777595295.450381,0.4274790287017822,0.9006173631041077,1.3381461441789726,2.324834692869034,0.8680425838753575,1.3303348492849119,2.3344194369227877,0.03484250117743785,True,120,77,0,-4,0,0,0,0
1777595295.918483,6,left,1777595295.450381,0.46810197830200195,0.9006173631041077,1.3381461441789726,2.324834692869034,0.8863433981204003,1.346678853596102,2.3298562219095746,0.017371498503533447,False,120,77,0,-3,0,0,-1,0
1777595295.958029,6,left,1777595295.450381,0.5076479911804199,0.9006173631041077,1.3381461441789726,2.324834692869034,0.9065362956549826,1.3879735532734725,2.299954381010137,0.056007449306395375,True,120,77,0,-3,0,0,-1,0
1777595295.998168,6,left,1777595295.450381,0.5477869510650635,0.9006173631041077,1.3381461441789726,2.324834692869034,0.8614276588067222,1.3337750665927568,2.3320699478285425,0.04009099844741108,True,120,77,0,-1,0,0,-1,0
1777595301.4660969,7,right,1777595301.465819,0.0002779960632324219,0.701682450970409,1.2958287617039645,2.2602474482002033,0.7087011815792701,1.3358598686209873,2.256791637392263,0.040788414147918804,True,120,77,0,0,0,0,0,0
1777595301.5057979,7,right,1777595301.465819,0.039978981018066406,0.701682450970409,1.2958287617039645,2.2602474482002033,0.686730455763399,1.279748255628585,2.2878928209851943,0.035304553144486765,True,120,77,0,0,0,0,0,0
1777595301.5462248,7,right,1777595301.465819,0.08040595054626465,0.701682450970409,1.2958287617039645,2.2602474482002033,0.7003102668674676,1.30862556461227,2.2724704553544277,0.017749449506353737,False,120,77,0,0,0,0,0,0
1777595301.586027,7,right,1777595301.465819,0.1202080249786377,0.701682450970409,1.2958287617039645,2.2602474482002033,0.7103486663254264,1.2885677261464914,2.2833698947798102,0.02573855982321474,False,120,77,0,0,0,0,0,0
1777595301.626231,7,right,1777595301.465819,0.16041207313537598,0.701682450970409,1.2958287617039645,2.2602474482002033,0.686730455763399,1.279748255628585,2.2878928209851943,0.035304553144486765,True,120,77,0,0,0,0,0,0
1777595301.66674,7,right,1777595301.465819,0.20092105865478516,0.701682450970409,1.2958287617039645,2.2602474482002033,0.7003102668674676,1.30862556461227,2.2724704553544277,0.017749449506353737,False,120,77,0,0,0,0,0,0
1777595301.7070332,7,right,1777595301.465819,0.24121427536010742,0.701682450970409,1.2958287617039645,2.2602474482002033,0.7003102668674676,1.30862556461227,2.2724704553544277,0.017749449506353737,False,120,77,0,0,0,0,0,0
1777595301.747464,7,right,1777595301.465819,0.2816450595855713,0.701682450970409,1.2958287617039645,2.2602474482002033,0.698340867338286,1.310734632116118,2.27879390183436,0.024027527886120635,False,120,77,0,0,0,0,0,0
1777595301.78691,7,right,1777595301.465819,0.3210911750793457,0.701682450970409,1.2958287617039645,2.2602474482002033,0.6866332108860869,1.278426556077911,2.2878519245623115,0.0359349899539879,True,120,77,0,0,0,0,0,0
1777595301.8274188,7,right,1777595301.465819,0.3615999221801758,0.701682450970409,1.2958287617039645,2.2602474482002033,0.7076347116794347,1.2892663745464055,2.288915305737538,0.030005672605939657,True,120,77,-1,2,0,0,0,0
1777595301.867271,7,right,1777595301.465819,0.40145206451416016,0.701682450970409,1.2958287617039645,2.2602474482002033,0.6889939354702372,1.2768706159364656,2.2880507440109867,0.035964329195492695,True,120,77,-1,2,0,0,0,0
1777595301.9082959,7,right,1777595301.465819,0.4424769878387451,0.701682450970409,1.2958287617039645,2.2602474482002033,0.7037376590050979,1.305767157817931,2.272691453400895,0.01605767302004865,False,120,77,-1,2,0,0,0,0
1777595301.9481359,7,right,1777595301.465819,0.4823169708251953,0.701682450970409,1.2958287617039645,2.2602474482002033,0.6901830792370487,1.2770535415961932,2.287488775449357,0.03502619520662711,True,120,77,-1,2,0,0,0,0
1777595301.987475,7,right,1777595301.465819,0.5216560363769531,0.701682450970409,1.2958287617039645,2.2602474482002033,0.69044622039139,1.2767100059095482,2.2874259822042915,0.035077805110394086,True,120,77,-1,2,0,0,0,0
1777595307.501866,8,left,1777595307.50151,0.0003561973571777344,0.8600280174856431,1.3287418972803853,2.264562607764234,0.8669633530852529,1.3400990515699411,2.242168257020022,0.026049775021883916,False,120,77,0,0,0,0,0,0
1777595307.54266,8,left,1777595307.50151,0.04115009307861328,0.8600280174856431,1.3287418972803853,2.264562607764234,0.8669633530852529,1.3400990515699411,2.242168257020022,0.026049775021883916,False,120,77,0,0,0,0,0,0
1777595307.583393,8,left,1777595307.50151,0.08188319206237793,0.8600280174856431,1.3287418972803853,2.264562607764234,0.8384783514375587,1.2994083151988463,2.2618544097940263,0.03649906136826239,True,120,77,0,0,0,0,0,0
1777595307.624175,8,left,1777595307.50151,0.1226651668548584,0.8600280174856431,1.3287418972803853,2.264562607764234,0.8669633530852529,1.3400990515699411,2.242168257020022,0.026049775021883916,False,120,77,0,0,0,0,0,0
1777595307.664489,8,left,1777595307.50151,0.1629791259765625,0.8600280174856431,1.3287418972803853,2.264562607764234,0.86147695646073,1.3095998756910294,2.254159476076401,0.02183441237119246,False,120,77,0,0,0,0,0,0
1777595307.704731,8,left,1777595307.50151,0.20322108268737793,0.8600280174856431,1.3287418972803853,2.264562607764234,0.869123051545308,1.265144148143106,2.286254873609366,0.06780816866256353,True,120,77,0,0,0,0,0,0
1777595307.744979,8,left,1777595307.50151,0.2434689998626709,0.8600280174856431,1.3287418972803853,2.264562607764234,0.8388367535345496,1.3007363042783155,2.2619306888578357,0.035218033794809554,True,120,77,0,-3,0,0,0,0
1777595307.784033,8,left,1777595307.50151,0.28252315521240234,0.8600280174856431,1.3287418972803853,2.264562607764234,0.8618095678778186,1.3109227173482205,2.254219803113943,0.020680200755524673,False,120,77,0,-3,0,0,0,0
1777595307.8245811,8,left,1777595307.50151,0.3230712413787842,0.8600280174856431,1.3287418972803853,2.264562607764234,0.8407875323619809,1.2982340859880503,2.2562438781439855,0.037015187155239125,True,120,77,0,-4,0,0,0,0
1777595307.8647199,8,left,1777595307.50151,0.36320996284484863,0.8600280174856431,1.3287418972803853,2.264562607764234,0.8573628107147273,1.3125810415702759,2.2529929898878476,0.020053245179279734,False,120,77,0,-4,0,0,0,0
1777595307.904765,8,left,1777595307.50151,0.40325498580932617,0.8600280174856431,1.3287418972803853,2.264562607764234,0.865532499416465,1.3406961012313465,2.2351896582238573,0.032186526344565786,True,120,77,0,-4,0,0,0,0
1777595307.9451442,8,left,1777595307.50151,0.4436342716217041,0.8600280174856431,1.3287418972803853,2.264562607764234,0.8643582617004759,1.340918621871146,2.234864548687504,0.03238824400371641,True,120,77,0,-3,0,0,-1,0
1777595307.985558,8,left,1777595307.50151,0.48404812812805176,0.8600280174856431,1.3287418972803853,2.264562607764234,0.8423013008197042,1.327622258378899,2.237911468240237,0.03202769602940165,True,120,77,0,-3,0,0,-1,0
1777595308.025394,8,left,1777595307.50151,0.5238840579986572,0.8600280174856431,1.3287418972803853,2.264562607764234,0.8625531239371433,1.2961756614437068,2.2599792876295357,0.03298397645249433,True,120,77,0,-3,0,0,-1,0
1777595308.064969,8,left,1777595307.50151,0.5634591579437256,0.8600280174856431,1.3287418972803853,2.264562607764234,0.825766075973654,1.3049364328403659,2.2580299292174497,0.042228623732861556,True,120,77,0,-1,0,0,-1,0
1777595308.104946,8,left,1777595307.50151,0.6034359931945801,0.8600280174856431,1.3287418972803853,2.264562607764234,0.8474509334245814,1.3115096649303806,2.243883403619371,0.029711317024131812,False,120,77,0,-1,0,0,-1,0
1777595313.520863,9,right,1777595313.520541,0.00032210350036621094,0.6503502783772611,1.299082267743324,2.23169755740971,0.6650031773633549,1.3097843661077961,2.2256561690049885,0.019124349190396205,False,120,77,0,0,0,0,0,0
1777595313.561516,9,right,1777595313.520541,0.040975093841552734,0.6503502783772611,1.299082267743324,2.23169755740971,0.64287020987786,1.3025032978286433,2.2289116599289502,0.008684244145214669,False,120,77,0,0,0,0,0,0
1777595313.601517,9,right,1777595313.520541,0.08097600936889648,0.6503502783772611,1.299082267743324,2.23169755740971,0.6650031773633549,1.3097843661077961,2.2256561690049885,0.019124349190396205,False,120,77,0,0,0,0,0,0
1777595313.641686,9,right,1777595313.520541,0.12114500999450684,0.6503502783772611,1.299082267743324,2.23169755740971,0.653084137950304,1.2812967263380957,2.2335455950304746,0.018089077209464604,False,120,77,0,0,0,0,0,0
1777595313.681858,9,right,1777595313.520541,0.1613171100616455,0.6503502783772611,1.299082267743324,2.23169755740971,0.6612175419853785,1.31238911899518,2.224382365593417,0.018673021712526605,False,120,77,0,0,0,0,0,0
1777595313.721746,9,right,1777595313.520541,0.20120501518249512,0.6503502783772611,1.299082267743324,2.23169755740971,0.6633674319485834,1.3122113131915774,2.225511245185623,0.01949586059694669,False,120,77,0,0,0,0,0,0
1777595313.762495,9,right,1777595313.520541,0.24195408821105957,0.6503502783772611,1.299082267743324,2.23169755740971,0.629318179221126,1.2769036002924332,2.2361929606796354,0.03089419258323414,True,120,77,0,0,0,0,0,0
1777595313.8027751,9,right,1777595313.520541,0.28223419189453125,0.6503502783772611,1.299082267743324,2.23169755740971,0.6639391037179665,1.313816027144491,2.2256643314715596,0.020931785768358187,False,120,77,0,1,0,0,0,0
1777595313.842245,9,right,1777595313.520541,0.3217041492462158,0.6503502783772611,1.299082267743324,2.23169755740971,0.663995546719284,1.3151392926797374,2.2256913471472775,0.02191109216015855,False,120,77,0,1,0,0,0,0
1777595313.882431,9,right,1777595313.520541,0.3618900775909424,0.6503502783772611,1.299082267743324,2.23169755740971,0.6436421713500915,1.3070733553575957,2.2227143105769915,0.013767893985808978,False,120,77,0,1,0,0,0,0
1777595313.922953,9,right,1777595313.520541,0.40241193771362305,0.6503502783772611,1.299082267743324,2.23169755740971,0.665363127198608,1.3177012031795075,2.225827836578718,0.024627302108496667,False,120,76,0,3,0,0,0,0
1777595313.963192,9,right,1777595313.520541,0.44265103340148926,0.6503502783772611,1.299082267743324,2.23169755740971,0.6970480561925356,1.3535969044487683,2.2070628350810857,0.07589069516231711,True,120,76,0,3,0,0,0,0
1777595314.002343,9,right,1777595313.520541,0.48180198669433594,0.6503502783772611,1.299082267743324,2.23169755740971,0.6410871927526863,1.3301053782071277,2.21418940521602,0.03680724835375472,True,120,76,0,2,0,0,1,0
1777595314.0425322,9,right,1777595313.520541,0.5219912528991699,0.6503502783772611,1.299082267743324,2.23169755740971,0.6638975749743918,1.3433894553970651,2.215956723311692,0.04893291306447816,True,120,76,0,2,0,0,1,0
1777595314.082381,9,right,1777595313.520541,0.5618400573730469,0.6503502783772611,1.299082267743324,2.23169755740971,0.6679654063800766,1.3444946775805846,2.2170793026694016,0.050855413413278296,True,120,76,0,2,0,0,1,0
1777595314.122303,9,right,1777595313.520541,0.601762056350708,0.6503502783772611,1.299082267743324,2.23169755740971,0.6788742138008745,1.3697783406609254,2.202822359858684,0.0815188729781764,True,120,76,0,1,0,0,1,0
1777595314.163381,9,right,1777595313.520541,0.6428401470184326,0.6503502783772611,1.299082267743324,2.23169755740971,0.6656394331960155,1.3639014379662928,2.2018088336286947,0.07299738962951943,True,120,76,0,1,0,0,1,0
1777595314.203203,9,right,1777595313.520541,0.6826620101928711,0.6503502783772611,1.299082267743324,2.23169755740971,0.6866488923739449,1.3756539790467595,2.2038767349072352,0.08918976687227696,True,120,76,0,1,0,0,1,0
1777595314.243347,9,right,1777595313.520541,0.7228059768676758,0.6503502783772611,1.299082267743324,2.23169755740971,0.6778560077998824,1.3537113154738876,2.218050470919807,0.06266690495533937,True,120,76,0,0,0,0,1,0
1777595314.28294,9,right,1777595313.520541,0.7623989582061768,0.6503502783772611,1.299082267743324,2.23169755740971,0.6806738843654788,1.3561202303951125,2.2185997354666895,0.06591208692832114,True,120,76,0,0,0,0,1,0
1777595319.5451362,10,left,1777595319.5447948,0.0003414154052734375,0.8332404078544645,1.2938270484428376,2.1965758131830535,0.8329008400066826,1.3183141973984878,2.1837377170735124,0.027650542164978646,False,120,76,0,0,0,0,0,0
1777595319.585897,10,left,1777595319.5447948,0.04110217094421387,0.8332404078544645,1.2938270484428376,2.1965758131830535,0.8532157009476928,1.3259721310784953,2.1765650254114193,0.04281063301394907,True,120,76,0,0,0,0,0,0
1777595319.626582,10,left,1777595319.5447948,0.081787109375,0.8332404078544645,1.2938270484428376,2.1965758131830535,0.8584644141369131,1.3534028495917854,2.165270874654,0.0718715921055308,True,120,76,0,0,0,0,0,0
1777595319.666543,10,left,1777595319.5447948,0.12174820899963379,0.8332404078544645,1.2938270484428376,2.1965758131830535,0.846818788764357,1.3026019215372946,2.1982585806987704,0.016254308120308005,False,120,76,0,0,0,0,0,0
1777595319.7071922,10,left,1777595319.5447948,0.1623973846435547,0.8332404078544645,1.2938270484428376,2.1965758131830535,0.8227022611063333,1.293959814202375,2.205302060508443,0.013682746654671295,False,120,76,0,0,0,0,0,0
1777595319.747422,10,left,1777595319.5447948,0.20262718200683594,0.8332404078544645,1.2938270484428376,2.1965758131830535,0.8223808719402983,1.292682459338471,2.2052261818224848,0.013930846423924012,False,120,76,0,-2,0,0,0,0
1777595319.787445,10,left,1777595319.5447948,0.24265027046203613,0.8332404078544645,1.2938270484428376,2.1965758131830535,0.8499162646446061,1.2590837699245987,2.2288486943040375,0.05026647449076172,True,120,76,0,-2,0,0,0,0
1777595319.827701,10,left,1777595319.5447948,0.28290629386901855,0.8332404078544645,1.2938270484428376,2.1965758131830535,0.8577871522535921,1.2866368726889443,2.2125782349675256,0.030171489703627905,True,120,76,0,-4,0,0,0,0
1777595319.867768,10,left,1777595319.5447948,0.32297325134277344,0.8332404078544645,1.2938270484428376,2.1965758131830535,0.8326779026112231,1.317962930649459,2.189055630765013,0.025286564923713575,False,120,76,0,-4,0,0,0,0
1777595319.908323,10,left,1777595319.5447948,0.3635282516479492,0.8332404078544645,1.2938270484428376,2.1965758131830535,0.827231559896372,1.2915889667356413,2.2052972767745143,0.010824933749854316,False,120,76,0,-4,0,0,0,0
1777595319.948305,10,left,1777595319.5447948,0.40351009368896484,0.8332404078544645,1.2938270484428376,2.1965758131830535,0.8218931010897216,1.2906768815309464,2.205122027153511,0.014550693990830619,False,120,76,0,-3,0,0,-1,0
1777595319.9893382,10,left,1777595319.5447948,0.44454336166381836,0.8332404078544645,1.2938270484428376,2.1965758131830535,0.8410092778904332,1.3034437573210167,2.2014453569253942,0.013287170035112487,False,120,76,0,-3,0,0,-1,0
1777595320.0295832,10,left,1777595319.5447948,0.4847884178161621,0.8332404078544645,1.2938270484428376,2.1965758131830535,0.8319546889940856,1.275534330592126,2.2179045454450454,0.028128125057625325,False,120,76,0,-2,0,0,-1,0
1777595320.069835,10,left,1777595319.5447948,0.5250401496887207,0.8332404078544645,1.2938270484428376,2.1965758131830535,0.8338925157010204,1.3034515044616253,2.2006057979875187,0.010454481136112805,False,120,76,0,-2,0,0,-1,0
1777595320.109026,10,left,1777595319.5447948,0.5642311573028564,0.8332404078544645,1.2938270484428376,2.1965758131830535,0.7916204711851856,1.2811789341910682,2.209086684488058,0.04526274210971954,True,120,76,0,-2,0,0,-1,0
1777595325.570227,11,right,1777595325.569876,0.0003509521484375,0.646056022802665,1.3300504042626722,2.158160094468294,0.624575087085647,1.2886172563204443,2.1446034827257368,0.04859956861557154,True,120,76,0,0,0,0,0,0
1777595325.610728,11,right,1777595325.569876,0.04085206985473633,0.646056022802665,1.3300504042626722,2.158160094468294,0.5939797798953581,1.2721820194837181,2.1323749240735714,0.08200951191508705,True,120,76,0,0,0,0,0,0
1777595325.650757,11,right,1777595325.569876,0.08088111877441406,0.646056022802665,1.3300504042626722,2.158160094468294,0.610221699729439,1.23988441233253,2.1307603307527536,0.1008203940804153,True,120,76,0,0,0,0,0,0
1777595325.6915069,11,right,1777595325.569876,0.12163090705871582,0.646056022802665,1.3300504042626722,2.158160094468294,0.5943669580337889,1.2754862178405293,2.1326222635919385,0.07938003944607723,True,120,76,0,0,0,0,0,0
1777595325.732188,11,right,1777595325.569876,0.16231203079223633,0.646056022802665,1.3300504042626722,2.158160094468294,0.6122075307520132,1.2379983363338471,2.1319129660843035,0.10152938181867233,True,120,76,0,0,0,0,0,0
1777595325.771866,11,right,1777595325.569876,0.20199012756347656,0.646056022802665,1.3300504042626722,2.158160094468294,0.6122075307520132,1.2379983363338471,2.1319129660843035,0.10152938181867233,True,120,76,0,0,0,0,0,0
1777595325.8110049,11,right,1777595325.569876,0.24112892150878906,0.646056022802665,1.3300504042626722,2.158160094468294,0.6624927453837925,1.2097562464741298,2.1476879809246894,0.12186269080130237,True,120,76,0,0,0,0,0,0
1777595325.85093,11,right,1777595325.569876,0.2810540199279785,0.646056022802665,1.3300504042626722,2.158160094468294,0.6182135862044127,1.2321922417599704,2.13535392032218,0.10426669086201866,True,120,76,0,0,0,0,0,0
1777595325.890199,11,right,1777595325.569876,0.32032299041748047,0.646056022802665,1.3300504042626722,2.158160094468294,0.6444606033370387,1.3158181180766095,2.1496128429782275,0.016678094656996507,False,120,76,0,0,0,0,0,0
1777595325.9298182,11,right,1777595325.569876,0.3599421977996826,0.646056022802665,1.3300504042626722,2.158160094468294,0.6100213235830614,1.2861638438525604,2.1636485227930407,0.05704956246943154,True,120,76,0,2,0,0,0,0
1777595325.969576,11,right,1777595325.569876,0.3996999263763428,0.646056022802665,1.3300504042626722,2.158160094468294,0.612958936540168,1.2844073879511275,2.1649315957915056,0.05678516784560348,True,120,76,0,2,0,0,0,0
1777595326.009496,11,right,1777595325.569876,0.4396200180053711,0.646056022802665,1.3300504042626722,2.158160094468294,0.6291432373717574,1.3041112641903512,2.1481871432923394,0.03253215415371983,True,120,76,0,2,0,0,0,0
1777595326.049558,11,right,1777595325.569876,0.47968196868896484,0.646056022802665,1.3300504042626722,2.158160094468294,0.6516727763793175,1.3102005484318262,2.145765021314588,0.024066627011942086,False,120,76,0,2,0,0,0,0
1777595326.090362,11,right,1777595325.569876,0.5204861164093018,0.646056022802665,1.3300504042626722,2.158160094468294,0.6476653133897433,1.2471256308158711,2.1348402559796034,0.08615638533814869,True,120,76,0,2,0,0,0,0
1777595331.609948,12,left,1777595331.60961,0.00033783912658691406,0.8423446787259998,1.329630002955642,2.1560134798090838,0.8298555108767485,1.3223601576408277,2.1558559465112093,0.014451808925115259,False,120,76,0,0,0,0,0,0
1777595331.650012,12,left,1777595331.60961,0.04040193557739258,0.8423446787259998,1.329630002955642,2.1560134798090838,0.8474051505665509,1.3346713158031673,2.1539993858884827,0.0074215756276302626,False,120,76,0,0,0,0,0,0
1777595331.690206,12,left,1777595331.60961,0.0805959701538086,0.8423446787259998,1.329630002955642,2.1560134798090838,0.8283365524158831,1.3234831367301285,2.1557214575907726,0.015300223661454447,False,120,76,0,0,0,0,0,0
1777595331.7299972,12,left,1777595331.60961,0.12038707733154297,0.8423446787259998,1.329630002955642,2.1560134798090838,0.8416640969414817,1.3076117978942907,2.164850385261642,0.02373510993584378,False,120,76,0,0,0,0,0,0
1777595331.7701309,12,left,1777595331.60961,0.1605207920074463,0.8423446787259998,1.329630002955642,2.1560134798090838,0.8416640969414817,1.3076117978942907,2.164850385261642,0.02373510993584378,False,120,76,0,0,0,0,0,0
1777595331.8102038,12,left,1777595331.60961,0.2005937099456787,0.8423446787259998,1.329630002955642,2.1560134798090838,0.8416640969414817,1.3076117978942907,2.164850385261642,0.02373510993584378,False,120,76,0,0,0,0,0,0
1777595331.850327,12,left,1777595331.60961,0.24071693420410156,0.8423446787259998,1.329630002955642,2.1560134798090838,0.8268008386994032,1.3244067303086369,2.1558918091384482,0.016398425036248804,False,120,76,0,-3,0,0,0,0
1777595331.8919911,12,left,1777595331.60961,0.2823810577392578,0.8423446787259998,1.329630002955642,2.1560134798090838,0.8476716658824887,1.3332480271054234,2.148314921676126,0.010036667187882946,False,120,76,0,-3,0,0,0,0
1777595331.931813,12,left,1777595331.60961,0.3222029209136963,0.8423446787259998,1.329630002955642,2.1560134798090838,0.8476716658824887,1.3332480271054234,2.148314921676126,0.010036667187882946,False,120,76,0,-4,0,0,0,0
1777595331.970273,12,left,1777595331.60961,0.36066293716430664,0.8423446787259998,1.329630002955642,2.1560134798090838,0.8465089091918592,1.333515993986433,2.1479073458961198,0.009907126156413043,False,120,76,0,-4,0,0,0,0
1777595332.01057,12,left,1777595331.60961,0.40095996856689453,0.8423446787259998,1.329630002955642,2.1560134798090838,0.8418799567322037,1.3089944095395674,2.1636637338139773,0.02201295228960558,False,120,76,0,-4,0,0,0,0
1777595332.049689,12,left,1777595331.60961,0.4400789737701416,0.8423446787259998,1.329630002955642,2.1560134798090838,0.8441821259380089,1.334043286834378,2.1471086403711377,0.01010690121980171,False,120,76,0,-3,0,0,-1,0
1777595332.0882251,12,left,1777595331.60961,0.47861504554748535,0.8423446787259998,1.329630002955642,2.1560134798090838,0.8430179354481426,1.334302581069045,2.1467175485663614,0.010425957918061226,False,120,76,0,-3,0,0,-1,0
1777595332.128721,12,left,1777595331.60961,0.519110918045044,0.8423446787259998,1.329630002955642,2.1560134798090838,0.8430461623297747,1.2978517237433582,2.1754021663482592,0.03723267751122177,True,120,76,0,-2,0,0,-1,0
1777595332.1696131,12,left,1777595331.60961,0.5600030422210693,0.8423446787259998,1.329630002955642,2.1560134798090838,0.807606392736272,1.340011857492125,2.1380197253992064,0.04047600048033147,True,120,76,0,-2,0,0,-1,0
1777595332.209541,12,left,1777595331.60961,0.599931001663208,0.8423446787259998,1.329630002955642,2.1560134798090838,0.8053321987600592,1.340515726182074,2.13724787998768,0.04290186919061573,True,120,76,0,-2,0,0,-1,0
1777595332.249779,12,left,1777595331.60961,0.6401689052581787,0.8423446787259998,1.329630002955642,2.1560134798090838,0.8251920051498165,1.312752234922356,2.1594584139583977,0.024309274688678426,False,120,76,0,-1,0,0,-1,0
1777595332.2897768,12,left,1777595331.60961,0.6801667213439941,0.8423446787259998,1.329630002955642,2.1560134798090838,0.8112878455598351,1.3258689041939193,2.1448813731848433,0.0332053692661274,True,120,76,0,-1,0,0,-1,0
1777595332.329887,12,left,1777595331.60961,0.7202768325805664,0.8423446787259998,1.329630002955642,2.1560134798090838,0.8056125972325963,1.3313107404293545,2.1481940794541474,0.037592734819435,True,120,76,0,0,0,0,-1,0
1777595332.370296,12,left,1777595331.60961,0.760685920715332,0.8423446787259998,1.329630002955642,2.1560134798090838,0.8039957911029061,1.3321726969289438,2.1474315092163683,0.0393795974309638,True,120,76,0,0,0,0,-1,0
1777595332.4105542,12,left,1777595331.60961,0.8009440898895264,0.8423446787259998,1.329630002955642,2.1560134798090838,0.7943991153760123,1.306129004868792,2.156911903548553,0.05340300666855235,True,120,76,0,0,0,0,-1,0
1777595332.450557,12,left,1777595331.60961,0.8409469127655029,0.8423446787259998,1.329630002955642,2.1560134798090838,0.790276399864386,1.3078142268615047,2.1560860549713796,0.0564538662746361,True,120,76,0,0,0,0,-1,0
1777595332.490019,12,left,1777595331.60961,0.8804090023040771,0.8423446787259998,1.329630002955642,2.1560134798090838,0.779038484557828,1.3212848229410858,2.141563732220572,0.06546840043032463,True,120,76,0,0,0,0,-1,0
1777595332.530176,12,left,1777595331.60961,0.9205658435821533,0.8423446787259998,1.329630002955642,2.1560134798090838,0.785137736892382,1.3106735882220448,2.1546276975042837,0.06028184010216821,True,120,76,0,0,0,0,-1,0
1777595332.569888,12,left,1777595331.60961,0.9602780342102051,0.8423446787259998,1.329630002955642,2.1560134798090838,0.744967740559459,1.330462814989638,2.1315149163742504,0.1004148458792067,True,120,76,0,0,0,0,-1,0
1777595332.609281,12,left,1777595331.60961,0.9996709823608398,0.8423446787259998,1.329630002955642,2.1560134798090838,0.7580457769021339,1.3415903128941076,2.1303177257795967,0.08893607613155553,True,120,76,0,0,0,0,-1,0
1777595332.648733,12,left,1777595331.60961,1.0391228199005127,0.8423446787259998,1.329630002955642,2.1560134798090838,0.7615033985717183,1.343023620385733,2.1305578018025235,0.08580613677133087,True,120,76,0,0,0,0,-1,0
1777595337.643542,13,right,1777595337.643143,0.0003991127014160156,0.6341115754442807,1.3069311190777952,2.0780578995016854,0.5694960835910441,1.290138361650677,2.0628212601080835,0.06847856357614679,True,120,75,0,0,0,0,0,0
1777595337.6833699,13,right,1777595337.643143,0.04022693634033203,0.6341115754442807,1.3069311190777952,2.0780578995016854,0.7055387353556568,1.271156266000835,2.094393814291258,0.08153858839651057,True,120,75,0,0,0,0,0,0
1777595337.723287,13,right,1777595337.643143,0.08014416694641113,0.6341115754442807,1.3069311190777952,2.0780578995016854,0.6516146220344301,1.2889582936341801,2.08440210504594,0.025877172147499995,False,120,75,0,0,0,0,0,0
1777595337.763236,13,right,1777595337.643143,0.12009310722351074,0.6341115754442807,1.3069311190777952,2.0780578995016854,0.672196747114566,1.2539078382679738,2.089407270868254,0.0662627862333646,True,120,75,0,0,0,0,0,0
1777595337.8029199,13,right,1777595337.643143,0.15977692604064941,0.6341115754442807,1.3069311190777952,2.0780578995016854,0.6720716375515432,1.2531771913916554,2.089536317609112,0.06679973906478143,True,120,75,0,0,0,0,0,0
1777595337.84178,13,right,1777595337.643143,0.1986370086669922,0.6341115754442807,1.3069311190777952,2.0780578995016854,0.6742659734960972,1.2520174480411097,2.09041809881947,0.06914232767852416,True,120,75,0,0,0,0,0,0
1777595337.880873,13,right,1777595337.643143,0.2377300262451172,0.6341115754442807,1.3069311190777952,2.0780578995016854,0.6546514490464601,1.2877316212498726,2.0917277264809795,0.03126293802702732,True,120,75,0,0,0,0,0,0
1777595337.921328,13,right,1777595337.643143,0.2781851291656494,0.6341115754442807,1.3069311190777952,2.0780578995016854,0.6752493987627745,1.2458781730717767,2.0911076813237797,0.07476683441875606,True,120,75,0,0,0,0,0,0
1777595337.9609358,13,right,1777595337.643143,0.3177928924560547,0.6341115754442807,1.3069311190777952,2.0780578995016854,0.684182367030793,1.3578520350181598,2.115019396547838,0.08041253704614952,True,120,75,0,0,0,0,0,0
1777595338.000919,13,right,1777595337.643143,0.3577761650085449,0.6341115754442807,1.3069311190777952,2.0780578995016854,0.6633062316341981,1.3634792875015713,2.104589243096902,0.06894878893134145,True,120,75,0,3,0,0,0,0
1777595338.041108,13,right,1777595337.643143,0.3979649543762207,0.6341115754442807,1.3069311190777952,2.0780578995016854,0.6864761769254907,1.356167734688757,2.1153668460832793,0.08098304328768943,True,120,75,0,2,0,0,1,0
1777595338.0812008,13,right,1777595337.643143,0.43805789947509766,0.6341115754442807,1.3069311190777952,2.0780578995016854,0.69012881071589,1.3906655766354867,2.093259735432914,0.10188466933565456,True,120,75,0,2,0,0,1,0
1777595338.120815,13,right,1777595337.643143,0.47767210006713867,0.6341115754442807,1.3069311190777952,2.0780578995016854,0.6810509142922767,1.3692540219485827,2.1067648554188128,0.08313564260746706,True,120,75,0,2,0,0,1,0
1777595338.1614568,13,right,1777595337.643143,0.5183138847351074,0.6341115754442807,1.3069311190777952,2.0780578995016854,0.6849971291420769,1.3676124292777048,2.1080967664845733,0.08469884599169332,True,120,75,0,0,0,0,1,0
1777595343.677898,14,left,1777595343.677566,0.000331878662109375,0.8682505253156088,1.326030352883937,2.111018810868393,0.8717641541783782,1.3560039558301975,2.1024763693643065,0.0313645622991315,True,120,75,0,0,0,0,0,0
1777595343.718016,14,left,1777595343.677566,0.04044985771179199,0.8682505253156088,1.326030352883937,2.111018810868393,0.8881189828393502,1.3634069360455126,2.094650617874806,0.04538372301918603,True,120,75,0,0,0,0,0,0
1777595343.7598898,14,left,1777595343.677566,0.08232378959655762,0.8682505253156088,1.326030352883937,2.111018810868393,0.8788348162434673,1.31885850722895,2.126514089432769,0.02008895821918387,False,120,75,0,0,0,0,0,0
1777595343.7997289,14,left,1777595343.677566,0.1221628189086914,0.8682505253156088,1.326030352883937,2.111018810868393,0.8788348162434673,1.31885850722895,2.126514089432769,0.02008895821918387,False,120,75,0,0,0,0,0,0
1777595343.840141,14,left,1777595343.677566,0.16257500648498535,0.8682505253156088,1.326030352883937,2.111018810868393,0.882742674988691,1.34258833396484,2.110615023157703,0.02200800272941321,False,120,75,0,-1,0,0,0,0
1777595343.880537,14,left,1777595343.677566,0.2029709815979004,0.8682505253156088,1.326030352883937,2.111018810868393,0.8896415231755149,1.3643874033019374,2.095196898432082,0.04668159186824956,True,120,75,0,-1,0,0,0,0
1777595343.9206688,14,left,1777595343.677566,0.2431027889251709,0.8682505253156088,1.326030352883937,2.111018810868393,0.8972099803866643,1.3312949114416064,2.123299438135046,0.03189325039694254,True,120,75,0,-4,0,0,0,0
1777595343.961498,14,left,1777595343.677566,0.2839319705963135,0.8682505253156088,1.326030352883937,2.111018810868393,0.8976433528185486,1.3326136427118809,2.123369121029987,0.032554695124726064,True,120,75,0,-4,0,0,0,0
1777595344.000118,14,left,1777595343.677566,0.322551965713501,0.8682505253156088,1.326030352883937,2.111018810868393,0.888800901141031,1.3443899741438923,2.1112924900005425,0.027558456771787438,False,120,75,0,-4,0,0,0,0
1777595344.04032,14,left,1777595343.677566,0.36275386810302734,0.8682505253156088,1.326030352883937,2.111018810868393,0.8702698846703696,1.336446033138826,2.119023047822783,0.013290297837060153,False,120,75,0,-3,0,0,0,0
1777595344.080945,14,left,1777595343.677566,0.403378963470459,0.8682505253156088,1.326030352883937,2.111018810868393,0.8785348726994542,1.3218380690481588,2.1261722179334304,0.018787463653991764,False,120,75,0,-3,0,0,0,0
1777595344.1209831,14,left,1777595343.677566,0.4434170722961426,0.8682505253156088,1.326030352883937,2.111018810868393,0.8881886483757844,1.3674650423406023,2.094385215398582,0.048898248841715286,True,120,75,0,-2,0,0,-1,0
1777595344.1614232,14,left,1777595343.677566,0.4838571548461914,0.8682505253156088,1.326030352883937,2.111018810868393,0.8816404035318796,1.3469101325319208,2.10848822452837,0.02493306848382752,False,120,75,0,-2,0,0,-1,0
1777595344.201052,14,left,1777595343.677566,0.5234858989715576,0.8682505253156088,1.326030352883937,2.111018810868393,0.8874293527913766,1.3368066786453041,2.12060353791858,0.023996324987109116,False,120,75,0,-2,0,0,-1,0
1777595349.716779,15,right,1777595349.7164412,0.00033783912658691406,0.6818524472024706,1.2977135674869236,2.065365113923233,0.6947261123162716,1.369204886164911,2.0700090607388266,0.07278946449731531,True,120,74,0,0,0,0,0,0
1777595349.756969,15,right,1777595349.7164412,0.0405278205871582,0.6818524472024706,1.2977135674869236,2.065365113923233,0.7017785195899489,1.3533716100940472,2.0793009993002,0.06073775571164419,True,120,74,0,0,0,0,0,0
1777595349.797677,15,right,1777595349.7164412,0.08123588562011719,0.6818524472024706,1.2977135674869236,2.065365113923233,0.6943130627808765,1.366615978892399,2.0698276819812476,0.07016212476653355,True,120,74,0,0,0,0,0,0
1777595349.837981,15,right,1777595349.7164412,0.12153983116149902,0.6818524472024706,1.2977135674869236,2.065365113923233,0.6927005989398995,1.366559533402048,2.068929742163281,0.06978650294573081,True,120,74,0,0,0,0,0,0
1777595349.8770518,15,right,1777595349.7164412,0.16061067581176758,0.6818524472024706,1.2977135674869236,2.065365113923233,0.6927005989398995,1.366559533402048,2.068929742163281,0.06978650294573081,True,120,74,0,0,0,0,0,0
1777595349.916461,15,right,1777595349.7164412,0.20001983642578125,0.6818524472024706,1.2977135674869236,2.065365113923233,0.6827174082062804,1.3412775360250895,2.077964264572051,0.04535753641242031,True,120,74,0,0,0,0,0,0
1777595349.957313,15,right,1777595349.7164412,0.24087190628051758,0.6818524472024706,1.2977135674869236,2.065365113923233,0.6901599988922535,1.3283726150398962,2.0918153286918435,0.04133529331260971,True,120,74,0,0,0,0,0,0
1777595349.9965491,15,right,1777595349.7164412,0.2801079750061035,0.6818524472024706,1.2977135674869236,2.065365113923233,0.689356452056224,1.3267561613599972,2.091653897179476,0.03988586808401157,True,120,74,0,2,0,0,0,0
1777595350.035695,15,right,1777595349.7164412,0.31925392150878906,0.6818524472024706,1.2977135674869236,2.065365113923233,0.6884779640411713,1.3254217853636416,2.0922298491204323,0.03915810016457932,True,120,74,0,2,0,0,0,0
1777595350.0754712,15,right,1777595349.7164412,0.35903000831604004,0.6818524472024706,1.2977135674869236,2.065365113923233,0.7025376212661775,1.3462232375752032,2.078776437677007,0.05441441098595233,True,120,74,0,2,0,0,0,0
1777595350.115156,15,right,1777595349.7164412,0.3987147808074951,0.6818524472024706,1.2977135674869236,2.065365113923233,0.6976871479007156,1.3571764595583578,2.065590967841784,0.061535553054267375,True,120,74,0,2,0,0,0,0
1777595350.154804,15,right,1777595349.7164412,0.43836283683776855,0.6818524472024706,1.2977135674869236,2.065365113923233,0.7077765956071258,1.3416818390203606,2.075739200238702,0.05208543019910119,True,120,74,0,2,0,0,0,0
1777595350.194158,15,right,1777595349.7164412,0.47771692276000977,0.6818524472024706,1.2977135674869236,2.065365113923233,0.7064874795986942,1.3537147341275504,2.062653844834898,0.06124023568164641,True,120,74,0,1,0,0,1,0
1777595350.2342532,15,right,1777595349.7164412,0.5178120136260986,0.6818524472024706,1.2977135674869236,2.065365113923233,0.7225983852765693,1.3614762203753679,2.063255935315028,0.07569911497046597,True,120,74,0,0,0,0,1,0
1777595355.747094,16,left,1777595355.746751,0.0003428459167480469,0.7630511586406779,1.2354665559603895,2.0534831478317344,0.8098805893047887,1.2270049835191943,2.0634730949058406,0.04862502264313922,True,120,74,0,0,0,0,0,0
1777595355.787881,16,left,1777595355.746751,0.04112982749938965,0.7630511586406779,1.2354665559603895,2.0534831478317344,0.7641991340561862,1.2262121550007958,2.0590552403332647,0.01086324074671779,False,120,74,0,0,0,0,0,0
1777595355.828246,16,left,1777595355.746751,0.08149504661560059,0.7630511586406779,1.2354665559603895,2.0534831478317344,0.8148774088671282,1.2297318971721247,2.0699547962605336,0.05468237125358074,True,120,74,0,0,0,0,0,0
1777595355.867757,16,left,1777595355.746751,0.12100601196289062,0.7630511586406779,1.2354665559603895,2.0534831478317344,0.7220921737578376,1.2195187469795283,2.053491732925221,0.043954193515825066,True,120,74,0,0,0,0,0,0
1777595355.908093,16,left,1777595355.746751,0.16134190559387207,0.7630511586406779,1.2354665559603895,2.0534831478317344,0.7640755686439559,1.224608848871388,2.064290042947734,0.015353442647614431,False,120,74,0,0,0,0,0,0
1777595355.948277,16,left,1777595355.746751,0.20152592658996582,0.7630511586406779,1.2354665559603895,2.0534831478317344,0.8167673630956818,1.1759322114524378,2.060819996559207,0.08052079325424631,True,120,74,0,0,0,0,0,0
1777595355.988239,16,left,1777595355.746751,0.24148797988891602,0.7630511586406779,1.2354665559603895,2.0534831478317344,0.7670474437880693,1.226038285329038,2.065646937669382,0.015900325949228925,False,120,74,0,0,0,0,0,0
1777595356.027746,16,left,1777595355.746751,0.28099489212036133,0.7630511586406779,1.2354665559603895,2.0534831478317344,0.8143942847529587,1.1775069425208915,2.0653615129434115,0.07833600032401399,True,120,74,0,-2,0,0,0,0
1777595356.06755,16,left,1777595355.746751,0.3207988739013672,0.7630511586406779,1.2354665559603895,2.0534831478317344,0.8154571497953943,1.1769570540895646,2.0704302046767795,0.08035516445001817,True,120,74,0,-2,0,0,0,0
1777595356.1070879,16,left,1777595355.746751,0.3603367805480957,0.7630511586406779,1.2354665559603895,2.0534831478317344,0.8215918366530941,1.2301567311277042,2.076704816003918,0.06320167003019941,True,120,74,0,-4,0,0,0,0
1777595356.14658,16,left,1777595355.746751,0.3998289108276367,0.7630511586406779,1.2354665559603895,2.0534831478317344,0.7218967989764031,1.2116590311664557,2.0583521177517516,0.04779316294484271,True,120,74,0,-4,0,0,0,0
1777595356.185917,16,left,1777595355.746751,0.4391658306121826,0.7630511586406779,1.2354665559603895,2.0534831478317344,0.7218967989764031,1.2116590311664557,2.0583521177517516,0.04779316294484271,True,120,74,0,-4,0,0,0,0
1777595356.225174,16,left,1777595355.746751,0.4784228801727295,0.7630511586406779,1.2354665559603895,2.0534831478317344,0.715812418556324,1.2061407624555565,2.0601639186563174,0.05600119131104123,True,120,74,0,-3,0,0,-1,0
1777595356.2651541,16,left,1777595355.746751,0.5184030532836914,0.7630511586406779,1.2354665559603895,2.0534831478317344,0.7517799611580321,1.2045874908203786,2.0687929407418353,0.03626218851040305,True,120,74,0,-3,0,0,-1,0
1777595361.817554,17,right,1777595361.817306,0.000247955322265625,1.2572492545655398,1.2928477891750296,3.196601779134699,1.3881132740106281,1.275157815563421,3.3520365302036432,0.2039565850654707,True,120,74,0,0,0,-2,2,0
1777595361.8569212,17,right,1777595361.817306,0.03961515426635742,1.2572492545655398,1.2928477891750296,3.196601779134699,1.4420293658515755,1.3526721582920778,3.347260269445703,0.24580607268723753,True,120,74,0,0,0,-2,2,0
1777595361.8966012,17,right,1777595361.817306,0.07929515838623047,1.2572492545655398,1.2928477891750296,3.196601779134699,1.4579957876683451,1.2979692088225145,3.3812547417269503,0.2728041716801574,True,120,74,0,0,0,-2,2,0
1777595361.936789,17,right,1777595361.817306,0.11948299407958984,1.2572492545655398,1.2928477891750296,3.196601779134699,1.4692232459971075,1.2389704186523494,3.414112862419721,0.30845877431140173,True,120,73,0,0,0,-2,2,0
1777595361.975165,17,right,1777595361.817306,0.15785884857177734,1.2572492545655398,1.2928477891750296,3.196601779134699,1.4486667365928017,1.3616625033370884,3.373931948613407,0.2698557138883859,True,120,73,0,0,0,-2,2,0
1777595362.015258,17,right,1777595361.817306,0.1979520320892334,1.2572492545655398,1.2928477891750296,3.196601779134699,1.451892997504321,1.3613973697355797,3.3740157446849666,0.27214140962469735,True,120,73,0,0,0,-2,2,0
1777595362.056083,17,right,1777595361.817306,0.23877692222595215,1.2572492545655398,1.2928477891750296,3.196601779134699,1.4675259172402075,1.3125479915732563,3.4205765775575867,0.30784587567271443,True,120,73,0,0,0,-2,2,0
1777595362.096406,17,right,1777595361.817306,0.2790999412536621,1.2572492545655398,1.2928477891750296,3.196601779134699,1.5201719116132788,1.3872426926194903,3.4000641057180863,0.3455946176144198,True,120,73,0,0,0,-2,2,0
1777595362.136873,17,right,1777595361.817306,0.3195669651031494,1.2572492545655398,1.2928477891750296,3.196601779134699,1.4870068412286432,1.2462658642988258,3.4581415413270093,0.35122851758084245,True,120,73,0,0,0,-2,2,0
1777595362.1753511,17,right,1777595361.817306,0.3580451011657715,1.2572492545655398,1.2928477891750296,3.196601779134699,1.4870068412286432,1.2462658642988258,3.4581415413270093,0.35122851758084245,True,120,73,0,0,0,-2,2,0
1777595362.215877,17,right,1777595361.817306,0.3985710144042969,1.2572492545655398,1.2928477891750296,3.196601779134699,1.5422076910467788,1.3367507782690669,3.448504402832364,0.38286252728491343,True,120,73,0,0,0,-2,2,0
1777595362.256377,17,right,1777595361.817306,0.4390709400177002,1.2572492545655398,1.2928477891750296,3.196601779134699,1.4912596322625102,1.2563691344793124,3.4855956430570263,0.37364288097466125,True,120,73,0,0,0,-2,2,0
1777595362.296598,17,right,1777595361.817306,0.4792919158935547,1.2572492545655398,1.2928477891750296,3.196601779134699,1.5461044729733775,1.344884590871918,3.4774098861335925,0.4061999001582632,True,120,73,0,0,0,-2,2,0
