timestamp,elapsed,phase,mission_state,target_x,target_y,target_z,pos_x,pos_y,pos_z,marker_id,err_x_cm,err_y_cm,err_z_cm,err_3d_cm,cmd_lr,cmd_fb,cmd_ud,publish_count,tello_height_cm,tello_baro_cm,tello_battery,tello_temp_c,tello_pitch,tello_roll,tello_yaw,tello_vgx,tello_vgy,tello_vgz
1778194179.0657349,1.1920928955078125e-05,wait_slave,2,-0.10372522452088437,1.4210406825087094,3.929304944772345,-0.09715123271178827,1.5145757525239376,3.9211067750318214,2,-0.6573991809096097,-9.353507001522821,0.8198169740523564,9.412351819898225,-3,-4,-30,1,130,251876.00000000003,83,63.0,-1,0,0,0,0,0
1778194179.138693,0.07297015190124512,wait_slave,2,-0.10372522452088437,1.4210406825087094,3.929304944772345,-0.10383958863615184,1.4409746754360762,3.9383568467789054,2,0.011436411526746793,-1.993399292736675,-0.9051902006560475,2.1893242864307294,2,6,24,4,130,251876.00000000003,83,63.0,-1,0,0,0,0,0
1778194179.208481,0.14275813102722168,wait_slave,2,-0.10372522452088437,1.4210406825087094,3.929304944772345,-0.10160788280523136,1.437182273411394,3.941337560705063,2,-0.2117341715653004,-1.6141590902684522,-1.2032615932718205,2.0243960556046736,0,1,0,8,130,251882.00000000003,83,63.0,0,0,0,0,0,0
1778194179.278055,0.21233201026916504,wait_slave,2,-0.10372522452088437,1.4210406825087094,3.929304944772345,-0.18303991907642336,1.3738679119779862,3.9288231421484103,2,7.931469455553899,4.717277053072322,0.04818026239346018,9.2283927017391,30,-4,26,11,130,251875.0,83,63.0,0,0,0,0,0,0
1778194179.348811,0.28308796882629395,wait_slave,2,-0.10372522452088437,1.4210406825087094,3.929304944772345,-0.09700885668135206,1.5156667723686224,3.9212504726622237,2,-0.6716367839532306,-9.462608985991295,0.8054472110121225,9.52054672805346,-30,-3,-30,15,130,251875.0,83,63.0,0,0,0,0,0,0
1778194179.4205408,0.35481786727905273,wait_slave,2,-0.10372522452088437,1.4210406825087094,3.929304944772345,-0.10142491838793499,1.4383081386385337,3.9415199807718766,2,-0.23003061329493757,-1.7267456129824277,-1.2215035999531665,2.1275891378989154,1,7,25,18,130,251875.0,83,63.0,0,0,0,0,0,0
1778194179.49153,0.42580699920654297,wait_slave,2,-0.10372522452088437,1.4210406825087094,3.929304944772345,-0.10142491838793499,1.4383081386385337,3.9415199807718766,2,-0.23003061329493757,-1.7267456129824277,-1.2215035999531665,2.1275891378989154,0,0,-1,22,130,251875.0,83,63.0,0,0,0,0,0,0
1778194179.5619042,0.4961812496185303,wait_slave,2,-0.10372522452088437,1.4210406825087094,3.929304944772345,-0.10142491838793499,1.4383081386385337,3.9415199807718766,2,-0.23003061329493757,-1.7267456129824277,-1.2215035999531665,2.1275891378989154,0,0,-1,26,130,251875.0,83,63.0,0,0,0,0,0,0
1778194179.633994,0.5682711601257324,wait_slave,2,-0.10372522452088437,1.4210406825087094,3.929304944772345,-0.10142491838793499,1.4383081386385337,3.9415199807718766,2,-0.23003061329493757,-1.7267456129824277,-1.2215035999531665,2.1275891378989154,0,0,-1,29,130,251873.0,83,63.0,0,0,0,0,0,0
1778194179.7075388,0.6418159008026123,wait_slave,2,-0.10372522452088437,1.4210406825087094,3.929304944772345,-0.09234901544937535,1.5131172362139242,3.924186426977552,2,-1.137620907150902,-9.207655370521483,0.5118517794792776,9.291775449010595,-3,-6,-30,33,130,251880.00000000003,83,63.0,0,-1,0,0,0,0
1778194179.778335,0.7126121520996094,wait_slave,2,-0.10372522452088437,1.4210406825087094,3.929304944772345,-0.02604885124931866,1.5297123876285306,3.9557253615362056,2,-7.767637327156571,-10.867170511982117,-2.6420416763860644,13.616606361443024,-28,12,-13,36,130,251880.00000000003,83,63.0,0,-1,0,0,0,0
1778194179.84765,0.7819271087646484,wait_slave,2,-0.10372522452088437,1.4210406825087094,3.929304944772345,-0.01992247176518669,1.5239149930982472,3.960479401891962,2,-8.380275275569767,-10.287431058953779,-3.117445711961686,13.630066736963581,-7,3,-5,40,130,251876.00000000003,83,63.0,0,-1,0,0,0,0
1778194179.918498,0.8527750968933105,wait_slave,2,-0.10372522452088437,1.4210406825087094,3.929304944772345,-0.10316496541594544,1.4437454641021183,3.960172208934714,2,-0.056025910493892606,-2.270478159340894,-3.086726416236907,3.8322434608705933,29,1,26,43,130,251878.00000000003,83,63.0,0,0,0,0,0,0
1778194179.990113,0.9243900775909424,wait_slave,2,-0.10372522452088437,1.4210406825087094,3.929304944772345,-0.18180136349127052,1.4502715494729794,3.9337115001543563,2,7.807613897038615,-2.923086696427002,-0.4406555382011401,8.348499739678164,30,-8,-4,47,130,251882.00000000003,83,63.0,-1,-1,0,0,0,0
1778194180.0612962,0.9955732822418213,wait_slave,2,-0.10372522452088437,1.4210406825087094,3.929304944772345,-0.10522409069573779,1.4465007400814822,3.9583264222713357,2,0.1498866174853425,-2.546005757277281,-2.9021477498990755,3.8635570238362638,-26,10,0,50,130,251882.00000000003,83,63.0,-1,-1,0,0,0,0
1778194180.1333811,1.0676581859588623,wait_slave,2,-0.10372522452088437,1.4210406825087094,3.929304944772345,-0.12086430870682685,1.3787297159974465,3.9904734793659475,2,1.7139084185942481,4.231096651126287,-6.116853459360261,7.632532815637802,6,15,26,54,130,251866.0,83,63.0,-1,-1,0,0,0,0
1778194180.205345,1.1396219730377197,wait_slave,2,-0.10372522452088437,1.4210406825087094,3.929304944772345,-0.20884651052550862,1.301619986431502,3.9790460498366267,2,10.512128600462425,11.94206960772075,-4.974110506428175,16.66912263913332,30,0,30,58,130,251866.0,83,63.0,-1,-1,0,0,0,0
1778194180.278406,1.2126829624176025,wait_slave,2,-0.10372522452088437,1.4210406825087094,3.929304944772345,-0.1067335980413473,1.5149195498667418,3.940909628733614,2,0.30083735204629314,-9.387886735803242,-1.1604683961269124,9.4641221132795,-30,-12,-30,61,130,251866.0,83,63.0,-1,0,0,0,0,0
1778194180.350666,1.2849431037902832,wait_slave,2,-0.10372522452088437,1.4210406825087094,3.929304944772345,-0.10748397441441693,1.4458738037609606,3.9578662005736094,2,0.3758749893532559,-2.4833121252251233,-2.856125580126445,3.803363570362956,0,7,21,65,130,251866.0,83,63.0,-1,0,0,0,0,0
1778194180.4222982,1.3565752506256104,wait_slave,2,-0.10372522452088437,1.4210406825087094,3.929304944772345,-0.10765604818502816,1.5161906895586346,3.9409140705836663,2,0.39308236641437955,-9.515000704992516,-1.1609125811321341,9.593616116138111,0,-5,-30,69,130,251873.0,83,63.0,-1,0,0,0,0,0
1778194180.493921,1.4281980991363525,wait_slave,2,-0.10372522452088437,1.4210406825087094,3.929304944772345,-0.1846307727657457,1.4521409257524414,3.933400203737969,2,8.090554824486132,-3.110024324373195,-0.40952589656240157,8.67738671064993,30,-2,19,72,130,251873.0,83,63.0,-1,0,0,0,0,0
1778194180.565121,1.4993979930877686,wait_slave,2,-0.10372522452088437,1.4210406825087094,3.929304944772345,-0.10177447978409404,1.5233129724248369,3.9399388936647295,2,-0.19507447367903274,-10.227228991612748,-1.063394889238456,10.28421487463306,-29,3,-30,76,130,251877.0,82,63.0,-1,0,0,0,0,0
1778194180.6358202,1.5700972080230713,wait_slave,2,-0.10372522452088437,1.4210406825087094,3.929304944772345,-0.03738190066212188,1.5325995177862706,3.976645546735051,2,-6.634332385876249,-11.155883527756117,-4.734060196270606,13.815912182446022,-26,15,-11,79,130,251871.0,82,63.0,0,-1,0,0,0,0
1778194180.707036,1.641313076019287,wait_slave,2,-0.10372522452088437,1.4210406825087094,3.929304944772345,-0.18669595742417244,1.4526469611098953,3.9330822584122584,2,8.297073290328807,-3.160627860118592,-0.37773136399135154,8.886713376642025,30,-14,25,83,130,251875.0,82,63.5,0,0,0,0,0,0
1778194180.7763689,1.7106459140777588,wait_slave,2,-0.10372522452088437,1.4210406825087094,3.929304944772345,-0.2010083679823209,1.3854677619986533,3.966111471958249,2,9.728314346143655,3.5572920510056116,-3.680652718590416,10.992799060676003,11,14,25,86,130,251875.0,82,63.5,0,0,0,0,0,0
1778194180.847886,1.782163143157959,wait_slave,2,-0.10372522452088437,1.4210406825087094,3.929304944772345,-0.18774486369685284,1.4528908542293766,3.932931594360764,2,8.401963917596847,-3.1850171720667175,-0.3626649588419184,8.992711378184616,0,-11,-26,90,130,251875.0,82,63.5,0,0,0,0,0,0
1778194180.920288,1.854565143585205,wait_slave,2,-0.10372522452088437,1.4210406825087094,3.929304944772345,-0.12055802386326864,1.451284539011131,3.97755293731497,2,1.6832799342384268,-3.0243856502421673,-4.824799254262491,5.937931267902345,-22,18,-2,93,130,251869.0,82,63.5,0,-1,0,0,0,0
1778194180.9915771,1.925854206085205,wait_slave,2,-0.10372522452088437,1.4210406825087094,3.929304944772345,-0.1215120566935779,1.45137266335857,3.976534512794867,2,1.7786832172693527,-3.033198084986055,-4.7229568022522095,5.888151285938494,1,2,-2,97,130,251869.0,82,63.5,0,-1,0,0,0,0
1778194181.0626829,1.996959924697876,wait_slave,2,-0.10372522452088437,1.4210406825087094,3.929304944772345,-0.12041088608973194,1.5301847049487662,3.9549531996441787,2,1.668566156884757,-10.914402244005682,-2.5648254871833753,11.335193829113065,0,-5,-30,101,130,251869.0,82,63.5,0,-1,0,0,0,0
1778194181.134052,2.068329095840454,wait_slave,2,-0.10372522452088437,1.4210406825087094,3.929304944772345,-0.12041088608973194,1.5301847049487662,3.9549531996441787,2,1.668566156884757,-10.914402244005682,-2.5648254871833753,11.335193829113065,1,1,-8,104,130,251869.0,82,63.5,0,-1,0,0,0,0
1778194181.207144,2.14142107963562,wait_slave,2,-0.10372522452088437,1.4210406825087094,3.929304944772345,-0.12041088608973194,1.5301847049487662,3.9549531996441787,2,1.668566156884757,-10.914402244005682,-2.5648254871833753,11.335193829113065,1,1,-8,108,130,251869.0,82,63.5,0,-1,0,0,0,0
1778194181.282958,2.2172350883483887,wait_slave,2,-0.10372522452088437,1.4210406825087094,3.929304944772345,-0.296595106901157,1.325548883091447,3.9657935938267985,2,19.286988238027263,9.549179941726237,-3.6488649054453592,21.828627257605078,30,6,30,112,130,251869.99999999997,82,63.5,-1,-1,0,0,-1,0
1778194181.3579788,2.2922558784484863,wait_slave,2,-0.10372522452088437,1.4210406825087094,3.929304944772345,-0.12157855082082736,1.529205429452292,3.954800233916829,2,1.7853326299942989,-10.81647469435827,-2.549528914448418,11.255382494567819,-30,-1,-30,115,130,251862.0,82,63.5,-2,-1,0,0,-1,0
1778194181.430562,2.3648390769958496,wait_slave,2,-0.10372522452088437,1.4210406825087094,3.929304944772345,-0.26495723091936796,1.452526556895465,3.9084050864780338,2,16.12320063984836,-3.1485874386755652,2.089985829431118,16.560170364432093,30,-16,23,119,130,251862.0,82,63.5,-2,-1,0,0,-1,0
1778194181.501961,2.4362380504608154,wait_slave,2,-0.10372522452088437,1.4210406825087094,3.929304944772345,-0.21668856315283036,1.3762761615584536,3.965180942714611,2,11.296333863194599,4.476452095025585,-3.5875997942266036,12.669516738666506,-9,22,28,123,130,251862.0,82,63.5,-2,-1,0,0,-1,0
1778194181.5739431,2.5082201957702637,wait_slave,2,-0.10372522452088437,1.4210406825087094,3.929304944772345,-0.21668856315283036,1.3762761615584536,3.965180942714611,2,11.296333863194599,4.476452095025585,-3.5875997942266036,12.669516738666506,7,2,2,126,130,251862.0,82,63.5,-2,-1,0,0,-1,0
1778194181.646225,2.5805020332336426,wait_slave,2,-0.10372522452088437,1.4210406825087094,3.929304944772345,-0.2071922673365174,1.451382882847323,3.9517836254391483,2,10.346704281563305,-3.0342200338613567,-2.2478680666803363,11.014249477345574,3,-2,-28,130,130,251862.0,82,63.5,0,0,0,0,-1,0
1778194181.7200692,2.654346227645874,wait_slave,2,-0.10372522452088437,1.4210406825087094,3.929304944772345,-0.12484593016812906,1.521353256100583,3.9365348388002377,2,2.112070564724469,-10.03125735918735,-0.7229894027892758,10.276657041721862,-26,-4,-30,133,130,251867.0,82,63.5,0,-1,0,0,-1,0
1778194181.791421,2.7256979942321777,wait_slave,2,-0.10372522452088437,1.4210406825087094,3.929304944772345,-0.057511873199242114,1.51603169360369,3.9591686535043435,2,-4.6213351321642255,-9.499101109498053,-2.9863708731998617,10.977616830830769,-25,10,-5,137,130,251867.0,82,63.5,0,-1,0,0,-1,0
1778194181.862817,2.7970941066741943,wait_slave,2,-0.10372522452088437,1.4210406825087094,3.929304944772345,-0.37752572198678025,1.318529564258549,3.898278702022093,2,27.380049746589584,10.251111825016036,3.102624275025212,29.400317943292375,30,-22,30,141,130,251867.0,82,63.5,0,-1,0,0,-1,0
1778194181.93504,2.869317054748535,wait_slave,2,-0.10372522452088437,1.4210406825087094,3.929304944772345,-0.27260803419475343,1.5131747135326,3.8750920364235877,2,16.88828096738691,-9.213403102389051,5.421290834875725,19.987276579785014,-25,-10,-30,144,130,251867.0,82,63.5,0,-1,0,0,-1,0
1778194182.005864,2.940140962600708,wait_slave,2,-0.10372522452088437,1.4210406825087094,3.929304944772345,-0.3490393580869726,1.4448437115377368,3.8657212062605857,2,24.531413356608827,-2.3803029029027423,6.358373851175925,25.453585233001867,30,-6,21,148,130,251859.0,82,63.5,0,0,0,0,-1,0
1778194182.076698,3.0109751224517822,wait_slave,2,-0.10372522452088437,1.4210406825087094,3.929304944772345,-0.2990012251953389,1.4353619779302442,3.891743692352468,2,19.52760006744545,-1.4321295421534819,3.7561252419876734,19.937066891925234,-4,7,1,151,130,251865.0,82,63.5,0,0,0,0,-1,0
1778194182.1447418,3.0790188312530518,wait_slave,2,-0.10372522452088437,1.4210406825087094,3.929304944772345,-0.31956194326574283,1.3719607518105463,3.9208339549711346,2,21.583671874485848,4.907993069816308,0.8470989801210305,22.150865993025153,21,10,25,155,130,251862.0,82,63.5,0,-1,0,0,-1,0
1778194182.215428,3.149705171585083,wait_slave,2,-0.10372522452088437,1.4210406825087094,3.929304944772345,-0.38580463205554283,1.3697022381572133,3.876183974736175,2,28.20794075346584,5.133844435149615,5.312097003616989,29.159263619151847,30,-18,3,158,130,251862.0,82,63.5,0,-1,0,0,-1,0
1778194182.2864041,3.2206811904907227,wait_slave,2,-0.10372522452088437,1.4210406825087094,3.929304944772345,-0.38580463205554283,1.3697022381572133,3.876183974736175,2,28.20794075346584,5.133844435149615,5.312097003616989,29.159263619151847,18,-2,2,162,130,251862.0,82,63.5,0,-1,0,0,-1,0
1778194182.356906,3.2911829948425293,wait_slave,2,-0.10372522452088437,1.4210406825087094,3.929304944772345,-0.32850944538625115,1.372687711108896,3.92000074285145,2,22.47842208653668,4.835297139981343,0.9304201920894872,23.01141542074845,-4,15,1,165,130,251864.0,82,63.5,0,1,0,0,-1,0
1778194182.429025,3.363301992416382,wait_slave,2,-0.10372522452088437,1.4210406825087094,3.929304944772345,-0.3089901895277023,1.502895938782344,3.8797358721611284,2,20.526496500681795,-8.185525627363454,4.956907261121657,22.64753447914555,7,-16,-30,169,130,251864.0,82,63.5,0,1,0,0,-1,0
1778194182.50059,3.4348671436309814,wait_slave,2,-0.10372522452088437,1.4210406825087094,3.929304944772345,-0.47757575543258435,1.3286951225053363,3.8695712027960245,2,37.38505309116999,9.234556000337314,5.973374197632042,38.969223990963705,30,-6,30,172,130,251861.0,81,63.5,0,2,0,0,0,0
1778194182.5721889,3.5064659118652344,wait_slave,2,-0.10372522452088437,1.4210406825087094,3.929304944772345,-0.44993243313759,1.442653484885613,3.840852948475834,2,34.62072086167056,-2.161280237690355,8.845199629651113,35.79808656528897,13,-15,-30,176,130,251861.0,81,63.5,0,2,0,0,0,0
1778194182.641742,3.576019048690796,wait_slave,2,-0.10372522452088437,1.4210406825087094,3.929304944772345,-0.4093196934194865,1.383081107994888,3.890949314455059,2,30.559446889860208,3.795957451382148,3.835563031728606,31.032251464520805,6,15,23,179,130,251875.0,81,63.5,0,2,0,0,0,0
1778194182.7115772,3.6458542346954346,wait_slave,2,-0.10372522452088437,1.4210406825087094,3.929304944772345,-0.4288061148329576,1.3213260449653492,3.916064382835568,2,32.50808903120732,9.971463754336018,1.3240561936776807,34.02879760833396,29,8,28,183,130,251875.0,81,63.5,0,2,0,0,0,0
1778194182.7820559,3.7163329124450684,wait_slave,2,-0.10372522452088437,1.4210406825087094,3.929304944772345,-0.46875349643842124,1.3877601352136228,3.8657454644048346,2,36.50282719175368,3.328054729508656,6.355948036751036,37.201215258637944,30,-21,-22,187,130,251862.0,81,64.0,0,1,0,0,0,0
1778194182.8539221,3.7881991863250732,wait_slave,2,-0.10372522452088437,1.4210406825087094,3.929304944772345,-0.3534206603741177,1.3765095633619515,3.9379926790714053,2,24.969543585323333,4.453111914675789,-0.8687734299060335,25.378397897749572,-22,25,6,190,130,251862.0,81,64.0,0,1,0,0,0,0
1778194182.9258292,3.8601062297821045,wait_slave,2,-0.10372522452088437,1.4210406825087094,3.929304944772345,-0.415590846248463,1.3851220415347414,3.9107802489966548,2,31.18656217275786,3.591864097396802,1.8524695775690159,31.44733361328554,30,-10,-1,194,130,251873.99999999997,81,64.0,0,0,0,0,0,0
1778194182.996324,3.930601119995117,wait_slave,2,-0.10372522452088437,1.4210406825087094,3.929304944772345,-0.4377091761149241,1.3280809151132635,3.932563509583679,2,33.39839515940397,9.295976739544587,-0.32585648113339083,34.669499062030724,30,7,25,197,130,251873.99999999997,81,64.0,0,0,0,0,0,0
1778194183.067909,4.002186059951782,wait_slave,2,-0.10372522452088437,1.4210406825087094,3.929304944772345,-0.39977451131912844,1.4551443611403894,3.901672042522823,2,29.604928679824404,-3.4103678631679957,2.7632902249521862,29.92855131754517,8,-12,-30,201,130,251886.0,81,64.0,-1,1,0,0,0,0
1778194183.1401222,4.07439923286438,wait_slave,2,-0.10372522452088437,1.4210406825087094,3.929304944772345,-0.4165831675013023,1.399957392255386,3.926431083346696,2,31.285794298041793,2.108329025332334,0.2873861425648716,31.358070204229428,28,8,20,204,130,251871.0,81,64.0,-1,0,0,0,1,0
1778194183.210027,4.144304037094116,wait_slave,2,-0.10372522452088437,1.4210406825087094,3.929304944772345,-0.337948956099382,1.468885847756868,3.9402080132059902,2,23.422373157849766,-4.784516524815863,-1.0903068433645302,23.930899100002172,-10,5,-28,208,130,251873.0,81,64.0,-1,0,0,0,1,0
1778194183.2798789,4.214155912399292,wait_slave,2,-0.10372522452088437,1.4210406825087094,3.929304944772345,-0.3809630572271152,1.5289553914455865,3.8874582596330014,2,27.72378327062308,-10.791470893687706,4.184668513934353,30.04289355999689,30,-21,-29,211,130,251873.0,81,64.0,-1,0,0,0,1,0
1778194183.352159,4.286436080932617,wait_slave,2,-0.10372522452088437,1.4210406825087094,3.929304944772345,-0.40667772714213135,1.399637196599226,3.9279389464269108,2,30.295250262124696,2.1403485909483377,0.13659983454341607,30.371070775498488,30,13,30,215,130,251871.0,81,64.0,-1,1,0,0,1,0
1778194183.4242182,4.358495235443115,wait_slave,2,-0.10372522452088437,1.4210406825087094,3.929304944772345,-0.42727287147578785,1.3447156349240255,3.949757702936377,2,32.354764695490346,7.632504758468395,-2.0452758164032137,33.30569141383729,30,8,23,219,130,251880.00000000003,81,64.0,-1,1,0,0,1,0
1778194183.495032,4.429309129714966,wait_slave,2,-0.10372522452088437,1.4210406825087094,3.929304944772345,-0.42275444327950495,1.3431656437690775,3.951386351093389,2,31.902921875862056,7.787503873963186,-2.208140632104394,32.91378929651674,22,1,5,222,130,251880.00000000003,81,64.0,-1,1,0,0,1,0
1778194183.567169,4.501446008682251,wait_slave,2,-0.10372522452088437,1.4210406825087094,3.929304944772345,-0.3843293560043817,1.4755127013149454,3.9170332567343915,2,28.060413148349728,-5.447201880623598,1.227168803795342,28.61057038329288,8,-12,-30,226,130,251877.0,81,64.0,-1,0,0,0,1,0
1778194183.638772,4.573049068450928,wait_slave,2,-0.10372522452088437,1.4210406825087094,3.929304944772345,-0.3258574395904783,1.487067283114786,3.9559851218817115,2,22.213221506959393,-6.602660060607657,-2.6680177109366543,23.326822503269888,-2,15,-9,229,130,251877.0,81,64.0,-1,0,0,0,1,0
1778194183.709615,4.643892049789429,wait_slave,2,-0.10372522452088437,1.4210406825087094,3.929304944772345,-0.3258574395904783,1.487067283114786,3.9559851218817115,2,22.213221506959393,-6.602660060607657,-2.6680177109366543,23.326822503269888,18,1,-5,233,130,251877.0,81,64.0,-1,0,0,0,1,0
1778194183.7847528,4.719029903411865,wait_slave,2,-0.10372522452088437,1.4210406825087094,3.929304944772345,-0.24412330533864424,1.5484639935234816,3.9694987718642047,2,14.039808081775988,-12.742331101477223,-4.019382709185981,19.38139959434507,-14,7,-30,237,130,251881.0,81,63.5,-1,1,0,0,2,0
1778194183.856621,4.790898084640503,wait_slave,2,-0.10372522452088437,1.4210406825087094,3.929304944772345,-0.2983353619598279,1.5483451383713822,3.9263018581302918,2,19.461013743894355,-12.73044558626728,0.30030866420531765,23.256944899508056,30,-15,-9,240,130,251881.0,81,63.5,-1,1,0,0,2,0
1778194183.92844,4.862717151641846,wait_slave,2,-0.10372522452088437,1.4210406825087094,3.929304944772345,-0.2983353619598279,1.5483451383713822,3.9263018581302918,2,19.461013743894355,-12.73044558626728,0.30030866420531765,23.256944899508056,16,0,-10,244,130,251881.0,81,63.5,-1,1,0,0,2,0
1778194184.0004401,4.934717178344727,wait_slave,2,-0.10372522452088437,1.4210406825087094,3.929304944772345,-0.2983353619598279,1.5483451383713822,3.9263018581302918,2,19.461013743894355,-12.73044558626728,0.30030866420531765,23.256944899508056,17,0,-10,247,130,251881.0,81,63.5,-1,1,0,0,2,0
1778194184.074262,5.0085389614105225,wait_slave,2,-0.10372522452088437,1.4210406825087094,3.929304944772345,-0.23203593535079237,1.7952372259650518,3.8104060455470012,2,12.8310710829908,-37.419654345634235,11.889889922534369,41.3066144685508,-9,-30,-30,251,140,251880.00000000003,81,63.5,0,-1,0,0,2,0
1778194184.1447492,5.079026222229004,wait_slave,2,-0.10372522452088437,1.4210406825087094,3.929304944772345,-0.23203593535079237,1.7952372259650518,3.8104060455470012,2,12.8310710829908,-37.419654345634235,11.889889922534369,41.3066144685508,13,-7,-27,255,140,251880.00000000003,81,63.5,0,-1,0,0,2,0
1778194184.217556,5.1518330574035645,wait_slave,2,-0.10372522452088437,1.4210406825087094,3.929304944772345,-0.23203593535079237,1.7952372259650518,3.8104060455470012,2,12.8310710829908,-37.419654345634235,11.889889922534369,41.3066144685508,13,-7,-28,258,140,251880.00000000003,81,63.5,0,-1,0,0,2,0
1778194184.289951,5.224228143692017,wait_slave,2,-0.10372522452088437,1.4210406825087094,3.929304944772345,-0.23203593535079237,1.7952372259650518,3.8104060455470012,2,12.8310710829908,-37.419654345634235,11.889889922534369,41.3066144685508,13,-7,-28,262,140,251880.00000000003,81,63.5,0,-1,0,0,2,0
1778194184.365676,5.299952983856201,wait_slave,2,-0.10372522452088437,1.4210406825087094,3.929304944772345,-0.23203593535079237,1.7952372259650518,3.8104060455470012,2,12.8310710829908,-37.419654345634235,11.889889922534369,41.3066144685508,13,-7,-28,266,140,251880.00000000003,81,63.5,0,-1,0,0,2,0
1778194184.444702,5.378978967666626,wait_slave,2,-0.10372522452088437,1.4210406825087094,3.929304944772345,-0.23203593535079237,1.7952372259650518,3.8104060455470012,2,12.8310710829908,-37.419654345634235,11.889889922534369,41.3066144685508,13,-7,-29,270,140,251885.0,81,63.5,0,0,0,0,1,0
1778194184.520604,5.454880952835083,wait_slave,2,-0.10372522452088437,1.4210406825087094,3.929304944772345,,,,,,,,,0,0,0,273,140,251885.0,81,63.5,0,0,0,0,1,0
1778194184.592227,5.526504039764404,wait_slave,2,-0.10372522452088437,1.4210406825087094,3.929304944772345,,,,,,,,,0,0,0,277,140,251885.0,81,63.5,0,0,0,0,1,0
1778194184.666425,5.6007020473480225,wait_slave,2,-0.10372522452088437,1.4210406825087094,3.929304944772345,,,,,,,,,0,0,0,281,140,251885.0,81,63.5,0,0,0,0,1,0
1778194184.741382,5.675658941268921,wait_slave,2,-0.10372522452088437,1.4210406825087094,3.929304944772345,,,,,,,,,0,0,0,285,140,251885.0,81,63.5,0,0,0,0,1,0
1778194184.818244,5.75252103805542,wait_slave,2,-0.10372522452088437,1.4210406825087094,3.929304944772345,,,,,,,,,0,0,0,288,140,251885.0,81,63.5,0,0,0,0,1,0
1778194184.892511,5.826787948608398,wait_slave,2,-0.10372522452088437,1.4210406825087094,3.929304944772345,,,,,,,,,0,0,0,292,140,251885.0,81,63.5,0,0,0,0,1,0
1778194184.966588,5.900865077972412,wait_slave,2,-0.10372522452088437,1.4210406825087094,3.929304944772345,1.9260309383987688,-0.410840612180671,4.17148480807869,2,-202.9756162919653,183.18812946893806,-24.217986330634478,274.4877091043283,-30,30,30,296,140,251885.0,81,63.5,0,0,0,0,1,0
1778194185.040989,5.975265979766846,wait_slave,2,-0.10372522452088437,1.4210406825087094,3.929304944772345,1.9260309383987688,-0.410840612180671,4.17148480807869,2,-202.9756162919653,183.18812946893806,-24.217986330634478,274.4877091043283,-30,15,30,300,140,251885.0,81,63.5,0,0,0,0,1,0
1778194185.117454,6.051731109619141,wait_slave,2,-0.10372522452088437,1.4210406825087094,3.929304944772345,,,,,,,,,0,0,0,303,140,251888.0,80,64.0,0,0,0,0,1,0
1778194185.185765,6.120042085647583,wait_slave,2,-0.10372522452088437,1.4210406825087094,3.929304944772345,,,,,,,,,0,0,0,307,140,251888.0,80,64.0,0,0,0,0,1,0
1778194185.2581918,6.192468881607056,wait_slave,2,-0.10372522452088437,1.4210406825087094,3.929304944772345,,,,,,,,,0,0,0,310,140,251888.0,80,64.0,0,0,0,0,1,0
1778194185.3349981,6.269275188446045,wait_slave,2,-0.10372522452088437,1.4210406825087094,3.929304944772345,,,,,,,,,0,0,0,314,140,251888.0,80,64.0,0,0,0,0,1,0
1778194185.412361,6.346637964248657,wait_slave,2,-0.10372522452088437,1.4210406825087094,3.929304944772345,,,,,,,,,0,0,0,318,140,251888.0,80,64.0,0,0,0,0,1,0
1778194185.487634,6.421911001205444,wait_slave,2,-0.10372522452088437,1.4210406825087094,3.929304944772345,,,,,,,,,0,0,0,322,140,251888.0,80,64.0,0,0,0,0,1,0
1778194185.5642161,6.498493194580078,wait_slave,2,-0.10372522452088437,1.4210406825087094,3.929304944772345,,,,,,,,,0,0,0,326,140,251888.0,80,64.0,0,0,0,0,1,0
1778194185.6394482,6.57372522354126,wait_slave,2,-0.10372522452088437,1.4210406825087094,3.929304944772345,,,,,,,,,0,0,0,329,140,251888.0,80,64.0,0,0,0,0,1,0
1778194185.7131462,6.647423267364502,wait_slave,2,-0.10372522452088437,1.4210406825087094,3.929304944772345,,,,,,,,,0,0,0,333,130,251880.00000000003,80,64.0,-1,-1,0,0,0,0
1778194185.786865,6.721142053604126,wait_slave,2,-0.10372522452088437,1.4210406825087094,3.929304944772345,,,,,,,,,0,0,0,337,130,251871.0,80,64.0,-1,0,0,0,0,0
1778194185.862015,6.796292066574097,wait_slave,2,-0.10372522452088437,1.4210406825087094,3.929304944772345,,,,,,,,,0,0,0,341,130,251871.0,80,64.0,-1,0,0,0,0,0
1778194185.938455,6.872732162475586,wait_slave,2,-0.10372522452088437,1.4210406825087094,3.929304944772345,,,,,,,,,0,0,0,344,130,251871.0,80,64.0,0,0,0,0,0,0
1778194186.0111291,6.945406198501587,wait_slave,2,-0.10372522452088437,1.4210406825087094,3.929304944772345,,,,,,,,,0,0,0,348,130,251871.0,80,64.0,0,0,0,0,0,0
1778194186.08263,7.016906976699829,wait_slave,2,-0.10372522452088437,1.4210406825087094,3.929304944772345,,,,,,,,,0,0,0,352,130,251871.0,80,64.0,0,0,0,0,0,0
1778194186.1566982,7.090975284576416,wait_slave,2,-0.10372522452088437,1.4210406825087094,3.929304944772345,,,,,,,,,0,0,0,355,130,251866.0,80,64.0,0,0,0,0,0,0
1778194186.2295291,7.163806200027466,wait_slave,2,-0.10372522452088437,1.4210406825087094,3.929304944772345,,,,,,,,,0,0,0,359,130,251866.0,80,64.0,0,0,0,0,0,0
1778194186.3041852,7.238462209701538,wait_slave,2,-0.10372522452088437,1.4210406825087094,3.929304944772345,,,,,,,,,0,0,0,363,130,251866.0,80,64.0,0,0,0,0,0,0
1778194186.379882,7.314159154891968,wait_slave,2,-0.10372522452088437,1.4210406825087094,3.929304944772345,,,,,,,,,0,0,0,367,130,251866.0,80,64.0,0,0,0,0,0,0
1778194186.4552479,7.389524936676025,wait_slave,2,-0.10372522452088437,1.4210406825087094,3.929304944772345,,,,,,,,,0,0,0,370,130,251858.0,80,64.0,0,0,0,0,0,0
1778194186.5299509,7.464227914810181,wait_slave,2,-0.10372522452088437,1.4210406825087094,3.929304944772345,,,,,,,,,0,0,0,374,130,251864.0,80,64.0,0,0,0,0,0,0
1778194186.6067882,7.541065216064453,wait_slave,2,-0.10372522452088437,1.4210406825087094,3.929304944772345,,,,,,,,,0,0,0,378,130,251882.00000000003,79,64.0,0,0,0,0,0,0
1778194186.68001,7.6142871379852295,wait_slave,2,-0.10372522452088437,1.4210406825087094,3.929304944772345,,,,,,,,,0,0,0,381,130,251882.00000000003,79,64.0,0,0,0,0,0,0
1778194186.752427,7.686704158782959,wait_slave,2,-0.10372522452088437,1.4210406825087094,3.929304944772345,,,,,,,,,0,0,0,385,130,251880.00000000003,79,64.0,0,0,0,0,0,0
1778194186.826782,7.761059045791626,wait_slave,2,-0.10372522452088437,1.4210406825087094,3.929304944772345,,,,,,,,,0,0,0,389,130,251878.00000000003,79,64.0,0,0,0,0,0,0
1778194186.8997371,7.834014177322388,wait_slave,2,-0.10372522452088437,1.4210406825087094,3.929304944772345,,,,,,,,,0,0,0,392,130,251875.0,79,64.5,0,0,0,0,0,0
1778194186.971006,7.905282974243164,wait_slave,2,-0.10372522452088437,1.4210406825087094,3.929304944772345,,,,,,,,,0,0,0,396,130,251875.0,79,64.5,0,0,0,0,0,0
1778194187.043691,7.977967977523804,wait_slave,2,-0.10372522452088437,1.4210406825087094,3.929304944772345,,,,,,,,,0,0,0,400,130,251867.99999999997,79,64.5,0,0,0,0,0,0
1778194187.1158679,8.050144910812378,wait_slave,2,-0.10372522452088437,1.4210406825087094,3.929304944772345,,,,,,,,,0,0,0,403,130,251869.99999999997,79,64.5,0,0,0,0,0,0
1778194187.1854458,8.119722843170166,wait_slave,2,-0.10372522452088437,1.4210406825087094,3.929304944772345,,,,,,,,,0,0,0,407,130,251869.99999999997,79,64.5,0,0,0,0,0,0
1778194187.2597709,8.194047927856445,wait_slave,2,-0.10372522452088437,1.4210406825087094,3.929304944772345,,,,,,,,,0,0,0,411,130,251864.0,79,64.5,0,0,0,0,0,0
1778194187.3342001,8.268477201461792,wait_slave,2,-0.10372522452088437,1.4210406825087094,3.929304944772345,,,,,,,,,0,0,0,414,130,251860.0,79,64.5,0,0,0,0,0,0
1778194187.410357,8.344634056091309,wait_slave,2,-0.10372522452088437,1.4210406825087094,3.929304944772345,,,,,,,,,0,0,0,418,130,251860.0,79,64.5,0,0,0,0,0,0
1778194187.487181,8.421458005905151,wait_slave,2,-0.10372522452088437,1.4210406825087094,3.929304944772345,,,,,,,,,0,0,0,422,130,251860.0,79,64.5,0,0,0,0,0,0
1778194187.566124,8.500401020050049,wait_slave,2,-0.10372522452088437,1.4210406825087094,3.929304944772345,,,,,,,,,0,0,0,426,130,251860.0,79,64.5,0,0,0,0,0,0
1778194187.641925,8.576202154159546,wait_slave,2,-0.10372522452088437,1.4210406825087094,3.929304944772345,,,,,,,,,0,0,0,430,130,251860.0,79,64.5,0,0,0,0,0,0
1778194187.719418,8.653695106506348,wait_slave,2,-0.10372522452088437,1.4210406825087094,3.929304944772345,,,,,,,,,0,0,0,434,130,251875.0,79,64.5,0,0,0,0,0,0
1778194187.7989419,8.733218908309937,wait_slave,2,-0.10372522452088437,1.4210406825087094,3.929304944772345,,,,,,,,,0,0,0,438,130,251873.0,79,64.5,0,0,0,0,0,0
1778194187.874079,8.808356046676636,wait_slave,2,-0.10372522452088437,1.4210406825087094,3.929304944772345,,,,,,,,,0,0,0,441,130,251873.0,79,64.5,0,0,0,0,0,0
1778194187.9521248,8.886401891708374,wait_slave,2,-0.10372522452088437,1.4210406825087094,3.929304944772345,,,,,,,,,0,0,0,445,130,251862.0,79,64.5,-1,0,0,0,0,0
1778194188.028942,8.963219165802002,wait_slave,2,-0.10372522452088437,1.4210406825087094,3.929304944772345,,,,,,,,,0,0,0,449,130,251862.0,79,64.5,-1,0,0,0,0,0
1778194188.104625,9.038902044296265,wait_slave,2,-0.10372522452088437,1.4210406825087094,3.929304944772345,,,,,,,,,0,0,0,453,130,251871.99999999997,79,64.0,0,0,0,0,0,0
1778194188.183419,9.117696046829224,wait_slave,2,-0.10372522452088437,1.4210406825087094,3.929304944772345,,,,,,,,,0,0,0,457,130,251871.99999999997,79,64.0,0,0,0,0,0,0
1778194188.261787,9.196063995361328,wait_slave,2,-0.10372522452088437,1.4210406825087094,3.929304944772345,,,,,,,,,0,0,0,460,130,251863.0,79,64.0,0,0,0,0,0,0
1778194188.340528,9.274805068969727,wait_slave,2,-0.10372522452088437,1.4210406825087094,3.929304944772345,,,,,,,,,0,0,0,465,130,251871.0,79,64.0,0,0,0,0,0,0
1778194188.415566,9.34984302520752,wait_slave,2,-0.10372522452088437,1.4210406825087094,3.929304944772345,,,,,,,,,0,0,0,468,130,251871.99999999997,79,64.0,0,0,0,0,0,0
1778194188.4935338,9.427810907363892,wait_slave,2,-0.10372522452088437,1.4210406825087094,3.929304944772345,,,,,,,,,0,0,0,472,130,251871.99999999997,79,64.0,0,0,0,0,0,0
1778194188.5700748,9.50435185432434,wait_slave,2,-0.10372522452088437,1.4210406825087094,3.929304944772345,,,,,,,,,0,0,0,476,130,251871.99999999997,79,64.0,0,0,0,0,0,0
1778194188.645826,9.580103158950806,wait_slave,2,-0.10372522452088437,1.4210406825087094,3.929304944772345,,,,,,,,,0,0,0,480,130,251878.00000000003,79,64.0,0,0,0,0,0,0
1778194188.722493,9.65676999092102,wait_slave,2,-0.10372522452088437,1.4210406825087094,3.929304944772345,,,,,,,,,0,0,0,484,130,251878.00000000003,79,64.0,0,0,0,0,0,0
1778194188.80077,9.735047101974487,wait_slave,2,-0.10372522452088437,1.4210406825087094,3.929304944772345,,,,,,,,,0,0,0,488,130,251878.00000000003,79,64.0,0,0,0,0,0,0
1778194188.8792372,9.813514232635498,wait_slave,2,-0.10372522452088437,1.4210406825087094,3.929304944772345,,,,,,,,,0,0,0,492,130,251878.00000000003,79,64.0,0,0,0,0,0,0
1778194188.957278,9.891555070877075,wait_slave,2,-0.10372522452088437,1.4210406825087094,3.929304944772345,,,,,,,,,0,0,0,495,130,251878.00000000003,79,64.0,0,0,0,0,0,0
1778194189.036082,9.970359086990356,wait_slave,2,-0.10372522452088437,1.4210406825087094,3.929304944772345,,,,,,,,,0,0,0,499,130,251863.0,78,64.0,0,0,0,0,0,0
1778194189.11571,10.049987077713013,wait_slave,2,-0.10372522452088437,1.4210406825087094,3.929304944772345,,,,,,,,,0,0,0,503,130,251873.99999999997,78,64.5,0,0,0,0,0,0
1778194189.192663,10.12694001197815,wait_slave,2,-0.10372522452088437,1.4210406825087094,3.929304944772345,,,,,,,,,0,0,0,507,130,251873.99999999997,78,64.5,0,0,0,0,0,0
1778194189.270729,10.205006122589111,wait_slave,2,-0.10372522452088437,1.4210406825087094,3.929304944772345,,,,,,,,,0,0,0,511,130,251873.99999999997,78,64.5,0,0,0,0,0,0
1778194189.349728,10.284005165100098,wait_slave,2,-0.10372522452088437,1.4210406825087094,3.929304944772345,,,,,,,,,0,0,0,515,130,251873.99999999997,78,64.5,0,0,0,0,0,0
1778194189.424429,10.358705997467041,wait_slave,2,-0.10372522452088437,1.4210406825087094,3.929304944772345,,,,,,,,,0,0,0,519,130,251873.99999999997,78,64.5,0,0,0,0,0,0
1778194189.501408,10.435685157775879,wait_slave,2,-0.10372522452088437,1.4210406825087094,3.929304944772345,,,,,,,,,0,0,0,522,130,251873.99999999997,78,64.5,0,0,0,0,0,0
1778194189.5906491,10.52492618560791,wait_slave,2,-0.10372522452088437,1.4210406825087094,3.929304944772345,,,,,,,,,0,0,0,527,130,251873.99999999997,78,64.5,0,0,0,0,0,0
1778194189.6638532,10.598130226135254,wait_slave,2,-0.10372522452088437,1.4210406825087094,3.929304944772345,,,,,,,,,0,0,0,531,130,251873.99999999997,78,64.5,0,0,0,0,0,0
1778194189.741052,10.675328969955444,wait_slave,2,-0.10372522452088437,1.4210406825087094,3.929304944772345,,,,,,,,,0,0,0,535,130,251873.99999999997,78,64.5,0,0,0,0,0,0
1778194189.818955,10.7532320022583,wait_slave,2,-0.10372522452088437,1.4210406825087094,3.929304944772345,,,,,,,,,0,0,0,539,130,251865.0,78,64.5,0,0,0,0,0,0
1778194189.8973598,10.831636905670166,wait_slave,2,-0.10372522452088437,1.4210406825087094,3.929304944772345,,,,,,,,,0,0,0,542,130,251865.0,78,64.5,0,0,0,0,0,0
1778194189.976625,10.91090202331543,wait_slave,2,-0.10372522452088437,1.4210406825087094,3.929304944772345,,,,,,,,,0,0,0,546,130,251875.0,78,65.0,0,0,0,0,0,0
1778194190.052202,10.986479043960571,wait_slave,2,-0.10372522452088437,1.4210406825087094,3.929304944772345,,,,,,,,,0,0,0,550,130,251875.0,78,65.0,0,0,0,0,0,0
1778194190.1248598,11.059136867523193,wait_slave,2,-0.10372522452088437,1.4210406825087094,3.929304944772345,,,,,,,,,0,0,0,554,130,251875.0,78,65.0,0,0,0,0,0,0
1778194190.197712,11.131989002227783,wait_slave,2,-0.10372522452088437,1.4210406825087094,3.929304944772345,,,,,,,,,0,0,0,557,130,251875.0,78,65.0,0,0,0,0,0,0
1778194190.2729669,11.207243919372559,wait_slave,2,-0.10372522452088437,1.4210406825087094,3.929304944772345,,,,,,,,,0,0,0,561,130,251875.0,78,65.0,0,0,0,0,0,0
1778194190.352124,11.28640103340149,wait_slave,2,-0.10372522452088437,1.4210406825087094,3.929304944772345,,,,,,,,,0,0,0,565,130,251875.0,78,65.0,0,0,0,0,0,0
1778194190.4311008,11.36537790298462,wait_slave,2,-0.10372522452088437,1.4210406825087094,3.929304944772345,,,,,,,,,0,0,0,569,130,251875.0,78,65.0,0,0,0,0,0,0
1778194190.509114,11.44339108467102,wait_slave,2,-0.10372522452088437,1.4210406825087094,3.929304944772345,,,,,,,,,0,0,0,573,130,251875.0,78,65.0,0,0,0,0,0,0
1778194190.586986,11.521263122558594,wait_slave,2,-0.10372522452088437,1.4210406825087094,3.929304944772345,,,,,,,,,0,0,0,577,130,251875.0,78,65.0,0,0,0,0,0,0
1778194190.665931,11.600208044052124,wait_slave,2,-0.10372522452088437,1.4210406825087094,3.929304944772345,,,,,,,,,0,0,0,581,130,251875.0,78,65.0,0,0,0,0,0,0
1778194190.745152,11.679429054260254,wait_slave,2,-0.10372522452088437,1.4210406825087094,3.929304944772345,,,,,,,,,0,0,0,585,130,251875.0,78,65.0,0,0,0,0,0,0
1778194190.8283362,11.762613296508789,wait_slave,2,-0.10372522452088437,1.4210406825087094,3.929304944772345,,,,,,,,,0,0,0,589,130,251875.0,78,65.0,0,0,0,0,0,0
1778194190.9074821,11.841759204864502,wait_slave,2,-0.10372522452088437,1.4210406825087094,3.929304944772345,,,,,,,,,0,0,0,593,130,251869.0,77,64.0,0,0,0,0,0,0
1778194190.981854,11.916131019592285,wait_slave,2,-0.10372522452088437,1.4210406825087094,3.929304944772345,,,,,,,,,0,0,0,597,130,251869.0,77,64.0,0,0,0,0,0,0
1778194191.0558772,11.990154266357422,wait_slave,2,-0.10372522452088437,1.4210406825087094,3.929304944772345,,,,,,,,,0,0,0,600,130,251869.0,77,64.0,0,0,0,0,0,0
1778194191.135039,12.069316148757935,wait_slave,2,-0.10372522452088437,1.4210406825087094,3.929304944772345,,,,,,,,,0,0,0,604,130,251871.0,77,64.0,0,0,0,0,0,0
1778194191.205072,12.139348983764648,wait_slave,2,-0.10372522452088437,1.4210406825087094,3.929304944772345,,,,,,,,,0,0,0,608,130,251871.0,77,64.0,0,0,0,0,0,0
1778194191.281079,12.21535611152649,wait_slave,2,-0.10372522452088437,1.4210406825087094,3.929304944772345,,,,,,,,,0,0,0,612,130,251878.00000000003,77,64.0,0,0,0,0,0,0
1778194191.354273,12.28855013847351,wait_slave,2,-0.10372522452088437,1.4210406825087094,3.929304944772345,,,,,,,,,0,0,0,615,130,251869.99999999997,77,64.0,0,0,0,0,0,0
1778194191.4309278,12.365204811096191,wait_slave,2,-0.10372522452088437,1.4210406825087094,3.929304944772345,,,,,,,,,0,0,0,619,130,251875.0,77,64.0,0,0,0,0,0,0
1778194191.5034099,12.437686920166016,wait_slave,2,-0.10372522452088437,1.4210406825087094,3.929304944772345,,,,,,,,,0,0,0,623,130,251875.0,77,64.0,0,0,0,0,0,0
1778194191.579919,12.514196157455444,wait_slave,2,-0.10372522452088437,1.4210406825087094,3.929304944772345,,,,,,,,,0,0,0,627,130,251860.0,77,64.0,0,0,0,0,0,0
1778194191.6574259,12.591702938079834,wait_slave,2,-0.10372522452088437,1.4210406825087094,3.929304944772345,,,,,,,,,0,0,0,630,130,251871.0,77,64.0,0,0,0,0,0,0
1778194191.7344189,12.66869592666626,wait_slave,2,-0.10372522452088437,1.4210406825087094,3.929304944772345,,,,,,,,,0,0,0,634,130,251865.0,77,64.0,0,0,0,0,0,0
1778194191.8114932,12.74577021598816,wait_slave,2,-0.10372522452088437,1.4210406825087094,3.929304944772345,,,,,,,,,0,0,0,638,130,251865.0,77,64.0,0,0,0,0,0,0
1778194191.888342,12.822618961334229,wait_slave,2,-0.10372522452088437,1.4210406825087094,3.929304944772345,,,,,,,,,0,0,0,642,130,251864.0,77,64.5,0,0,0,0,0,0
1778194191.962765,12.897042036056519,wait_slave,2,-0.10372522452088437,1.4210406825087094,3.929304944772345,,,,,,,,,0,0,0,646,130,251862.0,77,64.5,0,0,0,0,0,0
1778194192.035904,12.970180988311768,wait_slave,2,-0.10372522452088437,1.4210406825087094,3.929304944772345,,,,,,,,,0,0,0,649,130,251861.0,77,64.5,0,0,0,0,0,0
1778194192.1084821,13.04275918006897,wait_slave,2,-0.10372522452088437,1.4210406825087094,3.929304944772345,,,,,,,,,0,0,0,653,130,251864.0,77,64.5,0,0,0,0,0,0
1778194192.18151,13.115787029266357,wait_slave,2,-0.10372522452088437,1.4210406825087094,3.929304944772345,,,,,,,,,0,0,0,657,130,251871.0,77,64.5,0,0,0,0,0,0
1778194192.2562869,13.190563917160034,wait_slave,2,-0.10372522452088437,1.4210406825087094,3.929304944772345,,,,,,,,,0,0,0,660,130,251871.0,77,64.5,0,0,0,0,0,0
1778194192.3307362,13.265013217926025,wait_slave,2,-0.10372522452088437,1.4210406825087094,3.929304944772345,,,,,,,,,0,0,0,664,130,251875.0,77,64.5,0,0,0,0,0,0
1778194192.40181,13.336086988449097,wait_slave,2,-0.10372522452088437,1.4210406825087094,3.929304944772345,,,,,,,,,0,0,0,668,130,251866.0,77,64.5,0,0,0,0,0,0
1778194192.4740732,13.408350229263306,wait_slave,2,-0.10372522452088437,1.4210406825087094,3.929304944772345,,,,,,,,,0,0,0,671,130,251866.0,77,64.5,0,0,0,0,0,0
1778194192.546412,13.48068904876709,wait_slave,2,-0.10372522452088437,1.4210406825087094,3.929304944772345,,,,,,,,,0,0,0,675,130,251861.0,76,64.5,0,0,0,0,0,0
1778194192.6192808,13.553557872772217,wait_slave,2,-0.10372522452088437,1.4210406825087094,3.929304944772345,,,,,,,,,0,0,0,678,130,251873.99999999997,76,64.5,0,0,0,0,0,0
1778194192.690887,13.625164031982422,wait_slave,2,-0.10372522452088437,1.4210406825087094,3.929304944772345,,,,,,,,,0,0,0,682,130,251873.99999999997,76,64.5,0,0,0,0,0,0
1778194192.7646751,13.698952198028564,wait_slave,2,-0.10372522452088437,1.4210406825087094,3.929304944772345,,,,,,,,,0,0,0,686,130,251873.99999999997,76,64.5,0,0,0,0,0,0
1778194192.840661,13.774938106536865,wait_slave,2,-0.10372522452088437,1.4210406825087094,3.929304944772345,,,,,,,,,0,0,0,689,130,251864.0,76,65.0,0,0,0,0,0,0
1778194192.912674,13.846951007843018,wait_slave,2,-0.10372522452088437,1.4210406825087094,3.929304944772345,,,,,,,,,0,0,0,693,130,251864.0,76,65.0,0,0,0,0,0,0
1778194192.98384,13.918117046356201,wait_slave,2,-0.10372522452088437,1.4210406825087094,3.929304944772345,,,,,,,,,0,0,0,697,130,251869.99999999997,76,65.0,0,0,0,0,0,0
1778194193.054583,13.988860130310059,wait_slave,2,-0.10372522452088437,1.4210406825087094,3.929304944772345,,,,,,,,,0,0,0,700,130,251871.99999999997,76,65.0,0,0,0,0,0,0
1778194193.1243799,14.058656930923462,wait_slave,2,-0.10372522452088437,1.4210406825087094,3.929304944772345,,,,,,,,,0,0,0,704,130,251871.99999999997,76,65.0,0,0,0,0,0,0
1778194193.191638,14.125915050506592,wait_slave,2,-0.10372522452088437,1.4210406825087094,3.929304944772345,,,,,,,,,0,0,0,707,130,251867.99999999997,76,65.0,0,0,0,0,0,0
1778194193.262208,14.196485042572021,wait_slave,2,-0.10372522452088437,1.4210406825087094,3.929304944772345,,,,,,,,,0,0,0,711,130,251867.99999999997,76,65.0,0,0,0,0,0,0
1778194193.3320289,14.266305923461914,wait_slave,2,-0.10372522452088437,1.4210406825087094,3.929304944772345,,,,,,,,,0,0,0,714,130,251869.99999999997,76,65.0,0,0,0,0,0,0
1778194193.4036748,14.337951898574829,wait_slave,2,-0.10372522452088437,1.4210406825087094,3.929304944772345,,,,,,,,,0,0,0,718,130,251871.99999999997,76,65.0,0,0,0,0,0,0
1778194193.47544,14.409717082977295,wait_slave,2,-0.10372522452088437,1.4210406825087094,3.929304944772345,,,,,,,,,0,0,0,721,130,251871.99999999997,76,65.0,0,0,0,0,0,0
1778194193.549048,14.483325004577637,wait_slave,2,-0.10372522452088437,1.4210406825087094,3.929304944772345,,,,,,,,,0,0,0,725,130,251873.0,76,65.0,0,0,0,0,0,0
1778194193.6245708,14.558847904205322,wait_slave,2,-0.10372522452088437,1.4210406825087094,3.929304944772345,,,,,,,,,0,0,0,729,130,251873.99999999997,76,65.0,0,0,0,0,0,0
1778194193.696317,14.63059401512146,wait_slave,2,-0.10372522452088437,1.4210406825087094,3.929304944772345,,,,,,,,,0,0,0,732,130,251875.0,76,65.0,0,0,0,0,0,0
1778194193.769536,14.703813076019287,wait_slave,2,-0.10372522452088437,1.4210406825087094,3.929304944772345,,,,,,,,,0,0,0,736,130,251875.0,76,65.0,0,0,0,0,0,0
1778194193.842324,14.776601076126099,wait_slave,2,-0.10372522452088437,1.4210406825087094,3.929304944772345,,,,,,,,,0,0,0,740,130,251867.99999999997,76,65.0,0,0,0,0,0,0
1778194193.913994,14.848271131515503,wait_slave,2,-0.10372522452088437,1.4210406825087094,3.929304944772345,,,,,,,,,0,0,0,743,130,251869.99999999997,76,65.0,0,0,0,0,0,0
1778194193.984886,14.91916298866272,wait_slave,2,-0.10372522452088437,1.4210406825087094,3.929304944772345,,,,,,,,,0,0,0,747,130,251869.99999999997,76,65.0,0,0,0,0,0,0
1778194194.056562,14.990839004516602,wait_slave,2,-0.10372522452088437,1.4210406825087094,3.929304944772345,,,,,,,,,0,0,0,750,130,251877.0,76,65.0,0,0,0,0,0,0
1778194194.12762,15.061897039413452,wait_slave,2,-0.10372522452088437,1.4210406825087094,3.929304944772345,,,,,,,,,0,0,0,754,130,251878.00000000003,76,65.0,0,0,0,0,0,0
1778194194.199517,15.133794069290161,wait_slave,2,-0.10372522452088437,1.4210406825087094,3.929304944772345,,,,,,,,,0,0,0,757,130,251878.00000000003,76,65.0,0,0,0,0,0,0
1778194194.271193,15.205470085144043,wait_slave,2,-0.10372522452088437,1.4210406825087094,3.929304944772345,,,,,,,,,0,0,0,761,130,251871.0,76,65.0,0,0,0,0,0,0
1778194194.343741,15.2780179977417,wait_slave,2,-0.10372522452088437,1.4210406825087094,3.929304944772345,,,,,,,,,0,0,0,765,130,251871.0,76,65.0,0,0,0,0,0,0
1778194194.417652,15.351928949356079,wait_slave,2,-0.10372522452088437,1.4210406825087094,3.929304944772345,,,,,,,,,0,0,0,768,130,251871.0,76,65.0,0,0,0,0,0,0
1778194194.489749,15.424026012420654,wait_slave,2,-0.10372522452088437,1.4210406825087094,3.929304944772345,,,,,,,,,0,0,0,772,130,251871.0,76,65.0,0,0,0,0,0,0
1778194194.564349,15.498625993728638,wait_slave,2,-0.10372522452088437,1.4210406825087094,3.929304944772345,,,,,,,,,0,0,0,776,130,251871.99999999997,76,65.0,0,0,0,0,0,0
1778194194.643413,15.577690124511719,wait_slave,2,-0.10372522452088437,1.4210406825087094,3.929304944772345,,,,,,,,,0,0,0,780,130,251871.99999999997,76,65.0,0,0,0,0,0,0
1778194194.7161658,15.650442838668823,wait_slave,2,-0.10372522452088437,1.4210406825087094,3.929304944772345,,,,,,,,,0,0,0,783,130,251876.00000000003,75,65.0,0,0,0,0,0,0
1778194194.7913191,15.725596189498901,wait_slave,2,-0.10372522452088437,1.4210406825087094,3.929304944772345,,,,,,,,,0,0,0,787,130,251876.00000000003,75,65.0,0,0,0,0,0,0
1778194194.86691,15.80118703842163,wait_slave,2,-0.10372522452088437,1.4210406825087094,3.929304944772345,,,,,,,,,0,0,0,791,130,251876.00000000003,75,65.0,0,0,0,0,0,0
1778194194.941366,15.875643014907837,wait_slave,2,-0.10372522452088437,1.4210406825087094,3.929304944772345,,,,,,,,,0,0,0,794,130,251882.00000000003,75,65.0,0,0,0,0,0,0
1778194195.0109901,15.94526720046997,wait_slave,2,-0.10372522452088437,1.4210406825087094,3.929304944772345,,,,,,,,,0,0,0,798,130,251867.99999999997,75,65.0,0,0,0,0,0,0
1778194195.0810921,16.015369176864624,wait_slave,2,-0.10372522452088437,1.4210406825087094,3.929304944772345,,,,,,,,,0,0,0,801,130,251876.00000000003,75,65.0,0,0,0,0,0,0
1778194195.151252,16.085529088974,wait_slave,2,-0.10372522452088437,1.4210406825087094,3.929304944772345,,,,,,,,,0,0,0,805,130,251875.0,75,65.0,0,0,0,0,0,0
1778194195.219739,16.15401601791382,wait_slave,2,-0.10372522452088437,1.4210406825087094,3.929304944772345,,,,,,,,,0,0,0,808,130,251875.0,75,65.0,0,0,0,0,0,0
1778194195.2873778,16.221654891967773,wait_slave,2,-0.10372522452088437,1.4210406825087094,3.929304944772345,,,,,,,,,0,0,0,812,130,251883.0,75,65.0,0,0,0,0,0,0
1778194195.355068,16.289345026016235,wait_slave,2,-0.10372522452088437,1.4210406825087094,3.929304944772345,,,,,,,,,0,0,0,815,130,251877.0,75,65.0,0,0,0,0,0,0
1778194195.423125,16.357402086257935,wait_slave,2,-0.10372522452088437,1.4210406825087094,3.929304944772345,,,,,,,,,0,0,0,819,130,251877.0,75,65.0,0,0,0,0,0,0
1778194195.4922712,16.42654824256897,wait_slave,2,-0.10372522452088437,1.4210406825087094,3.929304944772345,,,,,,,,,0,0,0,822,130,251871.99999999997,75,65.0,0,0,0,0,0,0
1778194195.561594,16.49587106704712,wait_slave,2,-0.10372522452088437,1.4210406825087094,3.929304944772345,,,,,,,,,0,0,0,826,130,251875.0,75,65.0,0,0,0,0,0,0
1778194195.634586,16.56886315345764,wait_slave,2,-0.10372522452088437,1.4210406825087094,3.929304944772345,,,,,,,,,0,0,0,829,130,251875.0,75,65.0,0,0,0,0,0,0
1778194195.70663,16.640907049179077,wait_slave,2,-0.10372522452088437,1.4210406825087094,3.929304944772345,,,,,,,,,0,0,0,833,130,251867.99999999997,75,65.0,0,0,0,0,0,0
1778194195.779553,16.71382999420166,wait_slave,2,-0.10372522452088437,1.4210406825087094,3.929304944772345,,,,,,,,,0,0,0,836,130,251867.99999999997,75,65.0,0,0,0,0,0,0
1778194195.852565,16.786842107772827,wait_slave,2,-0.10372522452088437,1.4210406825087094,3.929304944772345,,,,,,,,,0,0,0,840,130,251866.0,75,65.0,0,0,0,0,0,0
1778194195.928861,16.86313796043396,wait_slave,2,-0.10372522452088437,1.4210406825087094,3.929304944772345,,,,,,,,,0,0,0,844,130,251866.0,75,65.0,0,0,0,0,0,0
1778194196.00655,16.940827131271362,wait_slave,2,-0.10372522452088437,1.4210406825087094,3.929304944772345,,,,,,,,,0,0,0,848,130,251866.0,75,65.0,0,0,0,0,0,0
1778194196.082999,17.01727604866028,wait_slave,2,-0.10372522452088437,1.4210406825087094,3.929304944772345,,,,,,,,,0,0,0,852,140,251873.0,75,65.0,0,0,0,0,0,0
1778194196.156416,17.09069299697876,wait_slave,2,-0.10372522452088437,1.4210406825087094,3.929304944772345,,,,,,,,,0,0,0,855,140,251873.0,75,65.0,0,0,0,0,0,0
1778194196.2313101,17.165587186813354,wait_slave,2,-0.10372522452088437,1.4210406825087094,3.929304944772345,,,,,,,,,0,0,0,859,140,251879.0,75,65.0,0,0,0,0,0,0
1778194196.300184,17.234461069107056,wait_slave,2,-0.10372522452088437,1.4210406825087094,3.929304944772345,,,,,,,,,0,0,0,862,140,251879.0,75,65.0,0,0,0,0,0,0
1778194196.371398,17.30567502975464,wait_slave,2,-0.10372522452088437,1.4210406825087094,3.929304944772345,,,,,,,,,0,0,0,866,140,251879.0,75,65.0,0,0,0,0,0,0
1778194196.442989,17.37726616859436,wait_slave,2,-0.10372522452088437,1.4210406825087094,3.929304944772345,,,,,,,,,0,0,0,870,140,251879.0,75,65.0,0,0,0,0,0,0
1778194196.518677,17.452954053878784,wait_slave,2,-0.10372522452088437,1.4210406825087094,3.929304944772345,,,,,,,,,0,0,0,873,140,251879.0,75,65.0,0,0,0,0,0,0
1778194196.591174,17.525450944900513,wait_slave,2,-0.10372522452088437,1.4210406825087094,3.929304944772345,,,,,,,,,0,0,0,877,140,251879.0,75,65.0,0,0,0,0,0,0
1778194196.666826,17.60110306739807,wait_slave,2,-0.10372522452088437,1.4210406825087094,3.929304944772345,,,,,,,,,0,0,0,881,140,251881.0,74,65.0,0,0,0,0,0,0
1778194196.741739,17.676016092300415,wait_slave,2,-0.10372522452088437,1.4210406825087094,3.929304944772345,,,,,,,,,0,0,0,885,140,251881.0,74,65.0,0,0,0,0,0,0
1778194196.8171022,17.751379251480103,wait_slave,2,-0.10372522452088437,1.4210406825087094,3.929304944772345,,,,,,,,,0,0,0,888,140,251881.0,74,65.0,0,0,0,0,0,0
1778194196.891007,17.825284004211426,wait_slave,2,-0.10372522452088437,1.4210406825087094,3.929304944772345,,,,,,,,,0,0,0,892,140,251881.0,74,65.0,0,0,0,0,0,0
1778194196.969482,17.903759002685547,wait_slave,2,-0.10372522452088437,1.4210406825087094,3.929304944772345,,,,,,,,,0,0,0,896,140,251873.0,74,65.5,0,0,0,0,0,0
1778194197.03998,17.974256992340088,wait_slave,2,-0.10372522452088437,1.4210406825087094,3.929304944772345,,,,,,,,,0,0,0,899,140,251873.0,74,65.5,0,0,0,0,0,0
1778194197.111635,18.04591202735901,wait_slave,2,-0.10372522452088437,1.4210406825087094,3.929304944772345,,,,,,,,,0,0,0,903,140,251873.0,74,65.5,0,0,0,0,0,0
1778194197.184704,18.11898112297058,wait_slave,2,-0.10372522452088437,1.4210406825087094,3.929304944772345,,,,,,,,,0,0,0,907,140,251873.0,74,65.5,0,0,0,0,0,0
1778194197.259318,18.19359517097473,wait_slave,2,-0.10372522452088437,1.4210406825087094,3.929304944772345,,,,,,,,,0,0,0,910,140,251873.0,74,65.5,0,0,0,0,0,0
1778194197.334013,18.268290042877197,wait_slave,2,-0.10372522452088437,1.4210406825087094,3.929304944772345,,,,,,,,,0,0,0,914,140,251873.0,74,65.5,0,0,0,0,0,0
1778194197.411857,18.346133947372437,wait_slave,2,-0.10372522452088437,1.4210406825087094,3.929304944772345,,,,,,,,,0,0,0,918,140,251873.0,74,65.5,0,0,0,0,0,0
1778194197.4877682,18.42204523086548,wait_slave,2,-0.10372522452088437,1.4210406825087094,3.929304944772345,,,,,,,,,0,0,0,922,140,251873.0,74,65.5,0,0,0,0,0,0
1778194197.561897,18.496174097061157,wait_slave,2,-0.10372522452088437,1.4210406825087094,3.929304944772345,,,,,,,,,0,0,0,925,140,251864.0,74,65.5,0,0,0,0,0,0
1778194197.631804,18.566081047058105,wait_slave,2,-0.10372522452088437,1.4210406825087094,3.929304944772345,,,,,,,,,0,0,0,929,140,251864.0,74,65.5,0,0,0,0,0,0
1778194197.7021341,18.63641119003296,wait_slave,2,-0.10372522452088437,1.4210406825087094,3.929304944772345,,,,,,,,,0,0,0,932,140,251875.0,74,65.5,0,0,0,0,0,0
1778194197.769894,18.70417094230652,wait_slave,2,-0.10372522452088437,1.4210406825087094,3.929304944772345,,,,,,,,,0,0,0,936,130,251869.99999999997,74,65.5,0,0,0,0,0,0
1778194197.837823,18.77209997177124,wait_slave,2,-0.10372522452088437,1.4210406825087094,3.929304944772345,,,,,,,,,0,0,0,939,130,251883.0,74,65.5,0,0,0,0,0,0
1778194197.907037,18.84131407737732,wait_slave,2,-0.10372522452088437,1.4210406825087094,3.929304944772345,,,,,,,,,0,0,0,943,130,251883.0,74,65.5,0,0,0,0,0,0
1778194197.976657,18.91093397140503,wait_slave,2,-0.10372522452088437,1.4210406825087094,3.929304944772345,,,,,,,,,0,0,0,946,130,251883.0,74,65.5,0,0,0,0,0,0
1778194198.048606,18.982882976531982,wait_slave,2,-0.10372522452088437,1.4210406825087094,3.929304944772345,,,,,,,,,0,0,0,950,130,251883.0,74,65.5,0,0,0,0,0,0
1778194198.120369,19.054646015167236,wait_slave,2,-0.10372522452088437,1.4210406825087094,3.929304944772345,,,,,,,,,0,0,0,954,130,251883.0,74,65.5,0,0,0,0,0,0
1778194198.197449,19.131726026535034,wait_slave,2,-0.10372522452088437,1.4210406825087094,3.929304944772345,,,,,,,,,0,0,0,957,130,251866.0,74,65.5,0,0,0,0,0,0
1778194198.265783,19.20006012916565,wait_slave,2,-0.10372522452088437,1.4210406825087094,3.929304944772345,,,,,,,,,0,0,0,961,130,251864.0,74,65.5,0,0,0,0,0,0
1778194198.33508,19.269356966018677,wait_slave,2,-0.10372522452088437,1.4210406825087094,3.929304944772345,,,,,,,,,0,0,0,964,130,251864.0,74,65.5,0,0,0,0,0,0
1778194198.4068952,19.341172218322754,wait_slave,2,-0.10372522452088437,1.4210406825087094,3.929304944772345,,,,,,,,,0,0,0,968,130,251871.0,74,65.5,0,0,0,0,0,0
1778194198.4791942,19.413471221923828,wait_slave,2,-0.10372522452088437,1.4210406825087094,3.929304944772345,,,,,,,,,0,0,0,971,130,251866.0,74,65.5,0,0,0,0,0,0
1778194198.552865,19.487142086029053,wait_slave,2,-0.10372522452088437,1.4210406825087094,3.929304944772345,,,,,,,,,0,0,0,975,130,251866.0,74,65.5,0,0,0,0,0,0
1778194198.6247108,19.558987855911255,wait_slave,2,-0.10372522452088437,1.4210406825087094,3.929304944772345,,,,,,,,,0,0,0,979,130,251875.0,73,65.5,0,0,0,0,0,0
1778194198.696322,19.63059902191162,wait_slave,2,-0.10372522452088437,1.4210406825087094,3.929304944772345,,,,,,,,,0,0,0,982,130,251871.0,73,65.5,0,0,0,0,0,0
1778194198.7681448,19.70242190361023,wait_slave,2,-0.10372522452088437,1.4210406825087094,3.929304944772345,,,,,,,,,0,0,0,986,130,251867.99999999997,73,65.5,0,0,0,0,0,0
1778194198.839108,19.773385047912598,wait_slave,2,-0.10372522452088437,1.4210406825087094,3.929304944772345,,,,,,,,,0,0,0,989,130,251867.99999999997,73,65.5,0,0,0,0,0,0
1778194198.912935,19.847212076187134,wait_slave,2,-0.10372522452088437,1.4210406825087094,3.929304944772345,,,,,,,,,0,0,0,993,130,251865.0,73,65.5,0,0,0,0,0,0
1778194198.9840052,19.91828227043152,wait_slave,2,-0.10372522452088437,1.4210406825087094,3.929304944772345,,,,,,,,,0,0,0,997,140,251865.0,73,65.5,0,0,0,0,0,0
1778194199.057354,19.991631031036377,wait_slave,2,-0.10372522452088437,1.4210406825087094,3.929304944772345,,,,,,,,,0,0,0,1000,140,251865.0,73,65.5,0,0,0,0,0,0
1778194199.128911,20.063188076019287,wait_slave,2,-0.10372522452088437,1.4210406825087094,3.929304944772345,,,,,,,,,0,0,0,1004,140,251863.0,73,65.5,0,0,0,0,0,0
1778194199.20147,20.135746955871582,wait_slave,2,-0.10372522452088437,1.4210406825087094,3.929304944772345,,,,,,,,,0,0,0,1007,140,251867.0,73,65.5,0,0,0,0,0,0
1778194199.2727401,20.207017183303833,wait_slave,2,-0.10372522452088437,1.4210406825087094,3.929304944772345,,,,,,,,,0,0,0,1011,140,251867.0,73,65.5,0,0,0,0,0,0
1778194199.344987,20.279263973236084,wait_slave,2,-0.10372522452088437,1.4210406825087094,3.929304944772345,,,,,,,,,0,0,0,1015,140,251864.0,73,65.5,0,0,0,0,0,0
1778194199.4181151,20.352392196655273,wait_slave,2,-0.10372522452088437,1.4210406825087094,3.929304944772345,,,,,,,,,0,0,0,1018,140,251875.0,73,65.5,0,0,0,0,0,0
1778194199.490301,20.424577951431274,wait_slave,2,-0.10372522452088437,1.4210406825087094,3.929304944772345,,,,,,,,,0,0,0,1022,140,251869.0,73,65.5,0,0,0,0,0,0
1778194199.562421,20.496698141098022,wait_slave,2,-0.10372522452088437,1.4210406825087094,3.929304944772345,,,,,,,,,0,0,0,1026,140,251866.0,73,65.5,0,0,0,0,0,0
1778194199.634206,20.568483114242554,wait_slave,2,-0.10372522452088437,1.4210406825087094,3.929304944772345,,,,,,,,,0,0,0,1029,140,251876.00000000003,73,65.5,0,0,0,0,0,0
1778194199.706362,20.640639066696167,wait_slave,2,-0.10372522452088437,1.4210406825087094,3.929304944772345,,,,,,,,,0,0,0,1033,140,251876.00000000003,73,65.5,0,0,0,0,0,0
1778194199.77829,20.71256709098816,wait_slave,2,-0.10372522452088437,1.4210406825087094,3.929304944772345,,,,,,,,,0,0,0,1036,140,251867.0,73,65.5,0,0,0,0,0,0
1778194199.850595,20.78487205505371,wait_slave,2,-0.10372522452088437,1.4210406825087094,3.929304944772345,,,,,,,,,0,0,0,1040,140,251867.0,73,65.5,0,0,0,0,0,0
1778194199.927281,20.861557960510254,wait_slave,2,-0.10372522452088437,1.4210406825087094,3.929304944772345,,,,,,,,,0,0,0,1044,140,251867.0,73,65.5,0,0,0,0,0,0
1778194200.0053601,20.939637184143066,wait_slave,2,-0.10372522452088437,1.4210406825087094,3.929304944772345,,,,,,,,,0,0,0,1048,140,251867.0,73,65.5,0,0,0,0,0,0
1778194200.084366,21.018643140792847,wait_slave,2,-0.10372522452088437,1.4210406825087094,3.929304944772345,,,,,,,,,0,0,0,1052,140,251867.0,73,65.5,0,0,0,0,0,0
1778194200.160715,21.09499216079712,wait_slave,2,-0.10372522452088437,1.4210406825087094,3.929304944772345,,,,,,,,,0,0,0,1056,140,251867.0,73,65.5,0,0,0,0,0,0
1778194200.237683,21.17196011543274,wait_slave,2,-0.10372522452088437,1.4210406825087094,3.929304944772345,,,,,,,,,0,0,0,1059,140,251867.0,73,65.5,0,0,0,0,0,0
1778194200.3142421,21.2485191822052,wait_slave,2,-0.10372522452088437,1.4210406825087094,3.929304944772345,,,,,,,,,0,0,0,1063,140,251867.0,73,65.5,0,0,0,0,0,0
1778194200.38889,21.323167085647583,wait_slave,2,-0.10372522452088437,1.4210406825087094,3.929304944772345,,,,,,,,,0,0,0,1067,140,251866.0,73,66.0,0,0,0,0,0,0
1778194200.460171,21.394448041915894,wait_slave,2,-0.10372522452088437,1.4210406825087094,3.929304944772345,,,,,,,,,0,0,0,1070,140,251866.0,73,66.0,0,0,0,0,0,0
1778194200.532371,21.46664810180664,wait_slave,2,-0.10372522452088437,1.4210406825087094,3.929304944772345,,,,,,,,,0,0,0,1074,140,251865.0,73,66.0,0,0,0,0,0,0
1778194200.601868,21.536144971847534,wait_slave,2,-0.10372522452088437,1.4210406825087094,3.929304944772345,,,,,,,,,0,0,0,1078,140,251865.0,73,66.0,0,0,0,0,0,0
1778194200.6736798,21.607956886291504,wait_slave,2,-0.10372522452088437,1.4210406825087094,3.929304944772345,,,,,,,,,0,0,0,1081,140,251865.0,73,66.0,0,0,0,0,0,0
1778194200.749859,21.684136152267456,wait_slave,2,-0.10372522452088437,1.4210406825087094,3.929304944772345,,,,,,,,,0,0,0,1085,140,251865.0,73,66.0,0,0,0,0,0,0
1778194200.82526,21.75953698158264,wait_slave,2,-0.10372522452088437,1.4210406825087094,3.929304944772345,,,,,,,,,0,0,0,1089,140,251865.0,73,66.0,0,0,0,0,0,0
1778194200.9009888,21.83526587486267,wait_slave,2,-0.10372522452088437,1.4210406825087094,3.929304944772345,,,,,,,,,0,0,0,1093,140,251865.0,73,66.0,0,0,0,0,0,0
1778194200.978424,21.91270112991333,wait_slave,2,-0.10372522452088437,1.4210406825087094,3.929304944772345,,,,,,,,,0,0,0,1096,140,251865.0,73,66.0,0,0,0,0,0,0
1778194201.054668,21.98894500732422,wait_slave,2,-0.10372522452088437,1.4210406825087094,3.929304944772345,,,,,,,,,0,0,0,1100,140,251865.0,73,66.0,0,0,0,0,0,0
1778194201.130462,22.064738988876343,wait_slave,2,-0.10372522452088437,1.4210406825087094,3.929304944772345,,,,,,,,,0,0,0,1104,140,251865.0,73,66.0,0,0,0,0,0,0
1778194201.2070122,22.141289234161377,wait_slave,2,-0.10372522452088437,1.4210406825087094,3.929304944772345,,,,,,,,,0,0,0,1108,140,251865.0,73,66.0,0,0,0,0,0,0
1778194201.283838,22.218115091323853,wait_slave,2,-0.10372522452088437,1.4210406825087094,3.929304944772345,,,,,,,,,0,0,0,1112,140,251865.0,73,66.0,0,0,0,0,0,0
1778194201.3599849,22.294261932373047,wait_slave,2,-0.10372522452088437,1.4210406825087094,3.929304944772345,,,,,,,,,0,0,0,1116,140,251865.0,73,66.0,0,0,0,0,0,0
