timestamp,phase,command,axis,repeat,t_send,t_since_cmd,marker_id,n_markers,pos_x,pos_y,pos_z,marker_dist,tello_height_cm,tello_baro_cm,tello_battery,tello_temp_c,tello_pitch,tello_roll,tello_yaw,tello_vgx,tello_vgy,tello_vgz,tello_agx,tello_agy,tello_agz
1777583316.8091688,init_hover,none,-,0,,,2,3,0.7407133495609685,0.40676684234818583,2.9427445634438127,3.1028423053492626,30,254656.0,84,66.0,0,-1,1,0,0,-8,-4.0,15.0,-977.0
1777583317.0078862,init_hover,none,-,0,,,2,3,1.1403940099329872,0.5104194515147981,2.9549015373104313,3.0958997408521665,50,254665.0,84,65.5,0,0,0,0,0,-7,-23.0,31.0,-919.0
1777583317.056764,init_hover,none,-,0,,,2,3,0.811153950311094,0.49556739058839133,2.951149161858678,3.094308435142897,50,254673.99999999997,84,65.5,0,-1,0,0,0,-6,10.0,0.0,-879.0
1777583317.106433,init_hover,none,-,0,,,2,3,0.8362154396925301,0.5366408879361882,2.9495836549678036,3.0897392804538266,50,254673.99999999997,84,65.5,0,-1,0,0,0,-6,10.0,0.0,-879.0
1777583317.1554801,init_hover,none,-,0,,,2,3,1.1091527485030586,0.5738852367958128,2.9450733819035193,3.091568986949426,60,254680.00000000003,84,65.5,0,-1,0,0,0,-5,-7.0,5.0,-885.0
1777583317.204465,init_hover,none,-,0,,,2,3,0.8487243781819322,0.5725810547915406,2.924922161692589,3.0856919040933612,60,254680.00000000003,84,65.5,0,-1,0,0,0,-5,-7.0,5.0,-885.0
1777583317.255095,init_hover,none,-,0,,,2,3,0.857624879527211,0.5728317189430449,2.938919285692027,3.083935944546299,60,254685.0,84,65.5,0,0,0,0,0,-4,2.0,5.0,-875.0
1777583317.305996,init_hover,none,-,0,,,2,3,0.9617522990898755,0.6430786449426316,2.9539131585587897,3.09133815928455,60,254685.0,84,65.5,0,0,0,0,0,-4,2.0,5.0,-875.0
1777583317.368337,init_hover,none,-,0,,,2,3,1.0040559862036904,0.6770403808487572,2.956690906900979,3.086794079545413,70,254680.00000000003,84,65.5,0,0,0,0,0,-3,12.0,-4.0,-900.0
1777583317.419188,init_hover,none,-,0,,,2,3,1.1350700972557681,0.6614482435021761,2.9296106649500384,3.074387181265244,70,254680.00000000003,84,65.5,0,0,0,0,0,-3,12.0,-4.0,-900.0
1777583317.4695702,init_hover,none,-,0,,,2,3,1.0236535739487933,0.6882622423349591,2.9432984377971296,3.0769674003291647,70,254685.0,84,65.5,0,0,0,0,0,-2,-22.0,27.0,-913.0
1777583317.5203981,init_hover,none,-,0,,,2,3,1.0770856173743095,0.6465295893814694,2.9249005492114697,3.068018580875957,70,254685.0,84,65.5,0,0,0,0,0,-2,-22.0,27.0,-913.0
1777583317.5715132,init_hover,none,-,0,,,2,3,1.1167948933931184,0.7039168891219871,2.9282351121991628,3.065513146717747,70,254683.0,84,65.5,0,0,0,0,0,-1,-11.0,14.0,-938.0
1777583317.621973,init_hover,none,-,0,,,2,3,1.1793930256897274,0.7084537592138502,2.9246035725325474,3.0607516534076034,70,254683.0,84,65.5,0,0,0,0,0,-1,-11.0,14.0,-938.0
1777583317.6729522,init_hover,none,-,0,,,2,3,1.1135914652630876,0.7086039467953057,2.9086827745843498,3.0509369928599255,70,254684.0,84,65.5,0,0,0,0,0,0,-21.0,31.0,-969.0
1777583317.7232032,init_hover,none,-,0,,,2,3,1.136742231794509,0.6341756077704821,2.907875716893373,3.0457705452791863,70,254684.0,84,65.5,0,0,0,0,0,0,-21.0,31.0,-969.0
1777583317.773613,init_hover,none,-,0,,,2,3,1.1540338499580898,0.7196062581673017,2.898592030781534,3.038609332070519,70,254689.0,84,65.5,0,0,0,0,0,0,-22.0,22.0,-962.0
1777583317.824067,init_hover,none,-,0,,,2,3,1.1220505572203638,0.7129755479847057,2.8978273450310374,3.0353598702784104,70,254689.0,84,65.5,0,0,0,0,0,0,-22.0,22.0,-962.0
1777583317.874047,init_hover,none,-,0,,,2,3,1.1882392152694838,0.698018311452739,2.8826039879490972,3.025540657144816,70,254689.0,84,66.0,0,0,0,0,0,0,-2.0,14.0,-985.0
1777583317.924236,init_hover,none,-,0,,,2,3,1.1782368990733356,0.725469255682647,2.872697999235309,3.017200191715288,70,254689.0,84,66.0,0,0,0,0,0,0,-2.0,14.0,-985.0
1777583317.974747,init_hover,none,-,0,,,2,3,1.1334189551918303,0.7338778224043725,2.8640573517410397,3.011011046741722,70,254680.00000000003,84,66.0,0,0,0,0,0,0,-5.0,-4.0,-997.0
1777583318.0256991,init_hover,none,-,0,,,2,3,1.189029083087635,0.6879643651598767,2.852916835431679,3.002719702403087,70,254680.00000000003,84,66.0,0,0,0,0,0,0,-5.0,-4.0,-997.0
1777583318.0765529,init_hover,none,-,0,,,2,3,1.2137002273054762,0.6786323091979887,2.8323711011335715,2.988339821933721,70,254687.0,83,66.0,0,0,0,0,0,0,-16.0,12.0,-1012.0
1777583318.127157,init_hover,none,-,0,,,2,3,1.2100865028904697,0.6753794620616451,2.8370447905533256,2.986047640108996,70,254687.0,83,66.0,0,0,0,0,0,0,-16.0,12.0,-1012.0
1777583318.1786351,init_hover,none,-,0,,,2,3,1.3556811989885433,0.8051546820154502,2.7645132328928277,2.963406914067798,70,254687.0,83,66.0,0,0,0,0,0,0,-16.0,12.0,-1012.0
1777583318.230068,init_hover,none,-,0,,,,,,,,,70,254689.0,83,66.0,0,0,0,0,0,0,-18.0,8.0,-1015.0
1777583318.280201,init_hover,none,-,0,,,,,,,,,70,254686.0,83,66.0,0,0,0,0,0,0,-22.0,9.0,-1016.0
1777583318.331551,init_hover,none,-,0,,,,,,,,,70,254686.0,83,66.0,0,0,0,0,0,0,-22.0,9.0,-1016.0
1777583318.38194,init_hover,none,-,0,,,2,2,1.2152387432351663,0.7420992931952437,2.7989928595011033,2.8845410089383416,70,254691.0,83,66.0,0,0,0,0,0,0,-6.0,2.0,-1021.0
1777583318.432265,init_hover,none,-,0,,,2,2,1.267888444258675,0.7260718004806708,2.7722087213357582,2.8715686406483263,70,254691.0,83,66.0,0,0,0,0,0,0,-6.0,2.0,-1021.0
1777583318.482851,init_hover,none,-,0,,,2,2,1.3113146650605385,0.7113322047330952,2.7807398069666895,2.8662830552709933,70,254688.0,83,66.0,0,0,0,0,0,0,-15.0,19.0,-1018.0
1777583318.5333571,init_hover,none,-,0,,,2,2,1.322902015212576,0.7091702069647129,2.775392824506621,2.8600460477356062,70,254688.0,83,66.0,0,0,0,0,0,0,-15.0,19.0,-1018.0
1777583318.5846689,init_hover,none,-,0,,,2,2,1.3409857888200265,0.7005104837626552,2.7454511939312884,2.840270802158721,70,254683.0,83,66.0,0,0,0,0,0,0,-27.0,5.0,-1002.0
1777583318.635516,init_hover,none,-,0,,,2,2,1.365531624527625,0.7144106525485161,2.748086672723795,2.8373842428713294,70,254683.0,83,66.0,0,0,0,0,0,0,-27.0,5.0,-1002.0
1777583318.686166,init_hover,none,-,0,,,2,2,1.3576450316005986,0.7654215397377299,2.7466046753603433,2.8288636385066375,70,254689.0,83,66.0,0,0,0,0,0,0,-4.0,5.0,-1007.0
1777583318.7355928,init_hover,none,-,0,,,2,2,1.379632523049013,0.7595627815451065,2.751706874234079,2.827970927077505,70,254689.0,83,66.0,0,0,0,0,0,0,-4.0,5.0,-1007.0
1777583318.7862651,init_hover,none,-,0,,,2,2,1.392350697467894,0.7367517509329242,2.745821070217653,2.81963428304127,70,254694.99999999997,83,66.0,0,0,0,0,0,0,-29.0,6.0,-990.0
1777583318.8375611,init_hover,none,-,0,,,2,2,1.3476891083697442,0.7607438625375745,2.718792364684406,2.806616054022831,70,254694.99999999997,83,66.0,0,0,0,0,0,0,-29.0,6.0,-990.0
1777583318.8889642,init_hover,none,-,0,,,2,2,1.4312659530838752,0.7614752606121233,2.7240675016533884,2.805075750136437,70,254694.99999999997,83,66.0,0,0,0,0,0,0,-29.0,6.0,-990.0
1777583318.9411142,init_hover,none,-,0,,,2,2,1.4312659530838752,0.7614752606121233,2.7240675016533884,2.805075750136437,70,254694.99999999997,83,66.0,0,0,0,0,0,0,-29.0,6.0,-990.0
1777583318.9931111,init_hover,none,-,0,,,2,2,1.4387491314612362,0.7702059754284634,2.700581966535908,2.7830800338910113,80,254701.00000000003,83,65.5,0,0,0,0,0,0,-27.0,-7.0,-974.0
1777583319.0436008,init_hover,none,-,0,,,2,2,1.4387491314612362,0.7702059754284634,2.700581966535908,2.7830800338910113,80,254701.00000000003,83,65.5,0,0,0,0,0,0,-27.0,-7.0,-974.0
1777583319.095695,init_hover,none,-,0,,,2,2,1.490844667078212,0.7893338826974425,2.695812535711853,2.7797378871277694,80,254701.00000000003,83,65.5,0,0,0,0,0,0,-27.0,-7.0,-974.0
1777583319.146865,init_hover,none,-,0,,,4,2,1.4853387578468311,0.7681323304834053,2.6715670620974876,2.7592115909617174,80,254701.00000000003,83,65.5,0,0,0,0,0,0,-27.0,-7.0,-974.0
1777583319.196939,init_hover,none,-,0,,,4,2,1.4853387578468311,0.7681323304834053,2.6715670620974876,2.7592115909617174,80,254701.00000000003,83,65.5,0,0,0,0,0,0,-27.0,-7.0,-974.0
1777583319.2485309,init_hover,none,-,0,,,4,2,1.517829676778038,0.7872990941788849,2.659284809547307,2.746385664831927,80,254701.00000000003,83,65.5,0,0,0,0,0,0,-27.0,-7.0,-974.0
1777583319.299565,init_hover,none,-,0,,,4,2,1.5713479281455869,0.7642980959154337,2.6504598282687644,2.7360827661806706,80,254701.00000000003,83,65.5,0,0,0,0,0,0,-27.0,-7.0,-974.0
1777583319.350417,init_hover,none,-,0,,,4,2,1.5713479281455869,0.7642980959154337,2.6504598282687644,2.7360827661806706,80,254701.00000000003,83,65.5,0,0,0,0,0,0,-27.0,-7.0,-974.0
1777583319.400795,init_hover,none,-,0,,,4,2,1.6046201649867284,0.8134824578252677,2.640285531706282,2.72950632779596,80,254696.0,83,65.5,0,0,0,0,0,0,3.0,-10.0,-993.0
1777583319.4519942,init_hover,none,-,0,,,4,2,1.63358608197901,0.7902324017754299,2.627426834068816,2.7202724124799866,80,254696.0,83,65.5,0,0,0,0,0,0,3.0,-10.0,-993.0
1777583319.502892,init_hover,none,-,0,,,4,2,1.6641052502051354,0.7355849691422909,2.6181209472450697,2.711583535330282,80,254696.0,83,65.5,0,0,0,0,0,0,3.0,-10.0,-993.0
1777583319.552968,init_hover,none,-,0,,,4,2,1.6847823745967818,0.7802953324204438,2.615789940528077,2.7069717960558966,80,254687.0,83,65.5,0,0,0,0,0,0,-19.0,8.0,-987.0
1777583319.603779,init_hover,none,-,0,,,4,2,1.7338460528978201,0.8025275251813548,2.606588032074254,2.700177700435172,80,254687.0,83,65.5,0,0,0,0,0,0,-19.0,8.0,-987.0
1777583319.6545768,init_hover,none,-,0,,,4,2,1.7575711442760293,0.7976818150869792,2.5930642207596795,2.695311502592028,80,254694.0,83,65.5,0,0,0,0,0,0,-12.0,-12.0,-975.0
1777583319.706142,init_hover,none,-,0,,,4,2,1.7706060923383657,0.7649473910923587,2.5908632265413143,2.6918307162338593,80,254694.0,83,65.5,0,0,0,0,0,0,-12.0,-12.0,-975.0
1777583319.756585,init_hover,none,-,0,,,4,2,1.8115347381736753,0.7982250261619374,2.5839448247277037,2.685977721171211,80,254691.0,83,65.5,0,0,0,0,0,0,-38.0,2.0,-987.0
1777583319.80703,init_hover,none,-,0,,,4,2,1.820056624798894,0.7724474107738766,2.583870903309866,2.6837829819189345,80,254691.0,83,65.5,0,0,0,0,0,0,-38.0,2.0,-987.0
1777583319.857322,init_hover,none,-,0,,,4,2,1.8417703562611778,0.7771169787919151,2.5669930480685887,2.676376082730341,80,254698.0,83,66.0,0,0,0,0,0,0,-1.0,-17.0,-995.0
1777583319.908004,init_hover,none,-,0,,,4,2,1.8632467601541967,0.8377354124464,2.5506791189854967,2.6693399303341283,80,254698.0,83,66.0,0,0,0,0,0,0,-1.0,-17.0,-995.0
1777583319.958422,init_hover,none,-,0,,,4,2,1.871278871732092,0.8348895212399523,2.5464729491049436,2.667906042400607,80,254688.0,83,66.0,0,0,0,0,0,0,-33.0,-12.0,-980.0
1777583320.009016,init_hover,none,-,0,,,4,2,1.9268261870648256,0.8317690699654596,2.5336422177009355,2.659639415196348,80,254688.0,83,66.0,0,0,0,0,0,0,-33.0,-12.0,-980.0
1777583320.059615,init_hover,none,-,0,,,4,2,1.94567626523511,0.7985492484071257,2.5376434859951513,2.6584869249803957,80,254691.0,82,66.0,0,0,0,0,0,0,1.0,-18.0,-988.0
1777583320.110662,init_hover,none,-,0,,,4,2,1.9978257249240983,0.7559736474662541,2.5297430517855757,2.6545708580442806,80,254691.0,82,66.0,0,0,0,0,0,0,1.0,-18.0,-988.0
1777583320.161396,init_hover,none,-,0,,,4,2,2.0249712609251485,0.7086187969318121,2.5423758095158315,2.6605077360592593,80,254694.0,82,66.0,0,0,0,0,0,0,-12.0,4.0,-998.0
1777583320.211482,init_hover,none,-,0,,,4,1,2.100907492158482,0.5854591397124161,2.548418451291505,2.5571495883814808,80,254694.0,82,66.0,0,0,0,0,0,0,-12.0,4.0,-998.0
1777583320.261716,init_hover,none,-,0,,,4,1,1.9945189248252244,0.7665999025729693,2.518206071557785,2.5447568350595065,80,254694.0,82,66.0,0,0,0,0,0,0,-3.0,-17.0,-1010.0
1777583320.312433,init_hover,none,-,0,,,4,1,2.1503623382016275,0.7350615997612758,2.5072576734859022,2.534011868487988,80,254694.0,82,66.0,0,0,0,0,0,0,-3.0,-17.0,-1010.0
1777583320.363335,init_hover,none,-,0,,,4,1,2.1118665552391365,0.8130207140328778,2.4860460582362056,2.5226028700675567,80,254696.99999999997,82,66.0,0,0,0,0,0,0,8.0,-14.0,-1002.0
1777583320.4140348,init_hover,none,-,0,,,4,1,2.216748381694237,0.7436322760783705,2.479775593673547,2.512837041494904,80,254696.99999999997,82,66.0,0,0,0,0,0,0,8.0,-14.0,-1002.0
1777583320.463928,init_hover,none,-,0,,,4,1,2.216748381694237,0.7436322760783705,2.479775593673547,2.512837041494904,80,254692.0,82,66.0,0,0,0,0,0,0,-13.0,2.0,-996.0
1777583320.514905,init_hover,none,-,0,,,4,1,2.2790155138422916,0.7157433713258902,2.4749325544574217,2.5105446983899835,80,254692.0,82,66.0,0,0,0,0,0,0,-13.0,2.0,-996.0
1777583320.5659242,init_hover,none,-,0,,,4,1,2.227931876478313,0.771330794590745,2.465714742267359,2.5039146729792745,80,254698.0,82,66.0,0,0,0,0,0,0,-15.0,-24.0,-979.0
1777583320.617307,init_hover,none,-,0,,,4,1,2.2430814963122856,0.8019946487903005,2.4495354101553204,2.494175622747975,80,254698.0,82,66.0,0,0,0,0,0,0,-15.0,-24.0,-979.0
1777583320.6675909,init_hover,none,-,0,,,4,1,2.2421099609300734,0.7895086425008144,2.448198405767559,2.4907849465112815,80,254701.00000000003,82,66.0,0,0,0,0,0,0,-26.0,-6.0,-1007.0
1777583320.7175648,init_hover,none,-,0,,,4,1,2.3515502309838103,0.7522688838166147,2.4351570635048034,2.485492075092478,80,254701.00000000003,82,66.0,0,0,0,0,0,0,-26.0,-6.0,-1007.0
1777583320.768335,init_hover,none,-,0,,,4,1,2.4015139751561003,0.7400007163560105,2.4258102315238097,2.482210554875201,80,254703.00000000003,82,66.0,0,0,0,0,0,0,6.0,-15.0,-1004.0
1777583320.819309,init_hover,none,-,0,,,4,1,2.3241302263288075,0.8114935123222894,2.4257952234176354,2.4817070294978643,80,254703.00000000003,82,66.0,0,0,0,0,0,0,6.0,-15.0,-1004.0
1777583320.8706539,init_hover,none,-,0,,,4,1,2.37319200217529,0.7951788933047141,2.419994893481122,2.480285046658115,80,254698.0,82,66.5,0,0,0,0,0,0,6.0,-28.0,-998.0
1777583320.921924,init_hover,none,-,0,,,4,1,2.4692201747789166,0.7695608091972241,2.39533116687279,2.4686745761858173,80,254698.0,82,66.5,0,0,0,0,0,0,6.0,-28.0,-998.0
1777583320.97197,init_hover,none,-,0,,,4,1,2.5167058831220874,0.7842375529830369,2.378893985556128,2.4644999617144423,80,254691.0,82,66.5,0,0,0,0,0,0,-5.0,-4.0,-1021.0
1777583321.019413,init_hover,none,-,0,,,4,1,2.4857820616866775,0.8090161337962435,2.3883482299838694,2.471332773389547,80,254691.0,82,66.5,0,0,0,0,0,0,-5.0,-4.0,-1021.0
1777583321.0670469,init_hover,none,-,0,,,4,1,2.6068847803826607,0.7405233878538153,2.3637917927039047,2.4640975941690884,80,254688.0,82,66.5,0,0,0,0,0,0,-11.0,-7.0,-991.0
1777583321.114679,init_hover,none,-,0,,,4,1,2.584767097256867,0.7813150046185069,2.364603985343311,2.465503132888479,80,254688.0,82,66.5,0,0,0,0,0,0,-11.0,-7.0,-991.0
1777583321.1623769,init_hover,none,-,0,,,4,1,2.6233478370831427,0.7721996886195535,2.353902706501793,2.463321555518319,80,254688.0,82,66.5,0,0,0,0,0,0,-11.0,-7.0,-991.0
1777583321.21586,init_hover,none,-,0,,,4,1,2.6633510415603534,0.7855680397740445,2.334071749725698,2.456946936851097,80,254702.0,82,66.5,0,0,0,0,0,0,3.0,-28.0,-983.0
1777583321.267637,init_hover,none,-,0,,,4,1,2.6425337058204255,0.7993892293067606,2.3400022441899333,2.459262454968054,80,254702.0,82,66.5,0,0,0,0,0,0,3.0,-28.0,-983.0
1777583321.319554,init_hover,none,-,0,,,4,1,2.6932996395367574,0.7816734512876837,2.327944933513445,2.4587937341449706,80,254706.0,82,66.5,0,0,0,0,0,0,8.0,-13.0,-990.0
1777583321.3710752,init_hover,none,-,0,,,4,1,2.731529509092244,0.7758249190600022,2.3159759252147567,2.4576664294882544,80,254700.0,82,66.5,0,0,0,0,0,0,-14.0,-25.0,-1014.0
1777583321.4222589,init_hover,none,-,0,,,4,1,2.7774018681185404,0.7989595258634018,2.296915766389769,2.4575077631049806,80,254700.0,82,66.5,0,0,0,0,0,0,-14.0,-25.0,-1014.0
1777583321.471711,init_hover,none,-,0,,,4,1,2.7774018681185404,0.7989595258634018,2.296915766389769,2.4575077631049806,80,254700.0,82,66.5,0,0,0,0,0,0,-14.0,-25.0,-1014.0
1777583321.522378,init_hover,none,-,0,,,4,1,2.845817222629143,0.7854256962063398,2.2746166264449115,2.457201770040842,80,254703.00000000003,82,66.5,0,0,0,0,0,0,-22.0,-10.0,-997.0
1777583321.571928,init_hover,none,-,0,,,4,1,2.846361624351715,0.8223557527022689,2.2681344052596417,2.457467407991097,80,254703.00000000003,82,66.5,0,0,0,0,0,0,-22.0,-10.0,-997.0
1777583321.622633,init_hover,none,-,0,,,4,1,2.852736922137759,0.8169990871260538,2.282490625050954,2.472005653409077,80,254696.0,82,66.5,0,0,0,0,0,0,-5.0,-21.0,-990.0
1777583321.673087,init_hover,none,-,0,,,4,1,2.902509936038613,0.8034012119617346,2.2688688057878554,2.4748782556598266,80,254696.0,82,66.5,0,0,0,0,0,0,-5.0,-21.0,-990.0
1777583321.723615,init_hover,none,-,0,,,4,1,2.9365602169626035,0.7990572175577548,2.2566890588875688,2.475689239663338,80,254702.0,82,66.5,0,0,0,0,0,0,2.0,-28.0,-1024.0
1777583321.7747042,init_hover,none,-,0,,,,,,,,,80,254702.0,82,66.5,0,0,0,0,0,0,2.0,-28.0,-1024.0
1777583327.832312,pre_hover,right,x,1,,,,,,,,,80,254698.0,79,66.5,0,-1,0,0,0,0,17.0,1.0,-979.0
1777583327.882498,pre_hover,right,x,1,,,,,,,,,80,254698.0,79,66.5,0,-1,0,0,0,0,17.0,1.0,-979.0
1777583327.932346,pre_hover,right,x,1,,,,,,,,,80,254700.0,79,67.5,0,-1,0,0,0,0,11.0,-12.0,-990.0
