timestamp,phase,command,axis,repeat,t_send,t_since_cmd,marker_id,pos_x,pos_y,pos_z,marker_dist,tello_height_cm,tello_baro_cm,tello_battery,tello_temp_c,tello_pitch,tello_roll,tello_yaw,tello_vgx,tello_vgy,tello_vgz,tello_agx,tello_agy,tello_agz
1777477477.9490628,init_hover,none,-,0,,,2,0.7522870661011372,0.7657683931131287,2.252097230603885,2.295014194098814,70,249284.0,58,80.5,0,0,-4,0,0,0,-4.0,22.0,-986.0
1777477478.127584,init_hover,none,-,0,,,2,0.7093539485720886,0.7602990650609939,2.2482694267337315,2.2954315408393433,70,249285.0,58,80.5,0,0,-4,0,0,0,-10.0,36.0,-985.0
1777477478.17903,init_hover,none,-,0,,,2,0.7093539485720886,0.7602990650609939,2.2482694267337315,2.2954315408393433,70,249285.0,58,80.5,0,0,-4,0,0,0,-10.0,36.0,-985.0
1777477478.229154,init_hover,none,-,0,,,2,0.7097853068484543,0.7619192287855439,2.2478433813059264,2.2952145788937965,70,249296.99999999997,58,80.5,0,0,-4,0,0,0,-9.0,28.0,-978.0
1777477478.279302,init_hover,none,-,0,,,2,0.7703868699480997,0.8553375566560618,2.232692958941637,2.2901904569055618,70,249296.99999999997,58,80.5,0,0,-4,0,0,0,-9.0,28.0,-978.0
1777477478.330485,init_hover,none,-,0,,,2,0.711804670786009,0.7209416731364746,2.2601163403456987,2.300909815102286,70,249288.0,58,80.0,0,0,-4,0,0,0,-14.0,26.0,-994.0
1777477478.3801239,init_hover,none,-,0,,,2,0.7811840725294764,0.8211778534183489,2.247258210889702,2.296832745485848,70,249288.0,58,80.0,0,0,-4,0,0,0,-14.0,26.0,-994.0
1777477478.4361,init_hover,none,-,0,,,2,0.7495817041088478,0.772766545575271,2.254872955986356,2.2991555554280785,70,249285.0,58,80.0,0,0,-4,0,0,0,-15.0,26.0,-1009.0
1777477478.486506,init_hover,none,-,0,,,2,0.7495817041088478,0.772766545575271,2.254872955986356,2.2991555554280785,70,249285.0,58,80.0,0,0,-4,0,0,0,-15.0,26.0,-1009.0
1777477478.5354419,init_hover,none,-,0,,,2,0.7938551453736463,0.7845034973700798,2.261648890036897,2.3033441649879145,70,249286.0,58,80.0,0,0,-4,0,0,0,-18.0,21.0,-1015.0
1777477478.5852978,init_hover,none,-,0,,,2,0.7827797445962038,0.8231547163424052,2.2465087958587375,2.2963114604058363,70,249286.0,58,80.0,0,0,-4,0,0,0,-18.0,21.0,-1015.0
1777477478.634728,init_hover,none,-,0,,,2,0.7929860372874694,0.7844291476119741,2.2613424388319734,2.3031088067987913,70,249285.0,58,80.0,0,0,-4,0,0,0,2.0,5.0,-1022.0
1777477478.6835022,init_hover,none,-,0,,,2,0.7810471320060532,0.8230926035415076,2.2460354200723542,2.296001484710736,70,249285.0,58,80.0,0,0,-4,0,0,0,2.0,5.0,-1022.0
1777477478.73207,init_hover,none,-,0,,,2,0.7496679731183093,0.774835725760276,2.2537201576435484,2.298352125753969,70,249285.0,58,80.0,0,0,-4,0,0,0,2.0,5.0,-1022.0
1777477478.781033,init_hover,none,-,0,,,2,0.7428742800047268,0.8136314349904752,2.2454990650483326,2.2977098709428705,70,249285.0,58,80.0,0,0,-4,0,0,0,19.0,12.0,-992.0
1777477478.828065,init_hover,none,-,0,,,2,0.7937206763304807,0.7866110434594789,2.2604438522409342,2.30252593197823,70,249285.0,58,80.0,0,0,-4,0,0,0,19.0,12.0,-992.0
1777477478.878381,init_hover,none,-,0,,,2,0.7432896095548147,0.8143753336183818,2.245063944236501,2.29737225006846,70,249291.0,58,80.0,0,0,-4,0,0,0,-5.0,8.0,-989.0
1777477478.928096,init_hover,none,-,0,,,2,0.7789889806107856,0.827286195436912,2.250283758302019,2.301129365416093,70,249291.0,58,80.0,0,0,-4,0,0,0,-5.0,8.0,-989.0
1777477478.9790258,init_hover,none,-,0,,,2,0.7510024376771409,0.7767389077776039,2.2591681671405723,2.3038604120253208,70,249287.0,58,80.0,0,0,-4,0,0,0,0.0,35.0,-987.0
1777477479.02829,init_hover,none,-,0,,,2,0.7833930086050958,0.8260274427925518,2.251019588738724,2.301196897186107,70,249287.0,58,80.0,0,0,-4,0,0,0,0.0,35.0,-987.0
1777477479.078756,init_hover,none,-,0,,,2,0.8073759408523656,0.7450134343262408,2.27491092096664,2.308973364151562,70,249279.0,58,80.0,0,0,-4,0,0,0,4.0,33.0,-991.0
1777477479.1295528,init_hover,none,-,0,,,2,0.780692450501228,0.82899034000895,2.2496405042179433,2.300654452825568,70,249279.0,58,80.0,0,0,-4,0,0,0,4.0,33.0,-991.0
1777477479.180732,init_hover,none,-,0,,,2,0.7837211938932158,0.8267935031770453,2.2505562994753854,2.300854813636325,70,249284.0,58,80.0,0,0,-4,0,0,0,5.0,15.0,-991.0
1777477479.232395,init_hover,none,-,0,,,2,0.7796793600085589,0.8288149155327273,2.2493610561822552,2.3004452997754434,70,249290.0,58,80.0,0,-1,-4,0,0,0,15.0,-1.0,-1025.0
1777477479.281352,init_hover,none,-,0,,,2,0.7922873535882375,0.791648874813418,2.264397151438036,2.3073854996646497,70,249290.0,58,80.0,0,-1,-4,0,0,0,15.0,-1.0,-1025.0
1777477479.330131,init_hover,none,-,0,,,2,0.803466867135725,0.8799875081445883,2.243308198493135,2.3024866891504097,70,249288.0,58,80.0,0,0,-4,0,0,0,18.0,14.0,-967.0
1777477479.3782341,init_hover,none,-,0,,,2,0.7806127506133926,0.8302445166220902,2.2551721148604615,2.3063049184617817,70,249288.0,58,80.0,0,0,-4,0,0,0,18.0,14.0,-967.0
1777477479.4252439,init_hover,none,-,0,,,2,0.7908329883543856,0.7916234728416904,2.2639973730016374,2.3071202587207407,70,249287.0,58,80.0,0,0,-4,0,0,0,23.0,8.0,-967.0
1777477479.47404,init_hover,none,-,0,,,2,0.7124640380670045,0.7296816273400799,2.2688747969277183,2.31066218840923,70,249287.0,58,80.0,0,0,-4,0,0,0,23.0,8.0,-967.0
1777477479.525423,init_hover,none,-,0,,,2,0.7547539185882675,0.7384061478358779,2.2775391419138367,2.315566648639279,70,249279.0,58,80.0,0,0,-4,0,0,0,19.0,-1.0,-966.0
1777477479.576674,init_hover,none,-,0,,,2,0.7482248058336409,0.7807460138736251,2.263250195932044,2.308822150981881,70,249279.0,58,80.0,0,0,-4,0,0,0,19.0,-1.0,-966.0
1777477479.629504,init_hover,none,-,0,,,2,0.792659062946559,0.792477701375403,2.2639480389088305,2.3070521739081364,70,249285.0,58,80.0,0,0,-4,0,0,0,1.0,14.0,-995.0
1777477479.6804821,init_hover,none,-,0,,,2,0.7109515077001287,0.772058742372187,2.2555076443783437,2.3041899818646785,70,249285.0,58,80.0,0,0,-4,0,0,0,1.0,14.0,-995.0
1777477479.7315168,init_hover,none,-,0,,,2,0.7535993869207529,0.7790045203363629,2.2645451502823026,2.309225503546226,70,249280.00000000003,58,80.0,0,0,-4,0,0,0,-13.0,23.0,-1008.0
1777477479.781769,init_hover,none,-,0,,,2,0.7535993869207529,0.7790045203363629,2.2645451502823026,2.309225503546226,70,249280.00000000003,58,80.0,0,0,-4,0,0,0,-13.0,23.0,-1008.0
1777477479.831746,init_hover,none,-,0,,,2,0.7809463731900025,0.8309814808371287,2.2547238578363524,2.305972507064996,70,249277.0,58,80.0,0,0,-4,0,0,0,-16.0,32.0,-1003.0
1777477479.8812978,init_hover,none,-,0,,,2,0.7809463731900025,0.8309814808371287,2.2547238578363524,2.305972507064996,70,249277.0,58,80.0,0,0,-4,0,0,0,-16.0,32.0,-1003.0
1777477479.931988,init_hover,none,-,0,,,2,0.7935057062530505,0.7938535776282853,2.2697780271682,2.312931651946555,70,249283.0,58,80.0,0,-1,-4,0,0,0,-6.0,35.0,-994.0
1777477479.982357,init_hover,none,-,0,,,2,0.7935057062530505,0.7938535776282853,2.2697780271682,2.312931651946555,70,249283.0,58,80.0,0,-1,-4,0,0,0,-6.0,35.0,-994.0
1777477480.032844,init_hover,none,-,0,,,2,0.7935057062530505,0.7938535776282853,2.2697780271682,2.312931651946555,70,249284.0,58,80.0,0,0,-4,0,0,0,-16.0,34.0,-970.0
1777477480.081672,init_hover,none,-,0,,,2,0.7935057062530505,0.7938535776282853,2.2697780271682,2.312931651946555,70,249284.0,58,80.0,0,0,-4,0,0,0,-16.0,34.0,-970.0
1777477480.132531,init_hover,none,-,0,,,2,0.7935057062530505,0.7938535776282853,2.2697780271682,2.312931651946555,70,249281.0,58,80.0,0,0,-4,0,0,0,-14.0,30.0,-1018.0
1777477480.182644,init_hover,none,-,0,,,2,0.7902989390078942,0.796470993086041,2.275001054049567,2.318791404862992,70,249281.0,58,80.0,0,0,-4,0,0,0,-14.0,30.0,-1018.0
1777477480.23238,init_hover,none,-,0,,,2,0.7943751558459504,0.7935550813658481,2.270016504572617,2.3130374207163915,70,249283.0,58,80.0,0,-1,-4,0,0,0,4.0,11.0,-991.0
1777477480.283065,init_hover,none,-,0,,,2,0.7943751558459504,0.7935550813658481,2.270016504572617,2.3130374207163915,70,249283.0,58,80.0,0,-1,-4,0,0,0,4.0,11.0,-991.0
1777477480.333471,init_hover,none,-,0,,,2,0.7802944099762178,0.8343274931057552,2.260011904495735,2.311831465746945,70,249288.0,58,80.0,0,-1,-4,0,0,0,-9.0,20.0,-1002.0
1777477480.382495,init_hover,none,-,0,,,2,0.7507424663893532,0.7810753549885809,2.2697749506669918,2.315000231299488,70,249288.0,58,80.0,0,-1,-4,0,0,0,-9.0,20.0,-1002.0
1777477480.4327328,init_hover,none,-,0,,,2,0.7797448697781789,0.8331494811864486,2.2604218966912146,2.312063568867048,70,249289.0,58,80.0,0,0,-4,0,0,0,-6.0,5.0,-1008.0
1777477480.482392,init_hover,none,-,0,,,2,0.7576824961810673,0.7385716444501689,2.278008061952945,2.315743781467488,70,249289.0,58,80.0,0,0,-4,0,0,0,-6.0,5.0,-1008.0
1777477480.5325341,init_hover,none,-,0,,,2,0.7948843013565824,0.7920450998575145,2.270657725935397,2.3133651502740276,70,249296.0,58,80.0,0,0,-4,0,0,0,5.0,15.0,-1000.0
1777477480.582277,init_hover,none,-,0,,,2,0.781609445326726,0.8330992172069787,2.2609425975266815,2.3123863854525903,70,249296.0,58,80.0,0,0,-4,0,0,0,5.0,15.0,-1000.0
1777477480.6323571,init_hover,none,-,0,,,2,0.7958068538660527,0.792158374984232,2.2709530100963193,2.31359257564159,70,249288.0,58,80.0,0,0,-4,0,0,0,0.0,17.0,-973.0
1777477480.682438,init_hover,none,-,0,,,2,0.7935033691862703,0.7907393924397788,2.264737738842723,2.3074564258247823,70,249288.0,58,80.0,0,0,-4,0,0,0,0.0,17.0,-973.0
1777477480.733163,init_hover,none,-,0,,,2,0.745145188256007,0.818623139603153,2.2562805679107716,2.3088954738601792,70,249294.99999999997,58,80.0,0,0,-4,0,0,0,0.0,20.0,-994.0
1777477480.783134,init_hover,none,-,0,,,2,0.7590066219775785,0.7368459193845058,2.278993752498349,2.316323704835565,70,249294.99999999997,58,80.0,0,0,-4,0,0,0,0.0,20.0,-994.0
1777477480.833199,init_hover,none,-,0,,,2,0.7590066219775785,0.7368459193845058,2.278993752498349,2.316323704835565,70,249288.0,58,80.0,0,0,-4,0,0,0,-3.0,19.0,-977.0
1777477480.884011,init_hover,none,-,0,,,2,0.7950076200049637,0.7893489612497784,2.2657046085266166,2.3080363650906928,70,249288.0,58,80.0,0,0,-4,0,0,0,-3.0,19.0,-977.0
1777477480.934537,init_hover,none,-,0,,,2,0.7537398312765322,0.7781278252868613,2.2656765306997704,2.31017637091189,70,249281.0,58,80.0,0,0,-4,0,0,0,15.0,21.0,-1004.0
1777477480.983545,init_hover,none,-,0,,,2,0.7579451169552356,0.7753893375096599,2.26706561697717,2.310648011446536,70,249281.0,58,80.0,0,0,-4,0,0,0,15.0,21.0,-1004.0
1777477481.033534,init_hover,none,-,0,,,2,0.7583675545717026,0.7753739548923894,2.2610294976878946,2.304679204164863,70,249283.0,58,80.0,0,0,-4,0,0,0,0.0,-3.0,-1015.0
1777477481.08285,init_hover,none,-,0,,,2,0.7571038785981132,0.7742699094367334,2.2611846750182565,2.304784724315761,70,249283.0,58,80.0,0,0,-4,0,0,0,0.0,-3.0,-1015.0
1777477481.133007,init_hover,none,-,0,,,2,0.7975572483093784,0.787740783024313,2.266958116792756,2.3087713368423772,70,249283.0,58,80.0,0,0,-4,0,0,0,0.0,-3.0,-1015.0
1777477481.182367,init_hover,none,-,0,,,2,0.7624236631593946,0.7334234516074399,2.275025686784191,2.311569940416318,70,249286.0,58,80.0,0,0,-4,0,0,0,-9.0,31.0,-978.0
1777477481.233085,init_hover,none,-,0,,,2,0.7598415704810618,0.7739186972148082,2.262070948985748,2.3053104436585334,70,249286.0,58,80.0,0,0,-4,0,0,0,-9.0,31.0,-978.0
1777477481.283099,init_hover,none,-,0,,,2,0.8152258982792377,0.7399420375825784,2.277942833259534,2.310568243783547,70,249287.0,58,80.0,0,0,-4,0,0,0,14.0,18.0,-981.0
1777477481.333736,init_hover,none,-,0,,,2,0.7888311506915452,0.8252164045212662,2.2531193814215547,2.302595974227719,70,249287.0,58,80.0,0,0,-4,0,0,0,14.0,18.0,-981.0
1777477481.383085,init_hover,none,-,0,,,2,0.7592591456338815,0.7711347785398741,2.2629794635834184,2.3058129228979234,70,249288.0,58,79.5,0,0,-4,0,0,0,3.0,8.0,-965.0
1777477481.431884,init_hover,none,-,0,,,2,0.8042585922337113,0.7825868213019167,2.263750485924826,2.304181771708369,70,249288.0,58,79.5,0,0,-4,0,0,0,3.0,8.0,-965.0
1777477481.481792,init_hover,none,-,0,,,2,0.6759505217923167,0.6741485222290292,2.262138472708265,2.3016159423921954,70,249289.0,58,79.5,0,0,-4,0,0,0,-8.0,33.0,-1000.0
1777477481.53191,init_hover,none,-,0,,,2,0.8029253893817031,0.7811819321060811,2.2579734776245677,2.298386889357504,70,249289.0,58,79.5,0,0,-4,0,0,0,-8.0,33.0,-1000.0
1777477481.581196,init_hover,none,-,0,,,2,0.8029253893817031,0.7811819321060811,2.2579734776245677,2.298386889357504,70,249284.0,58,79.5,0,0,-4,0,0,0,7.0,22.0,-1006.0
1777477481.630739,init_hover,none,-,0,,,2,0.7557850617985892,0.8067445183543904,2.244329170076316,2.293925775370143,70,249284.0,58,79.5,0,0,-4,0,0,0,7.0,22.0,-1006.0
1777477481.680223,init_hover,none,-,0,,,2,0.7613473439722193,0.7696826386648428,2.258110058107499,2.30058283443252,70,249280.00000000003,58,79.5,0,0,-4,0,0,0,-5.0,26.0,-998.0
1777477481.7301419,init_hover,none,-,0,,,2,0.7728505979356565,0.72271206665588,2.267580015069783,2.3016644094149292,70,249280.00000000003,58,79.5,0,0,-4,0,0,0,-5.0,26.0,-998.0
1777477481.779518,init_hover,none,-,0,,,2,0.7227144668701759,0.7593733143678336,2.250964968120071,2.296275186833365,70,249286.0,58,79.5,0,0,-4,0,0,0,0.0,14.0,-1004.0
1777477481.8297322,init_hover,none,-,0,,,2,0.6816539399648892,0.7148005138081823,2.2528765677813127,2.2969319552594243,70,249286.0,58,79.5,0,0,-4,0,0,0,0.0,14.0,-1004.0
1777477481.8795369,init_hover,none,-,0,,,2,0.7699590703731585,0.7256439617282607,2.266764422690163,2.3015611586676394,70,249279.0,58,79.5,0,0,-4,0,0,0,-8.0,7.0,-994.0
1777477481.929995,init_hover,none,-,0,,,2,0.7699590703731585,0.7256439617282607,2.266764422690163,2.3015611586676394,70,249279.0,58,79.5,0,0,-4,0,0,0,-8.0,7.0,-994.0
1777477481.980952,init_hover,none,-,0,,,2,0.8119227078906238,0.7789173955065728,2.260265507834526,2.2995111711690264,70,249285.0,58,79.5,0,0,-4,0,0,0,-4.0,13.0,-1001.0
1777477482.03157,init_hover,none,-,0,,,2,0.7747107432058115,0.7224304696631695,2.268254151191895,2.3021063292978794,70,249285.0,58,79.5,0,0,-4,0,0,0,-4.0,13.0,-1001.0
1777477482.082752,init_hover,none,-,0,,,2,0.7758497755702245,0.7221238898504885,2.2685960926904603,2.3022891554482796,70,249283.0,58,79.5,0,0,-4,0,0,0,-6.0,20.0,-992.0
1777477482.1341891,init_hover,none,-,0,,,2,0.773684665302281,0.7214012071803145,2.262299289988453,2.2961958636358886,70,249283.0,58,79.5,0,0,-4,0,0,0,-6.0,20.0,-992.0
1777477482.1841931,init_hover,none,-,0,,,2,0.7770012790665646,0.7218323043199517,2.2689398505384717,2.3024752999768276,70,249286.0,58,79.5,0,0,-4,0,0,0,4.0,10.0,-1013.0
1777477482.23383,init_hover,none,-,0,,,2,0.7261851991727943,0.7573088109667127,2.252846883807154,2.29738181707484,70,249286.0,58,79.5,0,0,-4,0,0,0,4.0,10.0,-1013.0
1777477482.28335,init_hover,none,-,0,,,2,0.7782295150398543,0.7201587380017993,2.269770563372734,2.3029420695865848,70,249283.0,58,79.5,0,0,-4,0,0,0,14.0,-3.0,-1001.0
1777477482.333589,init_hover,none,-,0,,,2,0.7271787741895391,0.7570486358896575,2.253211365405628,2.2975805985506756,70,249283.0,58,79.5,0,0,-4,0,0,0,14.0,-3.0,-1001.0
1777477482.3831959,init_hover,none,-,0,,,2,0.7271787741895391,0.7570486358896575,2.253211365405628,2.2975805985506756,70,249289.0,58,79.5,0,0,-4,0,0,0,10.0,11.0,-991.0
1777477482.433504,init_hover,none,-,0,,,2,0.7794236074204307,0.7199089156868062,2.2701196678116595,2.30313676656091,70,249289.0,58,79.5,0,0,-4,0,0,0,10.0,11.0,-991.0
1777477482.484253,init_hover,none,-,0,,,2,0.7281826476493869,0.7568005699561308,2.253578189436116,2.297782839099918,70,249286.0,58,79.5,0,0,-4,0,0,0,35.0,12.0,-981.0
1777477482.532923,init_hover,none,-,0,,,2,0.7326412620381695,0.7129856971197701,2.2673147206297672,2.3043777432857078,70,249286.0,58,79.5,0,0,-4,0,0,0,35.0,12.0,-981.0
1777477482.582106,init_hover,none,-,0,,,2,0.7317382748710376,0.7129285622243973,2.2669372433901915,2.3041035358018345,70,249278.00000000003,58,79.5,0,0,-4,0,0,0,5.0,15.0,-998.0
1777477482.6323001,init_hover,none,-,0,,,2,0.7694191314833253,0.7670817999490048,2.261216993038768,2.302394161386576,70,249278.00000000003,58,79.5,0,0,-4,0,0,0,5.0,15.0,-998.0
1777477482.6823192,init_hover,none,-,0,,,2,0.7337866130507328,0.7141916704827007,2.267226861364622,2.304322810303492,70,249288.0,58,79.5,0,0,-4,0,0,0,-4.0,32.0,-1000.0
1777477482.7318761,init_hover,none,-,0,,,2,0.6876858880959384,0.711902026988677,2.261835903141017,2.304500950677133,70,249288.0,58,79.5,0,0,-4,0,0,0,-4.0,32.0,-1000.0
1777477482.781309,init_hover,none,-,0,,,2,0.6876858880959384,0.711902026988677,2.261835903141017,2.304500950677133,70,249279.0,58,79.5,0,0,-4,0,0,0,-11.0,29.0,-1000.0
1777477482.831985,init_hover,none,-,0,,,2,0.7300228716410493,0.7169317823111807,2.272069699483768,2.309899158792034,70,249279.0,58,79.5,0,0,-4,0,0,0,-11.0,29.0,-1000.0
1777477482.881906,init_hover,none,-,0,,,2,0.7774039998343755,0.7236487004183929,2.2751328220858444,2.3087933685595488,70,249284.0,58,79.5,0,0,-4,0,0,0,11.0,8.0,-1002.0
1777477482.9338062,init_hover,none,-,0,,,2,0.7713429534182387,0.7694599306129954,2.266805220656965,2.308070751445398,70,249288.0,58,79.5,0,-1,-4,0,0,0,-1.0,12.0,-1017.0
1777477483.003045,recenter,right,-,1,,,2,0.730080672298332,0.7184591358707315,2.2715588876063237,2.3096000616015173,70,249288.0,58,79.5,0,-1,-4,0,0,0,-1.0,12.0,-1017.0
1777477483.0522082,recenter,right,-,1,,,2,0.7293589222538802,0.7182999740971326,2.2712337655877244,2.309342825225309,70,249273.99999999997,58,79.5,0,-1,-4,0,0,0,-4.0,16.0,-998.0
1777477483.102082,recenter,right,-,1,,,2,0.7692107295285211,0.7693688192628102,2.2661776013789994,2.3076520389781985,70,249273.99999999997,58,79.5,0,-1,-4,0,0,0,-4.0,16.0,-998.0
1777477483.152292,recenter,right,-,1,,,2,0.6807610388999517,0.673055068211738,2.2765156783313074,2.3149505865673694,70,249279.0,58,79.5,0,-1,-4,0,0,0,3.0,42.0,-980.0
1777477483.201406,recenter,right,-,1,,,2,0.7775845855290207,0.7259884072290002,2.280298089890791,2.3141945546996663,70,249279.0,58,79.5,0,-1,-4,0,0,0,3.0,42.0,-980.0
1777477483.2521632,recenter,right,-,1,,,2,0.7268768313816798,0.6730797354151479,2.282017427975929,2.314470209079476,70,249284.0,58,79.5,0,0,-4,0,0,0,-27.0,18.0,-1008.0
1777477483.302159,recenter,right,-,1,,,2,0.7267485216248333,0.7200214478089388,2.2760199170904594,2.314594297168384,70,249284.0,58,79.5,0,0,-4,0,0,0,-27.0,18.0,-1008.0
1777477483.352525,recenter,right,-,1,,,2,0.7195429791104206,0.7663686639421643,2.2673173754745064,2.3137869866549146,70,249277.0,58,79.5,0,0,-4,0,0,0,-10.0,39.0,-986.0
1777477483.402653,recenter,right,-,1,,,2,0.7698837134498568,0.7296459446965349,2.2841249295922137,2.3192340649824748,70,249277.0,58,79.5,0,0,-4,0,0,0,-10.0,39.0,-986.0
1777477483.4524648,recenter,right,-,1,,,2,0.7709982204868293,0.730678112449642,2.290229211379652,2.3252827074852895,70,249275.0,58,79.5,0,0,-4,0,0,0,-16.0,22.0,-994.0
1777477483.502239,recenter,right,-,1,,,2,0.7709982204868293,0.730678112449642,2.290229211379652,2.3252827074852895,70,249275.0,58,79.5,0,0,-4,0,0,0,-16.0,22.0,-994.0
1777477483.552382,recenter,right,-,1,,,2,0.8072656482936542,0.7877505808077272,2.281730210055509,2.3224533999037207,70,249281.0,58,79.5,0,0,-4,0,0,0,-19.0,24.0,-1027.0
1777477483.60164,recenter,right,-,1,,,2,0.7216149400111176,0.7244764604489942,2.2862453532078844,2.3258764004295593,70,249281.0,58,79.5,0,0,-4,0,0,0,-19.0,24.0,-1027.0
1777477483.651365,recenter,right,-,1,,,2,0.7206471652140229,0.7248678138583617,2.2858901278870256,2.3256979123599515,70,249286.0,58,79.5,0,0,-4,0,0,0,10.0,9.0,-1018.0
1777477483.701292,recenter,right,-,1,,,2,0.7208810569511804,0.7264517861070505,2.2854501510471303,2.3254592118423676,70,249286.0,58,79.5,0,0,-4,0,0,0,10.0,9.0,-1018.0
1777477483.750973,recenter,right,-,1,,,2,0.6745959092036748,0.7246284050009103,2.279572910946404,2.3254513712312024,70,249280.00000000003,58,79.5,0,0,-4,0,0,0,-9.0,33.0,-973.0
1777477483.8019378,recenter,right,-,1,,,2,0.8007050831131314,0.7915471120937789,2.2856904190749647,2.3275326628722124,70,249280.00000000003,58,79.5,0,0,-4,0,0,0,-9.0,33.0,-973.0
1777477483.851997,recenter,right,-,1,,,2,0.7640846021759858,0.7369910145478755,2.2995611239332545,2.3360651492459796,70,249288.0,58,79.5,0,-1,-4,0,0,0,0.0,21.0,-987.0
1777477483.902658,recenter,right,-,1,,,2,0.7640846021759858,0.7369910145478755,2.2995611239332545,2.3360651492459796,70,249288.0,58,79.5,0,-1,-4,0,0,0,0.0,21.0,-987.0
1777477483.9520268,recenter,right,-,1,,,2,0.7973345700727476,0.7952011007790627,2.290369835219473,2.333034755126433,70,249280.00000000003,58,79.5,0,0,-4,0,0,0,-5.0,23.0,-978.0
1777477484.002868,recenter,right,-,1,,,2,0.7527356162898047,0.7842593929913906,2.2898003226854127,2.334947638454429,70,249280.00000000003,58,79.5,0,0,-4,0,0,0,-5.0,23.0,-978.0
1777477484.05376,recenter,right,-,1,,,2,0.7650132931939925,0.7379964892997564,2.3056285530761707,2.342089537979837,70,249290.0,58,79.5,0,0,-4,0,0,0,-11.0,14.0,-1013.0
1777477484.1043599,recenter,right,-,1,,,2,0.7163425137257468,0.7321271960959007,2.2954323054177506,2.3366171086982566,70,249290.0,58,79.5,0,0,-4,0,0,0,-11.0,14.0,-1013.0
1777477484.154651,recenter,right,-,1,,,2,0.7607703328109929,0.7409555971958772,2.3042856886717997,2.3416263766750305,70,249283.0,58,79.5,0,-1,-4,0,0,0,-15.0,19.0,-995.0
1777477484.20494,recenter,right,-,1,,,2,0.7125951081695605,0.7349089519783114,2.300426639600845,2.342376635417224,70,249283.0,58,79.5,0,-1,-4,0,0,0,-15.0,19.0,-995.0
1777477484.255233,recenter,right,-,1,,,2,0.7592493996495033,0.7412248547481255,2.303751393946873,2.341295739153678,70,249286.0,58,79.5,0,-1,-4,0,0,0,7.0,2.0,-967.0
1777477484.255541,pre_hover,right,x,1,,,2,0.7592493996495033,0.7412248547481255,2.303751393946873,2.341295739153678,70,249286.0,58,79.5,0,-1,-4,0,0,0,7.0,2.0,-967.0
1777477484.304309,pre_hover,right,x,1,,,2,0.7539386989718936,0.7862681484040213,2.2954055957772552,2.3406486484435574,70,249286.0,58,79.5,0,-1,-4,0,0,0,7.0,2.0,-967.0
1777477484.353885,pre_hover,right,x,1,,,2,0.7163346637643322,0.7324579582382791,2.3012969614552565,2.342426524307829,70,249279.0,58,79.0,0,-1,-4,0,0,0,15.0,-7.0,-1019.0
1777477484.403931,pre_hover,right,x,1,,,2,0.7539386989718936,0.7862681484040213,2.2954055957772552,2.3406486484435574,70,249279.0,58,79.0,0,-1,-4,0,0,0,15.0,-7.0,-1019.0
1777477484.4542441,pre_hover,right,x,1,,,2,0.7539386989718936,0.7862681484040213,2.2954055957772552,2.3406486484435574,70,249292.0,58,79.0,0,-1,-4,0,0,0,8.0,13.0,-1020.0
1777477484.503802,pre_hover,right,x,1,,,2,0.7974052019523747,0.7977184784877053,2.2955544688545575,2.3385454795245404,70,249292.0,58,79.0,0,-1,-4,0,0,0,8.0,13.0,-1020.0
1777477484.553102,pre_hover,right,x,1,,,2,0.7539386989718936,0.7862681484040213,2.2954055957772552,2.3406486484435574,70,249289.0,58,79.0,0,0,-4,0,0,0,8.0,2.0,-1005.0
1777477484.6035159,pre_hover,right,x,1,,,2,0.7931180706266022,0.8002420783792888,2.3006349481908805,2.3443367972294187,70,249289.0,58,79.0,0,0,-4,0,0,0,8.0,2.0,-1005.0
1777477484.653478,pre_hover,right,x,1,,,2,0.7530242610872986,0.7859948844378131,2.295113567618652,2.340413500792296,70,249280.00000000003,58,79.0,0,0,-4,0,0,0,9.0,7.0,-1001.0
1777477484.703949,pre_hover,right,x,1,,,2,0.7619227201679546,0.7429058969148733,2.309924518994147,2.3473424396030413,70,249280.00000000003,58,79.0,0,0,-4,0,0,0,9.0,7.0,-1001.0
1777477484.753834,pre_hover,right,x,1,,,2,0.7619227201679546,0.7429058969148733,2.309924518994147,2.3473424396030413,70,249280.00000000003,58,79.0,0,0,-4,0,0,0,9.0,7.0,-1001.0
1777477484.804203,pre_hover,right,x,1,,,2,0.7619227201679546,0.7429058969148733,2.309924518994147,2.3473424396030413,70,249288.0,58,79.0,0,-1,-4,0,0,0,-3.0,4.0,-995.0
1777477484.853107,pre_hover,right,x,1,,,2,0.7504461333281337,0.7901571499685341,2.3000424612340726,2.3462086560069926,70,249288.0,58,79.0,0,-1,-4,0,0,0,-3.0,4.0,-995.0
1777477484.9023511,pre_hover,right,x,1,,,2,0.8074470709284086,0.7571492670279889,2.31626774883253,2.351537478696522,70,249289.0,58,79.0,0,-1,-4,0,0,0,14.0,14.0,-983.0
1777477484.951353,pre_hover,right,x,1,,,2,0.714551290017551,0.7365405976787337,2.306580650101761,2.3484153881586765,70,249289.0,58,79.0,0,-1,-4,0,0,0,14.0,14.0,-983.0
1777477485.00226,pre_hover,right,x,1,,,2,0.7955257030647059,0.8017066989195243,2.3070475355359017,2.350669338993956,70,249286.0,58,79.0,0,-1,-4,0,0,0,3.0,16.0,-1016.0
1777477485.0528052,pre_hover,right,x,1,,,2,0.7619227201679546,0.7429058969148733,2.309924518994147,2.3473424396030413,70,249286.0,58,79.0,0,-1,-4,0,0,0,3.0,16.0,-1016.0
1777477485.102765,pre_hover,right,x,1,,,2,0.7513248104433872,0.789872293773947,2.300331939815203,2.346351804117948,70,249283.0,58,79.0,0,-1,-4,0,0,0,9.0,-8.0,-995.0
1777477485.151614,pre_hover,right,x,1,,,2,0.7926277189275667,0.8036273048273115,2.306220823508658,2.3504409694660056,70,249283.0,58,79.0,0,-1,-4,0,0,0,9.0,-8.0,-995.0
1777477485.202092,pre_hover,right,x,1,,,2,0.7983828865352853,0.8011540539820143,2.3078066757725466,2.351073305579471,70,249292.0,58,79.0,0,0,-4,0,0,0,6.0,22.0,-976.0
1777477485.250976,pre_hover,right,x,1,,,2,0.7945354652677863,0.8032701071712245,2.3067366842208683,2.350718312495332,70,249292.0,58,79.0,0,0,-4,0,0,0,6.0,22.0,-976.0
1777477485.301528,pre_hover,right,x,1,,,2,0.7535677058643918,0.7891041663917655,2.3074870726361265,2.3530039350326657,70,249286.0,58,79.0,0,0,-4,0,0,0,-15.0,19.0,-974.0
1777477485.350513,pre_hover,right,x,1,,,2,0.7535677058643918,0.7891041663917655,2.3074870726361265,2.3530039350326657,70,249286.0,58,79.0,0,0,-4,0,0,0,-15.0,19.0,-974.0
1777477485.400956,pre_hover,right,x,1,,,2,0.7627958808438005,0.745579612791187,2.322503136456274,2.360023703645963,70,249286.0,58,79.5,0,0,-4,0,0,0,-17.0,38.0,-1007.0
1777477485.450164,pre_hover,right,x,1,,,2,0.7627958808438005,0.745579612791187,2.322503136456274,2.360023703645963,70,249286.0,58,79.5,0,0,-4,0,0,0,-17.0,38.0,-1007.0
1777477485.500791,pre_hover,right,x,1,,,2,0.7637915815001671,0.7452714998576984,2.3228117445747465,2.3601824561500653,70,249286.0,58,79.5,0,0,-4,0,0,0,-9.0,41.0,-972.0
1777477485.550384,pre_hover,right,x,1,,,2,0.7598859770065336,0.7483166113232849,2.3215463336224285,2.359778927128044,70,249286.0,58,79.5,0,0,-4,0,0,0,-9.0,41.0,-972.0
1777477485.6005068,pre_hover,right,x,1,,,2,0.712334265487609,0.7815149158260446,2.3054578025121355,2.3544512916971527,70,249285.0,58,79.5,0,-1,-4,0,0,0,-13.0,15.0,-1008.0
1777477485.650164,pre_hover,right,x,1,,,2,0.7537248559839315,0.7920090630523156,2.3068986250960903,2.3528926491758018,70,249285.0,58,79.5,0,-1,-4,0,0,0,-13.0,15.0,-1008.0
1777477485.700087,pre_hover,right,x,1,,,2,0.7672100238337612,0.7458374165770087,2.3233049887426285,2.360411142666574,70,249290.0,58,79.5,0,-1,-4,0,0,0,-11.0,30.0,-1009.0
1777477485.751018,pre_hover,right,x,1,,,2,0.671802318577774,0.6889317018974067,2.314155786305233,2.355103447779364,70,249290.0,58,79.5,0,-1,-4,0,0,0,-11.0,30.0,-1009.0
1777477485.80147,pre_hover,right,x,1,,,2,0.7651525664743024,0.7459439962516783,2.3226782520713507,2.3600137347527057,70,249292.99999999997,58,79.5,0,-1,-4,0,0,0,11.0,5.0,-994.0
1777477485.851994,pre_hover,right,x,1,,,2,0.771931707283591,0.6949047417334382,2.3373931405407298,2.3669369755627843,70,249292.99999999997,58,79.5,0,-1,-4,0,0,0,11.0,5.0,-994.0
1777477485.90206,pre_hover,right,x,1,,,2,0.7168118029742564,0.7394849756337931,2.312783829836351,2.354658074364146,70,249290.0,58,79.5,0,-1,-4,0,0,0,11.0,8.0,-995.0
1777477485.950316,pre_hover,right,x,1,,,2,0.7661570567693194,0.7456747498897692,2.322986478544266,2.3601779031059564,70,249290.0,58,79.5,0,-1,-4,0,0,0,11.0,8.0,-995.0
1777477486.0006511,pre_hover,right,x,1,,,2,0.7661570567693194,0.7456747498897692,2.322986478544266,2.3601779031059564,70,249292.0,58,79.5,0,-1,-4,0,0,0,20.0,-17.0,-988.0
1777477486.051313,pre_hover,right,x,1,,,2,0.7661570567693194,0.7456747498897692,2.322986478544266,2.3601779031059564,70,249292.0,58,79.5,0,-1,-4,0,0,0,20.0,-17.0,-988.0
1777477486.102061,pre_hover,right,x,1,,,2,0.7661570567693194,0.7456747498897692,2.322986478544266,2.3601779031059564,70,249283.0,58,79.5,0,-1,-4,0,0,0,36.0,-14.0,-1015.0
1777477486.151793,pre_hover,right,x,1,,,2,0.7661570567693194,0.7456747498897692,2.322986478544266,2.3601779031059564,70,249283.0,58,79.5,0,-1,-4,0,0,0,36.0,-14.0,-1015.0
1777477486.2017548,pre_hover,right,x,1,,,2,0.721943949360293,0.6878778425831836,2.3209541116553596,2.355210565524369,70,249287.0,58,79.5,0,-1,-4,0,0,0,5.0,-1.0,-990.0
1777477486.252353,pre_hover,right,x,1,,,2,0.773445636824685,0.6948188394389752,2.33135157172006,2.360814515908336,70,249287.0,58,79.5,0,-1,-4,0,0,0,5.0,-1.0,-990.0
1777477486.302641,pre_hover,right,x,1,,,2,0.7648775789017435,0.7446539604036267,2.3166430304140384,2.3539124528518367,70,249289.0,58,79.5,0,0,-4,0,0,0,12.0,17.0,-1008.0
1777477486.351028,pre_hover,right,x,1,,,2,0.7648775789017435,0.7446539604036267,2.3166430304140384,2.3539124528518367,70,249289.0,58,79.5,0,0,-4,0,0,0,12.0,17.0,-1008.0
1777477486.4011369,pre_hover,right,x,1,,,2,0.8474666172228901,0.818294881496072,2.305831278921677,2.348423924167189,70,249283.0,58,79.0,0,-1,-4,0,0,0,-7.0,26.0,-975.0
1777477486.4499998,pre_hover,right,x,1,,,2,0.8029180350049743,0.8010035612350521,2.3020785311567096,2.3450395989539556,70,249283.0,58,79.0,0,-1,-4,0,0,0,-7.0,26.0,-975.0
1777477486.499737,pre_hover,right,x,1,,,2,0.7619090894225017,0.78627535386644,2.2968243304614133,2.3412171910576314,70,249287.0,58,79.0,0,-1,-4,0,0,0,22.0,-4.0,-994.0
1777477486.550213,pre_hover,right,x,1,,,2,0.7213833985059701,0.734385415870694,2.3085202529897755,2.349192749741723,70,249287.0,58,79.0,0,-1,-4,0,0,0,22.0,-4.0,-994.0
1777477486.59997,pre_hover,right,x,1,,,2,0.7664576965620523,0.7445257637639561,2.3107308375235394,2.3479175907332177,70,249282.00000000003,58,79.0,0,-1,-4,0,0,0,-1.0,5.0,-999.0
1777477486.649626,pre_hover,right,x,1,,,2,0.7766554979395329,0.6910352935794042,2.3199453623503277,2.348772188399778,70,249288.0,58,79.0,0,0,-4,0,0,0,-3.0,14.0,-1002.0
1777477486.700028,pre_hover,right,x,1,,,2,0.725213852331349,0.6841406475473634,2.309639519564399,2.343219589554696,70,249288.0,58,79.0,0,0,-4,0,0,0,-3.0,14.0,-1002.0
1777477486.750342,pre_hover,right,x,1,,,2,0.7692895441160181,0.7417587185102287,2.311641922417186,2.348130046144926,70,249284.0,58,79.0,0,0,-4,0,0,0,19.0,5.0,-1009.0
1777477486.800694,pre_hover,right,x,1,,,2,0.6752155954868356,0.6852371505860055,2.3028843604150713,2.343100834137047,70,249284.0,58,79.0,0,0,-4,0,0,0,19.0,5.0,-1009.0
1777477486.8525078,pre_hover,right,x,1,,,2,0.7652375365364772,0.7451145657176927,2.310357375908604,2.347758224804519,70,249285.0,58,79.0,0,0,-4,0,0,0,21.0,10.0,-986.0
1777477486.903417,pre_hover,right,x,1,,,2,0.7210307541673777,0.7352402141372449,2.301901807359181,2.342853339844104,70,249285.0,58,79.0,0,0,-4,0,0,0,21.0,10.0,-986.0
1777477486.9533,pre_hover,right,x,1,,,2,0.7692895441160181,0.7417587185102287,2.311641922417186,2.348130046144926,70,249296.0,58,79.0,0,0,-4,0,0,0,-31.0,36.0,-1019.0
1777477487.003946,pre_hover,right,x,1,,,2,0.7210307541673777,0.7352402141372449,2.301901807359181,2.342853339844104,70,249296.0,58,79.0,0,0,-4,0,0,0,-31.0,36.0,-1019.0
1777477487.0537841,pre_hover,right,x,1,,,2,0.7208308006474509,0.688569051916985,2.3079753705430925,2.3426390781818984,70,249296.0,58,79.0,0,0,-4,0,0,0,-31.0,36.0,-1019.0
1777477487.1046212,pre_hover,right,x,1,,,2,0.768976693786492,0.7417643325613622,2.3051311935976186,2.341752430706909,70,249289.0,58,79.0,0,0,-4,0,0,0,28.0,3.0,-974.0
1777477487.1542451,pre_hover,right,x,1,,,2,0.8173223388349508,0.754089204318071,2.3055592516180017,2.3397336932276493,70,249284.0,58,79.0,0,0,-4,0,0,0,27.0,-15.0,-990.0
1777477487.204439,pre_hover,right,x,1,,,2,0.7212007451685705,0.7346505917715105,2.3019591642765906,2.342805164127944,70,249284.0,58,79.0,0,0,-4,0,0,0,27.0,-15.0,-990.0
1777477487.253246,pre_hover,right,x,1,,,2,0.8219796402742163,0.7551593458213735,2.312434884847485,2.3463129599566988,70,249284.0,58,79.0,0,0,-4,0,0,0,27.0,-15.0,-990.0
1777477487.303812,response,right,x,1,1777477487.303641,0.0001709461212158203,2,0.7770577406959325,0.6921572495912975,2.3195166915348895,2.3484498699740888,70,249292.0,58,79.0,0,-1,-4,0,0,0,-4.0,2.0,-992.0
1777477487.353878,response,right,x,1,1777477487.303641,0.05023694038391113,2,0.7770577406959325,0.6921572495912975,2.3195166915348895,2.3484498699740888,70,249292.0,58,79.0,0,-1,-4,0,0,0,-4.0,2.0,-992.0
1777477487.402743,response,right,x,1,1777477487.303641,0.09910202026367188,2,0.7630776298787061,0.7870273501861418,2.296646362591467,2.3410482468459755,70,249292.0,58,79.0,0,-1,-4,0,0,0,-7.0,15.0,-988.0
1777477487.4523351,response,right,x,1,1777477487.303641,0.14869403839111328,2,0.7223541625977722,0.735843278790687,2.3018409876475836,2.342722743166606,70,249292.0,58,79.0,0,-1,-4,0,0,0,-7.0,15.0,-988.0
1777477487.502663,response,right,x,1,1777477487.303641,0.1990218162536621,2,0.7716621649583464,0.7423044958910585,2.3118119980473124,2.348145065606946,70,249288.0,58,79.0,0,-1,-4,0,0,0,6.0,20.0,-1001.0
1777477487.551328,response,right,x,1,1777477487.303641,0.24768686294555664,2,0.8231007127386027,0.7550825449581418,2.3126945616568637,2.3464724816380813,70,249288.0,58,79.0,0,-1,-4,0,0,0,6.0,20.0,-1001.0
1777477487.6016629,response,right,x,1,1777477487.303641,0.2980217933654785,2,0.7637364404578351,0.785553394278788,2.297438992756132,2.3415161359349503,70,249281.0,58,79.0,0,2,-4,0,0,0,-17.0,31.0,-1019.0
1777477487.6504042,response,right,x,1,1777477487.303641,0.34676313400268555,2,0.6819419686838113,0.7288483482251067,2.292394242905272,2.3375999470226607,70,249281.0,58,79.0,0,2,-4,0,0,0,-17.0,31.0,-1019.0
1777477487.700768,response,right,x,1,1777477487.303641,0.3971269130706787,2,0.724735594123528,0.7356799454077751,2.3021715307243356,2.3427431092138815,70,249296.0,58,79.0,0,4,-4,0,0,0,19.0,5.0,-1016.0
1777477487.751307,response,right,x,1,1777477487.303641,0.4476659297943115,2,0.8185170475985952,0.7624728304318232,2.3151933821265516,2.350413370336412,70,249296.0,58,79.0,0,4,-4,0,0,0,19.0,5.0,-1016.0
1777477487.802273,response,right,x,1,1777477487.303641,0.49863195419311523,2,0.8073893573927571,0.8088797202791836,2.298664869429944,2.3426783106633615,70,249284.0,58,79.0,0,2,-4,0,1,0,-1.0,18.0,-1029.0
1777477487.852252,response,right,x,1,1777477487.303641,0.5486109256744385,2,0.7743683606862954,0.7575241813435308,2.312158901131388,2.3504918551200853,70,249284.0,58,79.0,0,2,-4,0,1,0,-1.0,18.0,-1029.0
1777477487.9025311,response,right,x,1,1777477487.303641,0.5988900661468506,2,0.8391861253522228,0.7255998298402515,2.3265262403787443,2.3546975811432955,70,249278.00000000003,58,79.0,0,0,-4,0,2,0,-4.0,8.0,-1035.0
1777477487.952543,response,right,x,1,1777477487.303641,0.6489019393920898,2,0.8230934471937439,0.7788455733232366,2.3147466528052756,2.352205765558284,70,249278.00000000003,58,79.0,0,0,-4,0,2,0,-4.0,8.0,-1035.0
1777477488.0027552,response,right,x,1,1777477487.303641,0.6991140842437744,2,0.7856458638122981,0.7194514387200772,2.329207304937576,2.3607633483209765,70,249284.0,58,79.0,0,0,-4,0,2,0,-1.0,30.0,-979.0
1777477488.053299,response,right,x,1,1777477487.303641,0.7496578693389893,2,0.8243715689305721,0.7861064607638951,2.3182530970584234,2.3567394779365207,70,249284.0,58,79.0,0,0,-4,0,2,0,-1.0,30.0,-979.0
1777477488.102583,response,right,x,1,1777477487.303641,0.7989418506622314,2,0.7841568784677817,0.7305918410354951,2.325689913658097,2.3589643475396183,70,249281.0,58,79.0,0,0,-4,0,2,0,0.0,22.0,-979.0
1777477488.153106,response,right,x,1,1777477487.303641,0.8494648933410645,2,0.8852186546210208,0.768860519273161,2.327110519553713,2.358956593526686,70,249281.0,58,79.0,0,0,-4,0,2,0,0.0,22.0,-979.0
1777477488.2016041,response,right,x,1,1777477487.303641,0.8979630470275879,2,0.8510614589252785,0.6973886382357528,2.3453530870067567,2.3688190715842574,70,249292.0,58,79.0,0,0,-4,0,2,0,-12.0,8.0,-1005.0
1777477488.250737,response,right,x,1,1777477487.303641,0.9470958709716797,2,0.8565407175107035,0.6961072895429101,2.345811607122938,2.3687744064738405,70,249292.0,58,79.0,0,0,-4,0,2,0,-12.0,8.0,-1005.0
1777477488.300958,response,right,x,1,1777477487.303641,0.997316837310791,2,0.93702551834841,0.6709305114112383,2.3618718385887747,2.3781942118488897,70,249287.0,58,79.0,-1,0,-4,0,2,0,-12.0,17.0,-1007.0
1777477488.349717,response,right,x,1,1777477487.303641,1.0460758209228516,2,0.9063197456270266,0.7272897983908151,2.3463557251212923,2.370923826486113,70,249287.0,58,79.0,-1,0,-4,0,2,0,-12.0,17.0,-1007.0
1777477488.400012,response,right,x,1,1777477487.303641,1.0963709354400635,2,0.99888438124274,0.7973602697682707,2.333066831137004,2.3666637418837486,70,249280.00000000003,58,79.5,-3,0,-4,0,2,0,-10.0,29.0,-989.0
1777477488.450214,response,right,x,1,1777477487.303641,1.1465728282928467,2,0.9007361182671378,0.7284878673477366,2.3458548654293647,2.3708210912825036,70,249280.00000000003,58,79.5,-3,0,-4,0,2,0,-10.0,29.0,-989.0
1777477488.501672,response,right,x,1,1777477487.303641,1.198030948638916,2,0.9883029334543703,0.7122192454118051,2.352479344678662,2.373136478526053,70,249282.00000000003,58,79.5,-3,-1,-4,0,2,0,-15.0,17.0,-1014.0
1777477488.5507,response,right,x,1,1777477487.303641,1.2470588684082031,2,0.9234406943905614,0.6695699895160842,2.355363757477287,2.3719754924030365,70,249282.00000000003,58,79.5,-3,-1,-4,0,2,0,-15.0,17.0,-1014.0
1777477488.601705,response,right,x,1,1777477487.303641,1.2980639934539795,2,0.9402522555746647,0.7563892355303004,2.3329708565582474,2.3607914134281134,70,249286.0,58,79.5,-2,-1,-4,1,2,0,13.0,8.0,-962.0
1777477488.6520069,response,right,x,1,1777477487.303641,1.3483657836914062,2,0.8542860102743127,0.5604988755772535,2.3532622048763345,2.363225647449428,70,249286.0,58,79.5,-2,-1,-4,1,2,0,13.0,8.0,-962.0
1777477488.701527,response,right,x,1,1777477487.303641,1.397886037826538,2,0.9519393985992234,0.5845090455360623,2.3481969332665584,2.355924923823784,70,249282.00000000003,58,79.5,0,0,-4,1,2,0,-33.0,24.0,-1002.0
1777477488.7514272,response,right,x,1,1777477487.303641,1.4477860927581787,2,1.0984156267240808,0.7547835423789963,2.320147101832361,2.349178488678029,70,249282.00000000003,58,79.5,0,0,-4,1,2,0,-33.0,24.0,-1002.0
1777477488.801244,response,right,x,1,1777477487.303641,1.497602939605713,2,1.2549618530157551,0.6399115043563974,2.3246103433114973,2.3508246052495227,70,249286.0,58,79.5,2,-2,-4,0,2,0,12.0,-2.0,-993.0
1777477488.850975,response,right,x,1,1777477487.303641,1.5473339557647705,2,1.1949678902482004,0.6455651498007353,2.3299286718882057,2.3509322272475726,70,249286.0,58,79.5,2,-2,-4,0,2,0,12.0,-2.0,-993.0
1777477488.899829,response,right,x,1,1777477487.303641,1.5961878299713135,2,1.0947238786750444,0.742120582466841,2.3185297018962716,2.3455487811414004,70,249292.0,58,79.5,0,-5,-4,0,1,0,-19.0,42.0,-998.0
1777477488.9483461,response,right,x,1,1777477487.303641,1.644705057144165,2,1.084892928500045,0.8128959411729416,2.3023205487477005,2.3405917578108997,70,249292.0,58,79.5,0,-5,-4,0,1,0,-19.0,42.0,-998.0
1777477488.995283,response,right,x,1,1777477487.303641,1.6916418075561523,2,1.099246507546306,0.7392827393916404,2.3193070733757026,2.346092058534746,70,249292.0,58,79.5,0,-3,-4,0,0,0,11.0,13.0,-996.0
1777477489.0444522,response,right,x,1,1777477487.303641,1.7408111095428467,2,1.1485354856551842,0.7112595795245821,2.318260780310707,2.3437743837390683,70,249292.0,58,79.5,0,-3,-4,0,0,0,11.0,13.0,-996.0
1777477489.0957499,response,right,x,1,1777477487.303641,1.7921087741851807,2,1.1224262709984574,0.7861825457972037,2.3104039267371546,2.345653737274848,70,249283.0,58,79.5,0,-1,-4,0,0,0,11.0,3.0,-1000.0
1777477489.148232,response,right,x,1,1777477487.303641,1.8445909023284912,2,1.079526908632061,0.8111940307099973,2.3038868612751613,2.341644663403143,70,249283.0,58,79.5,0,-1,-4,0,0,0,11.0,3.0,-1000.0
1777477489.199222,response,right,x,1,1777477487.303641,1.8955810070037842,2,1.1235055694611513,0.7830112375317637,2.305150946891097,2.34001541057243,70,249287.0,58,79.5,0,-1,-4,0,0,0,14.0,17.0,-987.0
1777477489.250966,response,right,x,1,1777477487.303641,1.9473249912261963,2,1.170417057445937,0.7610946304377988,2.309212140691184,2.3434786144351953,70,249287.0,58,79.5,0,-1,-4,0,0,0,14.0,17.0,-987.0
1777477489.299893,response,right,x,1,1777477487.303641,1.9962518215179443,2,1.1463850613422355,0.7086338250781218,2.326027195799369,2.3509755293845145,70,249281.0,58,79.5,0,-1,-4,0,0,0,7.0,-4.0,-994.0
1777477489.349973,response,right,x,1,1777477487.303641,2.0463318824768066,2,1.174182455583808,0.7631830814003191,2.314957512207506,2.3497382326069007,70,249281.0,58,79.5,0,-1,-4,0,0,0,7.0,-4.0,-994.0
1777477489.399989,response,right,x,1,1777477487.303641,2.0963478088378906,2,1.1190601533370375,0.7827608412068744,2.318701169093151,2.3530950455151567,70,249282.00000000003,58,79.0,0,-1,-4,0,0,0,9.0,0.0,-1021.0
1777477489.450069,response,right,x,1,1777477487.303641,2.146427869796753,2,1.2093195902990121,0.6955354346553617,2.325215025541025,2.3532489878934673,70,249282.00000000003,58,79.0,0,-1,-4,0,0,0,9.0,0.0,-1021.0
1777477489.500245,response,right,x,1,1777477487.303641,2.196604013442993,2,1.213129328642497,0.6967481260638986,2.3309437195718323,2.359402929739091,70,249282.00000000003,58,79.0,0,-1,-4,0,0,0,9.0,0.0,-1021.0
1777477489.550674,response,right,x,1,1777477487.303641,2.247032880783081,2,1.1244121982464805,0.7830001039756055,2.3187220601554706,2.353431423893519,70,249275.0,58,79.0,0,-1,-4,0,0,0,-19.0,26.0,-1002.0
1777477489.5980349,response,right,x,1,1777477487.303641,2.29439377784729,2,1.1228365772611735,0.7844284229127384,2.3249817382885616,2.359748740953519,70,249275.0,58,79.0,0,-1,-4,0,0,0,-19.0,26.0,-1002.0
1777477489.6451032,response,right,x,1,1777477487.303641,2.3414621353149414,2,1.2220856241707796,0.7466526428521045,2.3228948158911678,2.359095251352462,70,249287.0,58,79.0,0,-1,-4,0,0,0,-8.0,23.0,-1005.0
1777477489.694117,response,right,x,1,1777477487.303641,2.3904759883880615,2,1.1869099891226367,0.805232745433752,2.3133123612861275,2.355963285555358,70,249287.0,58,79.0,0,-1,-4,0,0,0,-8.0,23.0,-1005.0
1777477489.745367,response,right,x,1,1777477487.303641,2.441725969314575,2,1.1714639267789413,0.7614756764076693,2.3290637697116607,2.363176376448514,70,249280.00000000003,58,79.0,0,-1,-4,0,0,0,13.0,11.0,-975.0
1777477489.797877,response,right,x,1,1777477487.303641,2.4942359924316406,2,1.1724660333831984,0.7629425168707878,2.3287747956758156,2.3631893390497454,70,249280.00000000003,58,79.0,0,-1,-4,0,0,0,13.0,11.0,-975.0
1777477489.849108,response,right,x,1,1777477487.303641,2.545466899871826,2,1.1703990362087766,0.7625279511814873,2.3357185860735483,2.3698193307208344,70,249285.0,58,79.0,0,-1,-4,0,0,0,27.0,-7.0,-976.0
1777477489.900213,response,right,x,1,1777477487.303641,2.596571922302246,2,1.1528999935935453,0.7105663932057584,2.345440271529407,2.3708479411260597,70,249285.0,58,79.0,0,-1,-4,0,0,0,27.0,-7.0,-976.0
1777477489.949609,response,right,x,1,1777477487.303641,2.645967960357666,2,1.123935515639205,0.7837126296568255,2.338408652361335,2.372920230356104,70,249283.0,58,79.0,0,-1,-4,0,0,0,1.0,0.0,-970.0
1777477489.999893,response,right,x,1,1777477487.303641,2.69625186920166,2,1.1249956110483295,0.7850451575599939,2.338189118873447,2.3729753542251406,70,249283.0,58,79.0,0,-1,-4,0,0,0,1.0,0.0,-970.0
1777477490.048875,response,right,x,1,1777477487.303641,2.7452340126037598,2,1.17332256534086,0.7631725587331043,2.342162984051106,2.376481109315256,70,249290.0,58,79.0,0,0,-4,0,0,0,-43.0,50.0,-984.0
1777477490.099755,response,right,x,1,1777477487.303641,2.796113967895508,2,1.171187252125603,0.7642325802947523,2.348875463518695,2.383104360064547,70,249290.0,58,79.0,0,0,-4,0,0,0,-43.0,50.0,-984.0
1777477490.150173,response,right,x,1,1777477487.303641,2.846531867980957,2,1.1242130416838738,0.7856847959829283,2.351579772086798,2.3862332379850364,70,249283.0,58,79.0,0,-1,-4,0,0,0,-5.0,7.0,-1024.0
1777477490.20012,response,right,x,1,1777477487.303641,2.8964788913726807,2,1.1751756119683747,0.7653358807714988,2.3485886282145856,2.3832803749006226,70,249289.0,58,79.0,0,-1,-4,0,0,0,24.0,-1.0,-1001.0
1777477490.2495759,response,right,x,1,1777477487.303641,2.945934772491455,2,1.215847915043741,0.6974958357870298,2.364496177208922,2.3928928657119104,70,249289.0,58,79.0,0,-1,-4,0,0,0,24.0,-1.0,-1001.0
1777477490.2986948,response,right,x,1,1777477487.303641,2.995053768157959,2,1.17309981460878,0.7649095604525913,2.3556306573790584,2.390003834120647,70,249286.0,58,79.0,0,-1,-4,0,0,0,11.0,10.0,-993.0
1777477490.349452,response,right,x,1,1777477487.303641,3.0458109378814697,2,1.2730696013161698,0.689203484738647,2.360537240661307,2.3938132189661014,70,249286.0,58,79.0,0,-1,-4,0,0,0,11.0,10.0,-993.0
1777477490.400519,response,right,x,1,1777477487.303641,3.0968778133392334,2,1.1760510749238855,0.767033834482822,2.3619053769442853,2.3967279416478093,70,249286.0,58,79.0,0,-1,-4,0,0,0,11.0,10.0,-993.0
1777477490.450458,response,right,x,1,1777477487.303641,3.1468169689178467,2,1.124458594219738,0.789196285522306,2.3648720003302848,2.3999131793224677,70,249284.0,58,79.5,0,-1,-4,0,0,0,1.0,25.0,-1013.0
1777477490.500513,response,right,x,1,1777477487.303641,3.1968719959259033,2,1.1917661625410592,0.8122695247113693,2.3524859917022156,2.396023948806985,70,249284.0,58,79.5,0,-1,-4,0,0,0,1.0,25.0,-1013.0
1777477490.550155,response,right,x,1,1777477487.303641,3.246513843536377,2,1.1739000663163413,0.7655154014943375,2.369284493654273,2.403612230303586,70,249285.0,58,79.5,0,-1,-4,0,0,0,8.0,17.0,-1012.0
1777477490.600545,response,right,x,1,1777477487.303641,3.2969038486480713,2,1.1458156912630169,0.8321141705717615,2.3554704580094756,2.3992136109114592,70,249285.0,58,79.5,0,-1,-4,0,0,0,8.0,17.0,-1012.0
1777477490.650006,response,right,x,1,1777477487.303641,3.346364974975586,2,1.225536049998818,0.750870832085779,2.3698585239143526,2.4062847450015448,70,249294.0,58,79.5,0,-1,-4,0,0,0,-16.0,14.0,-1026.0
1777477490.699351,response,right,x,1,1777477487.303641,3.395709991455078,2,1.1716179202977657,0.766607231527604,2.376447951777108,2.4106759301659104,70,249283.0,58,79.5,0,-1,-4,0,0,0,35.0,0.0,-974.0
1777477490.749103,response,right,x,1,1777477487.303641,3.4454619884490967,2,1.1746136295611618,0.7698490298443934,2.38229319340876,2.417146889178866,70,249283.0,58,79.5,0,-1,-4,0,0,0,35.0,0.0,-974.0
1777477490.8004851,response,right,x,1,1777477487.303641,3.4968440532684326,2,1.1490309706063324,0.8361078598153,2.3684763434059977,2.4128987721962956,70,249284.0,58,79.5,0,-1,-4,0,0,0,13.0,26.0,-1004.0
1777477490.850121,response,right,x,1,1777477487.303641,3.5464799404144287,2,1.226846128389074,0.7517065846531291,2.3766372935394084,2.4132056507259807,70,249284.0,58,79.5,0,-1,-4,0,0,0,13.0,26.0,-1004.0
1777477490.900094,response,right,x,1,1777477487.303641,3.5964529514312744,2,1.2257101876747252,0.7520710243135993,2.3835210740380974,2.419932190241105,70,249276.00000000003,58,79.5,0,-1,-4,0,0,0,-9.0,18.0,-989.0
1777477490.950167,response,right,x,1,1777477487.303641,3.6465258598327637,2,1.17542888001748,0.7705573889114301,2.389543747906751,2.424460227263233,70,249276.00000000003,58,79.5,0,-1,-4,0,0,0,-9.0,18.0,-989.0
1777477491.0004811,response,right,x,1,1777477487.303641,3.6968400478363037,2,1.17542888001748,0.7705573889114301,2.389543747906751,2.424460227263233,70,249283.0,58,79.5,0,0,-4,0,0,0,15.0,24.0,-1006.0
1777477491.050139,response,right,x,1,1777477487.303641,3.746497869491577,2,1.1906880702218672,0.8179432513313047,2.3796162699376695,2.4235536085695295,70,249283.0,58,79.5,0,0,-4,0,0,0,15.0,24.0,-1006.0
1777477491.099821,response,right,x,1,1777477487.303641,3.796180009841919,2,1.1729900961568387,0.7717620123087217,2.3965350264335505,2.431360257157923,70,249286.0,58,79.5,0,-1,-4,0,0,0,-4.0,5.0,-1012.0
1777477491.1501381,response,right,x,1,1777477487.303641,3.846497058868408,2,1.275655176623477,0.6920758853592056,2.401937593615325,2.4352819760410216,70,249286.0,58,79.5,0,-1,-4,0,0,0,-4.0,5.0,-1012.0
1777477491.199234,response,right,x,1,1777477487.303641,3.8955929279327393,2,1.224781380579799,0.7548092995008783,2.397631595852921,2.4341432943645467,70,249279.0,58,79.5,0,-1,-4,0,0,0,-22.0,29.0,-993.0
1777477491.248415,response,right,x,1,1777477487.303641,3.9447739124298096,2,1.150071947137492,0.7160195971715582,2.414444760022734,2.4396584749336023,70,249279.0,58,79.5,0,-1,-4,0,0,0,-22.0,29.0,-993.0
1777477491.298728,response,right,x,1,1777477487.303641,3.995086908340454,2,1.1533138967898586,0.7189689786648981,2.4208737067931962,2.4466049669985654,70,249300.0,58,79.5,0,-1,-4,0,0,0,-10.0,22.0,-1001.0
1777477491.3491,response,right,x,1,1777477487.303641,4.045459032058716,2,1.126067284820262,0.797386265668055,2.4057928535868607,2.441648635412795,70,249300.0,58,79.5,0,-1,-4,0,0,0,-10.0,22.0,-1001.0
1777477491.400293,response,right,x,1,1777477487.303641,4.096652030944824,2,1.1714225641044935,0.7720933905565035,2.4109714187791775,2.445531101611688,70,249298.0,58,78.5,0,-1,-4,0,0,0,-10.0,7.0,-1024.0
1777477491.4504168,response,right,x,1,1777477487.303641,4.146775722503662,2,1.1470110935982225,0.842748074436546,2.3957748355171207,2.440773480181088,70,249298.0,58,78.5,0,-1,-4,0,0,0,-10.0,7.0,-1024.0
1777477491.500503,response,right,x,1,1777477487.303641,4.196861982345581,2,1.10260024119829,0.8678490202844026,2.395597027559714,2.4430093396726833,70,249280.00000000003,58,78.5,0,-1,-4,0,0,0,-9.0,19.0,-1001.0
1777477491.5496662,response,right,x,1,1777477487.303641,4.246025085449219,2,1.1460254788575912,0.8446146402199715,2.402354484497926,2.4475115296890473,70,249280.00000000003,58,78.5,0,-1,-4,0,0,0,-9.0,19.0,-1001.0
1777477491.598033,response,right,x,1,1777477487.303641,4.294391870498657,2,1.1745831065093584,0.7753451425449052,2.4173155229966024,2.4525043475661468,70,249280.00000000003,58,78.5,0,-1,-4,0,0,0,-9.0,19.0,-1001.0
1777477491.647897,response,right,x,1,1777477487.303641,4.3442559242248535,2,1.2171818850881715,0.7037727333945653,2.4339361088269045,2.4624156486295954,70,249286.0,58,78.5,0,-1,-4,0,0,0,-10.0,19.0,-1013.0
1777477491.6976798,response,right,x,1,1777477487.303641,4.394038677215576,2,1.1723556288577246,0.7760566720628821,2.4241895324517864,2.459231581744745,70,249286.0,58,78.5,0,-1,-4,0,0,0,-10.0,19.0,-1013.0
1777477491.7481458,response,right,x,1,1777477487.303641,4.444504737854004,2,1.2273517584418128,0.7601673799672944,2.4245368763262123,2.4616637520840974,70,249287.0,58,78.5,0,-1,-4,0,0,0,0.0,3.0,-1009.0
1777477491.7989771,response,right,x,1,1777477487.303641,4.495336055755615,2,1.2324966293641615,0.7631430092434437,2.4231303393023165,2.4611964913585096,70,249278.00000000003,58,78.5,0,-1,-4,0,0,0,23.0,6.0,-986.0
1777477491.848141,response,right,x,1,1777477487.303641,4.54449987411499,2,1.1767480577654816,0.7793533087504718,2.430021843557078,2.465797025091145,70,249278.00000000003,58,78.5,0,-1,-4,0,0,0,23.0,6.0,-986.0
1777477491.898775,response,right,x,1,1777477487.303641,4.595134019851685,2,1.1780039522756112,0.7792337895209643,2.4297548429939964,2.465605862905292,70,249278.00000000003,58,78.5,0,-1,-4,0,0,0,23.0,6.0,-986.0
1777477491.948854,response,right,x,1,1777477487.303641,4.645212888717651,2,1.1780039522756112,0.7792337895209643,2.4297548429939964,2.465605862905292,70,249283.0,58,78.5,0,-1,-4,0,0,0,16.0,5.0,-972.0
1777477492.000418,response,right,x,1,1777477487.303641,4.696776866912842,2,1.1755989652544654,0.7788439571747727,2.436993733324207,2.472508078196659,70,249283.0,58,78.5,0,-1,-4,0,0,0,16.0,5.0,-972.0
1777477492.049435,response,right,x,1,1777477487.303641,4.74579381942749,2,1.2322138083083995,0.7623851003469715,2.4300702167948485,2.4678913007415737,70,249286.0,58,78.5,0,-1,-4,0,0,0,18.0,9.0,-1003.0
1777477492.1008792,response,right,x,1,1777477487.303641,4.797238111495972,2,1.2324740263035066,0.7635717054021371,2.4299842360590573,2.4680056615353014,70,249286.0,58,78.5,0,-1,-4,0,0,0,18.0,9.0,-1003.0
1777477492.150102,response,right,x,1,1777477487.303641,4.846460819244385,2,1.1767693677845164,0.7814363308426884,2.4364612800337477,2.472465298639672,70,249280.00000000003,58,78.5,0,-1,-4,0,0,0,31.0,23.0,-971.0
1777477492.2003999,response,right,x,1,1777477487.303641,4.896758794784546,2,1.230982898704939,0.7641340258256781,2.4369887599686777,2.474845632453027,70,249280.00000000003,58,78.5,0,-1,-4,0,0,0,31.0,23.0,-971.0
1777477492.249587,response,right,x,1,1777477487.303641,4.945945978164673,2,1.230982898704939,0.7641340258256781,2.4369887599686777,2.474845632453027,70,249287.0,58,78.5,0,-1,-4,0,0,0,-13.0,22.0,-999.0
1777477492.3002272,response,right,x,1,1777477487.303641,4.996586084365845,2,1.222301309195252,0.7077215250064459,2.4460921740691255,2.475374180414839,70,249287.0,58,78.5,0,-1,-4,0,0,0,-13.0,22.0,-999.0
1777477492.34957,response,right,x,1,1777477487.303641,5.045928955078125,2,1.2321777365885247,0.7641831049435575,2.43665378565392,2.474634822844631,70,249286.0,58,78.5,0,-1,-4,0,0,0,4.0,9.0,-1023.0
1777477492.400555,response,right,x,1,1777477487.303641,5.096913814544678,2,1.181407440867281,0.783197747819465,2.4423372603484386,2.4788627365835008,70,249286.0,58,78.5,0,-1,-4,0,0,0,4.0,9.0,-1023.0
1777477492.450451,response,right,x,1,1777477487.303641,5.146809816360474,2,1.2211893490252337,0.7092381838830306,2.4530660837654517,2.4823549693413813,70,249284.0,58,78.5,0,-1,-4,0,0,0,-3.0,10.0,-1021.0
1777477492.499968,response,right,x,1,1777477487.303641,5.196326971054077,2,1.1801494331229387,0.7854144773786789,2.4491274821080933,2.485804409289823,70,249284.0,58,78.5,0,-1,-4,0,0,0,-3.0,10.0,-1021.0
1777477492.549261,response,right,x,1,1777477487.303641,5.245620012283325,2,1.2360882797937998,0.768975162583699,2.442170504483883,2.481144316526293,70,249285.0,58,78.5,0,-1,-4,0,0,0,8.0,13.0,-1018.0
1777477492.6004,response,right,x,1,1777477487.303641,5.2967588901519775,2,1.2260029258363376,0.7116033709533862,2.4587684819523874,2.488717828746069,70,249285.0,58,78.5,0,-1,-4,0,0,0,8.0,13.0,-1018.0
1777477492.649983,response,right,x,1,1777477487.303641,5.346341848373413,2,1.1813794096144403,0.7853843166493939,2.448549307350468,2.4853195513410062,70,249292.0,58,78.5,0,-1,-4,0,0,0,-5.0,29.0,-994.0
1777477492.701133,response,right,x,1,1777477487.303641,5.397491931915283,2,1.150939783409811,0.8539845984243216,2.433962671500579,2.480536054984996,70,249292.0,58,78.5,0,-1,-4,0,0,0,-5.0,29.0,-994.0
1777477492.7505028,response,right,x,1,1777477487.303641,5.446861743927002,2,1.1813758006643105,0.7864849918759846,2.4482935633230434,2.4852382586426285,70,249283.0,58,78.5,0,-1,-4,0,0,0,5.0,-11.0,-1017.0
1777477492.801625,response,right,x,1,1777477487.303641,5.497983932495117,2,1.153768322502602,0.8581552502428497,2.439914736582473,2.4873147875013073,70,249283.0,58,78.5,0,-1,-4,0,0,0,5.0,-11.0,-1017.0
1777477492.85135,response,right,x,1,1777477487.303641,5.547708988189697,2,1.1823572832775442,0.787923789246666,2.4619132927843874,2.4989510011635527,70,249294.0,58,78.5,0,-1,-4,0,0,0,-5.0,12.0,-996.0
1777477492.902357,response,right,x,1,1777477487.303641,5.5987160205841064,2,1.1823118149672218,0.7906890881112175,2.4616313087987827,2.4991006906293762,70,249294.0,58,78.5,0,-1,-4,0,0,0,-5.0,12.0,-996.0
1777477492.951392,response,right,x,1,1777477487.303641,5.6477508544921875,2,1.1823118149672218,0.7906890881112175,2.4616313087987827,2.4991006906293762,70,249292.0,58,78.5,0,0,-4,0,0,0,27.0,-1.0,-983.0
1777477493.001853,response,right,x,1,1777477487.303641,5.698211908340454,2,1.1823827298356149,0.7890676818975535,2.4616489874195255,2.498870316463622,70,249292.0,58,78.5,0,0,-4,0,0,0,27.0,-1.0,-983.0
1777477493.050913,response,right,x,1,1777477487.303641,5.74727201461792,2,1.1606986624274067,0.8628931167039277,2.452159599948219,2.5006360793238276,70,249291.0,58,78.5,0,0,-4,0,0,0,-15.0,20.0,-1018.0
1777477493.10169,response,right,x,1,1777477487.303641,5.798048973083496,2,1.2308841597280717,0.7214684094137982,2.4775655877634146,2.508980006921907,70,249291.0,58,78.5,0,0,-4,0,0,0,-15.0,20.0,-1018.0
1777477493.150652,response,right,x,1,1777477487.303641,5.847010850906372,2,1.130633188507919,0.8174088732791831,2.4707698753392826,2.5091829296239117,70,249292.99999999997,58,78.5,0,0,-4,0,0,0,22.0,10.0,-971.0
1777477493.199411,response,right,x,1,1777477487.303641,5.895769834518433,2,1.179932611583837,0.7914206379412048,2.468524976372718,2.5058334780055938,70,249292.99999999997,58,78.5,0,0,-4,0,0,0,22.0,10.0,-971.0
1777477493.2500951,response,right,x,1,1777477487.303641,5.946454048156738,2,1.2396978904609304,0.7778789179165138,2.467892500346374,2.50813495421659,70,249291.0,58,78.5,0,-1,-4,0,0,0,12.0,4.0,-1028.0
1777477493.3011642,response,right,x,1,1777477487.303641,5.997523069381714,2,1.1846063799467361,0.793822054741874,2.4676006285382566,2.5056392773662672,70,249291.0,58,78.5,0,-1,-4,0,0,0,12.0,4.0,-1028.0
1777477493.350656,response,right,x,1,1777477487.303641,6.047014951705933,2,1.1821329690105575,0.7961960706772013,2.474803201723833,2.51292551264123,70,249292.99999999997,58,78.5,0,0,-4,0,0,0,25.0,7.0,-989.0
1777477493.4016309,response,right,x,1,1777477487.303641,6.097989797592163,2,1.1821329690105575,0.7961960706772013,2.474803201723833,2.51292551264123,70,249292.99999999997,58,78.5,0,0,-4,0,0,0,25.0,7.0,-989.0
1777477493.460906,response,right,x,1,1777477487.303641,6.157264947891235,2,1.2264391341058254,0.7212800389785848,2.4853476077650325,2.5162369277005787,70,249294.0,58,79.0,0,0,-4,0,0,0,-10.0,27.0,-986.0
1777477493.511984,response,right,x,1,1777477487.303641,6.208343029022217,2,1.241146163751988,0.7814932683831408,2.4743371502295273,2.5151606149747034,70,249294.0,58,79.0,0,0,-4,0,0,0,-10.0,27.0,-986.0
1777477493.561481,response,right,x,1,1777477487.303641,6.257839918136597,2,1.1798260577889934,0.7947639533731543,2.475347354709035,2.513069938622431,70,249286.0,58,79.0,0,0,-4,0,0,0,10.0,3.0,-1007.0
1777477493.611608,response,right,x,1,1777477487.303641,6.307966947555542,2,1.286968143909733,0.7124372804616934,2.48123722308612,2.5172417299634566,70,249286.0,58,79.0,0,0,-4,0,0,0,10.0,3.0,-1007.0
1777477493.662376,response,right,x,1,1777477487.303641,6.358734846115112,2,1.1853775311972228,0.7975587036433555,2.4741949585895706,2.5127790282922633,70,249289.0,58,79.0,0,-1,-4,0,0,0,-15.0,8.0,-1018.0
1777477493.7142148,response,right,x,1,1777477487.303641,6.410573720932007,4,1.0652286267168958,0.7562249969543489,2.486002654786635,2.679720688499252,70,249289.0,58,79.0,0,-1,-4,0,0,0,-15.0,8.0,-1018.0
1777477493.765028,response,right,x,1,1777477487.303641,6.4613869190216064,4,1.0652286267168958,0.7562249969543489,2.486002654786635,2.679720688499252,70,249285.0,58,79.0,0,-1,-4,0,0,0,8.0,3.0,-1029.0
1777477493.8164039,response,right,x,1,1777477487.303641,6.512762784957886,2,1.2253156923635047,0.7237556339990943,2.485098394104786,2.516207245072152,70,249285.0,58,79.0,0,-1,-4,0,0,0,8.0,3.0,-1029.0
1777477493.865896,response,right,x,1,1777477487.303641,6.562254905700684,2,1.1583417811328343,0.7402675512301907,2.493012175222529,2.5211036932026967,70,249285.0,58,79.0,0,-1,-4,0,0,0,-10.0,27.0,-1033.0
1777477493.916348,response,right,x,1,1777477487.303641,6.612706899642944,2,1.1583417811328343,0.7402675512301907,2.493012175222529,2.5211036932026967,70,249285.0,58,79.0,0,-1,-4,0,0,0,-10.0,27.0,-1033.0
1777477493.9670908,response,right,x,1,1777477487.303641,6.663449764251709,2,1.1798472845202308,0.7976252436094518,2.4747395434473893,2.5129239319977374,70,249289.0,58,79.0,0,-1,-4,0,0,0,-6.0,24.0,-999.0
1777477494.016323,response,right,x,1,1777477487.303641,6.712682008743286,2,1.285825045778209,0.7147511855598089,2.481130035024417,2.517294284803762,70,249289.0,58,79.0,0,-1,-4,0,0,0,-6.0,24.0,-999.0
1777477494.065917,response,right,x,1,1777477487.303641,6.76227593421936,2,1.2236762397940433,0.7224188048575287,2.4855380916942167,2.5163236181455457,70,249291.0,58,79.0,0,-1,-4,0,0,0,12.0,16.0,-995.0
1777477494.116225,response,right,x,1,1777477487.303641,6.812583923339844,2,1.1821816681600155,0.7996991311525483,2.4813512280868824,2.5199312436624033,70,249287.0,58,79.0,0,-1,-4,0,0,0,12.0,1.0,-1025.0
1777477494.167014,response,right,x,1,1777477487.303641,6.863372802734375,2,1.157076168527924,0.7436991768726787,2.4926683464648414,2.5211500416219055,70,249287.0,58,79.0,0,-1,-4,0,0,0,12.0,1.0,-1025.0
1777477494.216566,response,right,x,1,1777477487.303641,6.9129250049591064,2,1.09571187911449,0.7721884033933882,2.4875621984902763,2.5170718429917573,70,249286.0,58,79.0,0,0,-4,0,0,0,14.0,13.0,-986.0
