timestamp,elapsed,target_x,target_y,target_z,pos_x,pos_y,pos_z,marker_id,err_x_cm,err_y_cm,err_z_cm,err_3d_cm,cmd_lr,cmd_fb,cmd_ud,feedback,tello_height_cm,tello_baro_cm,tello_battery,tello_temp_c,tello_pitch,tello_roll,tello_yaw,tello_vgx,tello_vgy,tello_vgz,tello_agx,tello_agy,tello_agz
1777593089.618573,1.9073486328125e-06,0.8641004479546389,1.37669868550777,3.012699100463835,0.8827806478711357,1.3097616267403613,3.0367764853544315,2,-1.8680199916496831,6.693705876740874,-2.407738489059641,7.354753679438721,-10,13,30,ok,140,252727.0,87,82.0,0,0,0,0,0,0,-17.0,16.0,-1031.0
1777593089.690285,0.07171392440795898,0.8641004479546389,1.37669868550777,3.012699100463835,0.8878914788347758,1.3111640984068407,3.0375597378329693,2,-2.37910308801369,6.553458710092941,-2.486063736913424,7.401923092837783,-3,1,4,ok,140,252731.0,87,82.0,0,0,0,0,0,0,-17.0,13.0,-1006.0
1777593089.761287,0.1427159309387207,0.8641004479546389,1.37669868550777,3.012699100463835,0.8997290541095109,1.3790823202348792,3.0054005143640454,2,-3.5628606154871956,-0.23836347271091185,0.7298586099789617,3.644651766777318,-6,-11,-23,ok,140,252731.0,87,82.0,0,0,0,0,0,0,-17.0,13.0,-1006.0
1777593089.832778,0.21420693397521973,0.8641004479546389,1.37669868550777,3.012699100463835,0.869614152208222,1.412305833355207,2.980855649890611,2,-0.5513704253583107,-3.5607147847436904,3.184345057322391,4.808612332923673,10,-10,-14,ok,140,252719.99999999997,87,82.0,0,0,0,0,0,0,-5.0,-7.0,-1019.0
1777593089.903442,0.28487086296081543,0.8641004479546389,1.37669868550777,3.012699100463835,0.9037506531374077,1.382034542411133,3.005938296065178,2,-3.965020518276874,-0.5335856903363023,0.6760804398656894,4.057485201508104,-14,8,10,ok,140,252727.0,87,82.0,0,0,0,0,0,0,-22.0,0.0,-1021.0
1777593089.974765,0.35619401931762695,0.8641004479546389,1.37669868550777,3.012699100463835,0.8428204413278954,1.4464700032723217,2.9562141281529413,2,2.1280006626743564,-6.977131776455159,5.648497231089378,9.22573984111774,22,-20,-27,ok,140,252731.0,87,82.0,0,0,0,0,0,0,-47.0,28.0,-949.0
1777593090.046608,0.4280369281768799,0.8641004479546389,1.37669868550777,3.012699100463835,0.8668731367283325,1.4186052704678236,2.9812303587688156,2,-0.27726887736936323,-4.190658496005351,3.1468741695019453,5.247981869173907,-8,6,6,ok,140,252732.00000000003,87,82.0,0,0,0,0,0,0,-17.0,10.0,-982.0
1777593090.117843,0.49927186965942383,0.8641004479546389,1.37669868550777,3.012699100463835,0.8594826958447612,1.3540392948266606,3.001391406148976,2,0.4617752109877693,2.265939068110945,1.1307694314858896,2.5741708787602304,2,6,24,ok,140,252732.00000000003,87,82.0,0,0,0,0,0,0,-17.0,10.0,-982.0
1777593090.190413,0.5718419551849365,0.8641004479546389,1.37669868550777,3.012699100463835,0.8597221035239828,1.3614642291401808,3.011990945743225,2,0.43783444306561004,1.5234456367589244,0.07081547206100325,1.5866948158917014,0,3,-1,ok,140,252725.0,87,82.0,0,0,0,0,0,0,23.0,-18.0,-992.0
1777593090.261024,0.6424529552459717,0.8641004479546389,1.37669868550777,3.012699100463835,0.9001303816345608,1.3876281734479887,2.995444136210559,2,-3.602993367992191,-1.092948794021864,1.7254964253276217,4.141670700329513,-16,-6,-10,ok,140,252730.00000000003,87,82.0,0,0,0,0,0,0,-4.0,-15.0,-1031.0
1777593090.332696,0.7141249179840088,0.8641004479546389,1.37669868550777,3.012699100463835,0.8234786647830474,1.4041599985645323,2.9950443397796565,2,4.062178317159148,-2.746131305676225,1.7654760684178594,5.21147153657862,29,-1,-7,ok,140,252730.00000000003,87,82.0,0,0,0,0,0,0,-4.0,-15.0,-1031.0
1777593090.40413,0.7855589389801025,0.8641004479546389,1.37669868550777,3.012699100463835,0.866732178174087,1.4277426751969555,2.9807801142853587,2,-0.26317302194480696,-5.104398968918544,3.1918986178476327,6.025974249861502,-15,-6,-11,ok,140,252735.0,87,82.0,0,0,0,0,0,0,-25.0,9.0,-999.0
1777593090.476135,0.8575639724731445,0.8641004479546389,1.37669868550777,3.012699100463835,0.8605650226461662,1.3687920375719589,3.010635052841895,2,0.35354253084727283,0.7906647935811195,0.20640476219400128,0.8903628826399557,2,10,21,ok,140,252731.0,87,81.0,0,0,0,0,0,0,17.0,-8.0,-997.0
1777593090.547392,0.9288208484649658,0.8641004479546389,1.37669868550777,3.012699100463835,0.8329227332770186,1.4091958457668663,2.9961051646994328,2,3.1177714677620316,-3.2497160259096214,1.6593935764402268,4.799452074536834,11,-6,-16,ok,140,252731.0,87,81.0,0,0,0,0,0,0,17.0,-8.0,-997.0
1777593090.620765,1.0021939277648926,0.8641004479546389,1.37669868550777,3.012699100463835,0.8410615607205747,1.4684983449368971,2.965577551592055,2,2.303888723406422,-9.179965942912705,4.712154887178022,10.572799139472579,-1,-13,-26,ok,140,252735.0,86,81.0,0,0,0,0,0,0,-7.0,-20.0,-1007.0
1777593090.6933172,1.0747461318969727,0.8641004479546389,1.37669868550777,3.012699100463835,0.8607543261709895,1.380345783187979,3.0218407450721063,2,0.33461217836494583,-0.36470976802089883,-0.9141644608271271,1.0395552829163748,-6,19,30,ok,150,252732.00000000003,86,81.0,0,0,0,0,0,0,-43.0,32.0,-984.0
1777593090.764858,1.146286964416504,0.8641004479546389,1.37669868550777,3.012699100463835,0.8617225570323819,1.383527693959154,3.021976573368107,2,0.2377890922257042,-0.6829008451384011,-0.9277472904272166,1.1762704840160314,0,0,-1,ok,150,252738.0,86,81.0,0,0,0,0,0,0,6.0,20.0,-979.0
1777593090.83566,1.2170889377593994,0.8641004479546389,1.37669868550777,3.012699100463835,0.8371292154605493,1.4215781654843123,3.0067680142663895,2,2.6971232494089614,-4.487947997654218,0.5931086197445534,5.269528336290275,10,-5,-16,ok,150,252738.0,86,81.0,0,0,0,0,0,0,6.0,20.0,-979.0
1777593090.906891,1.2883200645446777,0.8641004479546389,1.37669868550777,3.012699100463835,0.8511359616575018,1.4807404520419953,2.9754621878017904,2,1.296448629713709,-10.404176653422525,3.7236912662044652,11.126254874445234,-4,-13,-28,ok,150,252733.0,86,81.0,0,0,0,0,0,0,-3.0,23.0,-1021.0
1777593090.9781818,1.3596107959747314,0.8641004479546389,1.37669868550777,3.012699100463835,0.8706566503602532,1.4482333014614706,2.9905149722605353,2,-0.6556202405614275,-7.1534615953700476,2.2184128203299736,7.518191680030005,-7,3,5,ok,150,252734.0,86,81.0,0,0,0,0,0,0,-6.0,0.0,-983.0
1777593091.05093,1.432358980178833,0.8641004479546389,1.37669868550777,3.012699100463835,0.8736516197061781,1.4491055181228152,2.99156769336985,2,-0.9551171751539189,-7.24068326150451,2.11314070939852,7.602966958327707,-1,-1,-5,ok,150,252734.0,86,81.0,0,0,0,0,0,0,-6.0,0.0,-983.0
1777593091.1233122,1.5047411918640137,0.8641004479546389,1.37669868550777,3.012699100463835,0.8783898521972983,1.4568739426049673,3.0006088559054627,2,-1.4289404242659343,-8.01752570971972,1.2090244558372376,8.233123913614476,-2,2,-8,ok,150,252732.00000000003,86,81.0,0,0,0,0,0,0,-4.0,14.0,-961.0
1777593091.194547,1.5759758949279785,0.8641004479546389,1.37669868550777,3.012699100463835,0.8478813091285711,1.4875826661327056,2.9759463674191307,2,1.6219138826067847,-11.088398062493553,3.675273304470439,11.793676699717375,11,-11,-19,ok,150,252736.0,86,81.0,0,0,0,0,0,0,-11.0,-2.0,-1005.0
1777593091.2663932,1.6478221416473389,0.8641004479546389,1.37669868550777,3.012699100463835,0.8699192044932426,1.4586401663046553,3.0013892326709843,2,-0.5818756538603642,-8.194148079688524,1.1309867792850703,8.29227189154674,-7,7,3,ok,150,252736.0,86,81.0,0,0,0,0,0,0,-11.0,-2.0,-1005.0
1777593091.338454,1.7198829650878906,0.8641004479546389,1.37669868550777,3.012699100463835,0.8777656759021769,1.4635414506226176,3.011105131162568,2,-1.3665227947537995,-8.684276511484757,0.15939693012669842,8.792579283568696,-3,3,-8,ok,150,252741.0,86,81.0,0,0,0,0,0,0,-7.0,4.0,-984.0
1777593091.409974,1.79140305519104,0.8641004479546389,1.37669868550777,3.012699100463835,0.846147940693487,1.4933911374000588,2.98663137357688,2,1.795250726115194,-11.66924518922887,2.606772688695491,12.09088385133556,12,-10,-19,ok,150,252737.0,86,81.0,0,0,0,0,0,0,-10.0,37.0,-983.0
1777593091.481376,1.862804889678955,0.8641004479546389,1.37669868550777,3.012699100463835,0.8724090435106544,1.4637072928585928,3.0117205030818694,2,-0.8308595556015486,-8.700860735082273,0.09785973819655958,8.740988597452278,-9,8,3,ok,150,252740.0,86,80.5,0,0,0,0,0,0,-41.0,35.0,-997.0
1777593091.55372,1.9351489543914795,0.8641004479546389,1.37669868550777,3.012699100463835,0.9107458295941641,1.4919119291854623,3.0046488429699987,2,-4.664538163952514,-11.521324367769225,0.8050257493836366,12.455797763591585,-16,-3,-18,ok,150,252740.0,86,80.5,0,0,0,0,0,0,-41.0,35.0,-997.0
1777593091.625466,2.006895065307617,0.8641004479546389,1.37669868550777,3.012699100463835,0.8728178579894603,1.469220913950307,3.0214469990851502,2,-0.8717410034821405,-9.252222844253687,-0.8747898621315198,9.334281827744968,12,6,0,ok,150,252740.0,86,80.5,0,0,0,0,0,0,9.0,-7.0,-1011.0
1777593091.695903,2.077332019805908,0.8641004479546389,1.37669868550777,3.012699100463835,0.8377915686678737,1.4461017157473015,3.0371825984711616,2,2.6308879286765174,-6.940303023953143,-2.448349800732652,7.815612202783385,13,6,2,ok,150,252746.0,86,80.5,0,0,0,0,0,0,-16.0,7.0,-1005.0
1777593091.767763,2.1491918563842773,0.8641004479546389,1.37669868550777,3.012699100463835,0.8688215629001022,1.468323662742658,3.021916142978352,2,-0.4721114945463234,-9.162497723488784,-0.9217042514516827,9.220834697757248,-11,-4,-15,ok,150,252746.0,86,80.5,0,0,0,0,0,0,-16.0,7.0,-1005.0
1777593091.8382552,2.21968412399292,0.8641004479546389,1.37669868550777,3.012699100463835,0.833799349767022,1.445116405927045,3.0377647158002965,2,3.030109818761695,-6.841772041927485,-2.5065615336461455,7.891404241921151,14,6,2,ok,150,252741.0,86,80.5,0,0,0,0,0,0,-12.0,19.0,-981.0
1777593091.909703,2.2911319732666016,0.8641004479546389,1.37669868550777,3.012699100463835,0.9112294844150323,1.4950083245176855,3.014878654840565,2,-4.712903646039335,-11.830963900991541,-0.21795543767297865,12.73698049681427,-29,-7,-26,ok,150,252736.0,86,80.5,0,0,0,0,0,0,-17.0,0.0,-997.0
1777593091.981094,2.362522840499878,0.8641004479546389,1.37669868550777,3.012699100463835,0.8822738119190054,1.527028295683543,3.000045410063814,2,-1.817336396436653,-15.032961017577296,1.2653690400020956,15.195189611887303,8,-6,-22,ok,150,252736.0,86,80.5,0,0,0,0,0,0,-17.0,0.0,-997.0
1777593092.053757,2.4351859092712402,0.8641004479546389,1.37669868550777,3.012699100463835,0.9116583000474628,1.497488809930108,3.0245491489895557,2,-4.755785209282393,-12.079012442233793,-1.1850048525720691,13.035500413758088,-13,8,0,ok,150,252744.99999999997,86,80.5,0,0,0,0,0,0,15.0,-19.0,-1008.0
1777593092.125108,2.5065369606018066,0.8641004479546389,1.37669868550777,3.012699100463835,0.8607606506824318,1.4062969941994035,3.064115002311226,2,0.33397972722071234,-2.959830869163338,-5.141590184739098,5.94206116259771,17,16,28,ok,150,252738.0,86,80.5,0,0,0,0,0,0,-56.0,43.0,-939.0
1777593092.19616,2.5775890350341797,0.8641004479546389,1.37669868550777,3.012699100463835,0.8602612829884302,1.404668824214383,3.0640453472247406,2,0.383916496620873,-2.7970138706612913,-5.13462467609056,5.8596116794005555,0,2,-2,ok,150,252737.0,86,80.5,0,-1,0,0,0,0,34.0,-4.0,-1045.0
1777593092.268066,2.6494948863983154,0.8641004479546389,1.37669868550777,3.012699100463835,0.8720520281066699,1.4643926465514236,3.0324462665391025,2,-0.7951580152031013,-8.769396104365356,-1.9747166075267497,9.024083886159413,-4,-9,-28,ok,150,252737.0,86,80.5,0,-1,0,0,0,0,34.0,-4.0,-1045.0
1777593092.3392918,2.7207207679748535,0.8641004479546389,1.37669868550777,3.012699100463835,0.8617502647417756,1.4062176189601132,3.0745745561038462,2,0.23501832128632882,-2.9518933452343132,-6.187545564001118,6.859637602641176,3,18,16,ok,150,252735.0,86,80.5,0,-1,0,0,0,0,-14.0,7.0,-1008.0
1777593092.411382,2.7928109169006348,0.8641004479546389,1.37669868550777,3.012699100463835,0.8579379211189193,1.4045762688783086,3.0747486122507377,2,0.6162526835719606,-2.7877583370538472,-6.204951178690266,6.830284258049045,1,3,-2,ok,150,252734.0,86,80.5,-1,0,0,0,0,0,-18.0,4.0,-1002.0
1777593092.483742,2.865170955657959,0.8641004479546389,1.37669868550777,3.012699100463835,0.8693659546427469,1.4602153545985175,3.0318717663982184,2,-0.526550668810799,-8.35166690907474,-1.9172665934383382,8.585074662300483,-4,-13,-26,ok,150,252734.0,86,80.5,-1,0,0,0,0,0,-18.0,4.0,-1002.0
1777593092.556494,2.937922954559326,0.8641004479546389,1.37669868550777,3.012699100463835,0.8674457404467807,1.4637939649019955,3.041674778332029,2,-0.33452924921417715,-8.709527939422546,-2.8975677868193994,9.184970649129761,0,5,-8,ok,150,252727.0,85,81.0,0,0,0,0,0,0,3.0,-1.0,-989.0
1777593092.627064,3.008492946624756,0.8641004479546389,1.37669868550777,3.012699100463835,0.8670162724081557,1.462316026161043,3.0416169303489657,2,-0.2915824453516791,-8.561734065327297,-2.8917829885130697,9.04161044175631,0,1,-7,ok,150,252717.99999999997,85,81.0,-1,0,0,0,0,0,-1.0,-8.0,-974.0
1777593092.6980329,3.0794618129730225,0.8641004479546389,1.37669868550777,3.012699100463835,0.8335295283442836,1.4980161361616142,3.0255435623587235,2,3.0570919610355296,-12.131745065384415,-1.2844461894888415,12.576758390117842,13,-4,-22,ok,150,252714.0,85,81.0,0,0,0,0,0,0,-9.0,21.0,-970.0
1777593092.7693598,3.1507887840270996,0.8641004479546389,1.37669868550777,3.012699100463835,0.8684614861017319,1.4582888526433218,3.041711197304504,2,-0.4361038147092988,-8.159016713555168,-2.9012096840669077,8.670453154259018,-12,7,6,ok,150,252714.0,85,81.0,0,0,0,0,0,0,-9.0,21.0,-970.0
1777593092.8404841,3.2219130992889404,0.8641004479546389,1.37669868550777,3.012699100463835,0.8230900744973386,1.4357154652670951,3.056788297759735,2,4.101037345730029,-5.901677975932507,-4.408919729590011,8.431303779644479,18,8,1,ok,150,252731.0,85,81.0,0,0,0,0,0,0,14.0,-16.0,-1025.0
1777593092.911905,3.2933340072631836,0.8641004479546389,1.37669868550777,3.012699100463835,0.8496557544162304,1.399353905973105,3.0834378096663935,2,1.4444693538408493,-2.265522046533497,-7.0738709202558425,7.566949957146273,-8,13,9,ok,150,252734.0,85,81.0,0,0,0,0,0,0,20.0,-19.0,-1028.0
1777593092.9839182,3.365347146987915,0.8641004479546389,1.37669868550777,3.012699100463835,0.8583378439750654,1.4548443653815593,3.041052470516767,2,0.5762603979573511,-7.814567987378918,-2.8353370052931925,8.332987748053295,-2,-13,-26,ok,150,252734.0,85,81.0,0,0,0,0,0,0,20.0,-19.0,-1028.0
1777593093.0556648,3.437093734741211,0.8641004479546389,1.37669868550777,3.012699100463835,0.8456573168688548,1.3907182989139597,3.0733124297197607,2,1.8443131085784104,-1.4019613406189624,-6.061332925592566,6.488970895137134,5,14,19,ok,150,252740.0,85,81.0,0,0,0,0,0,0,-13.0,9.0,-1023.0
1777593093.126886,3.508314847946167,0.8641004479546389,1.37669868550777,3.012699100463835,0.8614086914383944,1.4529126978300537,3.04043495171858,2,0.26917565162445367,-7.621401232228364,-2.773585125474476,8.114862088926266,-5,-9,-29,ok,150,252742.99999999997,85,81.0,0,0,0,0,0,0,-23.0,27.0,-1000.0
1777593093.198039,3.579468011856079,0.8641004479546389,1.37669868550777,3.012699100463835,0.8534664488264678,1.3893560114457362,3.072540381756445,2,1.063399912817109,-1.265732593796609,-5.984128129261013,6.208275754264741,3,15,19,ok,150,252742.99999999997,85,81.0,0,0,0,0,0,0,-23.0,27.0,-1000.0
1777593093.269257,3.650686025619507,0.8641004479546389,1.37669868550777,3.012699100463835,0.8765550150316211,1.347156336821029,3.088381487279672,2,-1.2454567076982226,2.9542348686740993,-7.568238681583717,8.219300627879504,-8,10,14,ok,150,252731.0,85,81.0,0,0,0,0,0,0,-24.0,17.0,-985.0
1777593093.3405702,3.721999168395996,0.8641004479546389,1.37669868550777,3.012699100463835,0.8479099101822645,1.3878505537241859,3.0730741506400836,2,1.6190537772374447,-1.1151868216415783,-6.037505017624856,6.3495231016663904,11,-1,-17,ok,150,252738.0,85,81.0,0,0,0,0,0,0,-19.0,23.0,-982.0
1777593093.410712,3.7921409606933594,0.8641004479546389,1.37669868550777,3.012699100463835,0.8000334741495154,1.357342295434632,3.07685443995317,2,6.40669738051235,1.9356390073138163,-6.415533948933483,9.27100563811805,20,5,10,ok,150,252725.0,85,81.0,-1,0,0,0,0,0,-7.0,12.0,-1012.0
1777593093.481848,3.863276958465576,0.8641004479546389,1.37669868550777,3.012699100463835,0.8748485176946276,1.3498664917823882,3.098781756344242,2,-1.0748069739988653,2.6832193725381925,-8.608265588040709,9.08058988539658,-26,13,2,ok,150,252725.0,85,81.0,-1,0,0,0,0,0,-7.0,12.0,-1012.0
1777593093.554377,3.9358060359954834,0.8641004479546389,1.37669868550777,3.012699100463835,0.8920153283164458,1.410411661489443,3.0563702856288817,2,-2.7914880361806893,-3.3712975981673,-4.367118516504664,6.183023296797969,-7,-11,-25,ok,150,252717.99999999997,85,80.5,-1,0,0,0,0,0,-8.0,11.0,-1064.0
1777593093.625173,4.006602048873901,0.8641004479546389,1.37669868550777,3.012699100463835,0.89161470190801,1.4089703953231858,3.0563266109553395,2,-2.7514253953371037,-3.2271709815415717,-4.362751049150448,6.084288862888847,-1,2,-3,ok,150,252723.0,85,80.5,0,0,0,0,0,0,0.0,-3.0,-991.0
1777593093.695481,4.076910018920898,0.8641004479546389,1.37669868550777,3.012699100463835,0.8572291869298464,1.4461482201024936,3.0410969764826006,2,0.6871261024792519,-6.944953459472347,-2.8397876018765533,7.534514878790607,12,-3,-19,ok,150,252723.0,85,80.5,0,0,0,0,0,0,0.0,-3.0,-991.0
1777593093.767456,4.148885011672974,0.8641004479546389,1.37669868550777,3.012699100463835,0.8753740441967466,1.3463875003147052,3.099054806806445,2,-1.1273596242107664,3.031118519306486,-8.635570634260992,9.221263437278765,-7,26,30,ok,140,252723.99999999997,85,80.5,-1,0,0,0,0,0,-23.0,6.0,-985.0
1777593093.837122,4.21855092048645,0.8641004479546389,1.37669868550777,3.012699100463835,0.8492976812252004,1.3821313486544926,3.07326861697273,2,1.4802766729438477,-0.5432663146722527,-6.056951650889486,6.258835404317016,10,-5,-15,ok,140,252732.00000000003,85,80.5,-1,0,0,0,0,0,9.0,13.0,-1039.0
1777593093.907951,4.289380073547363,0.8641004479546389,1.37669868550777,3.012699100463835,0.8492976812252004,1.3821313486544926,3.07326861697273,2,1.4802766729438477,-0.5432663146722527,-6.056951650889486,6.258835404317016,0,4,-2,ok,140,252733.0,85,80.5,-1,0,0,0,0,0,8.0,10.0,-1008.0
1777593093.979584,4.361012935638428,0.8641004479546389,1.37669868550777,3.012699100463835,0.8488250596189318,1.3806896820914614,3.0731974262386057,2,1.5275388335707074,-0.39909965836912864,-6.049832577477066,6.25244989111306,1,4,-1,ok,140,252733.0,85,80.5,-1,0,0,0,0,0,14.0,-22.0,-1033.0
1777593094.05359,4.435019016265869,0.8641004479546389,1.37669868550777,3.012699100463835,0.8492976812252004,1.3821313486544926,3.07326861697273,2,1.4802766729438477,-0.5432663146722527,-6.056951650889486,6.258835404317016,0,4,-2,ok,140,252733.0,85,80.5,-1,0,0,0,0,0,14.0,-22.0,-1033.0
1777593094.1263201,4.507749080657959,0.8641004479546389,1.37669868550777,3.012699100463835,0.8492976812252004,1.3821313486544926,3.07326861697273,2,1.4802766729438477,-0.5432663146722527,-6.056951650889486,6.258835404317016,0,4,-2,ok,140,252732.00000000003,85,80.5,-1,0,0,0,0,0,-42.0,18.0,-994.0
1777593094.197532,4.57896089553833,0.8641004479546389,1.37669868550777,3.012699100463835,0.8929645876184338,1.4086376665480316,3.0566840784842957,2,-2.8864139663794863,-3.1938981040261494,-4.398497802046064,6.154604260130496,-16,-2,-13,ok,140,252728.00000000003,85,80.5,-1,0,0,0,0,0,-3.0,3.0,-1008.0
1777593094.269248,4.650676965713501,0.8641004479546389,1.37669868550777,3.012699100463835,0.8524785074464027,1.3740729445088466,3.0525148750131827,2,1.1621940508236173,0.26257409989234315,-3.9815774549347704,4.156031664863603,14,1,10,ok,140,252728.00000000003,85,80.5,-1,0,0,0,0,0,-3.0,3.0,-1008.0
1777593094.3408341,4.7222630977630615,0.8641004479546389,1.37669868550777,3.012699100463835,0.8835160445186099,1.3437665613655678,3.088856077573905,2,-1.941559656397096,3.2932124142202257,-7.615697711006986,8.521370402110218,-12,18,10,ok,140,252730.00000000003,85,80.5,0,0,0,0,0,0,-25.0,20.0,-1007.0
1777593094.411923,4.793351888656616,0.8641004479546389,1.37669868550777,3.012699100463835,0.8245324529682077,1.416736051397185,3.036161885787103,2,3.9567994986431265,-4.003736588941487,-2.3462785323268065,6.09845815738281,23,-16,-30,ok,140,252728.00000000003,85,80.5,0,0,0,0,0,0,-32.0,15.0,-933.0
1777593094.483645,4.865073919296265,0.8641004479546389,1.37669868550777,3.012699100463835,0.8920598158098757,1.408087588773074,3.046231662760276,2,-2.7959367855236783,-3.138890326530386,-3.353256229644108,5.377194652630453,-25,6,-1,ok,140,252729.0,84,80.5,0,0,0,0,0,0,0.0,-9.0,-976.0
1777593094.555278,4.936707019805908,0.8641004479546389,1.37669868550777,3.012699100463835,0.8920598158098757,1.408087588773074,3.046231662760276,2,-2.7959367855236783,-3.138890326530386,-3.353256229644108,5.377194652630453,-1,2,-4,ok,140,252729.0,84,80.5,0,0,0,0,0,0,0.0,-9.0,-976.0
1777593094.626822,5.008250951766968,0.8641004479546389,1.37669868550777,3.012699100463835,0.8250146507334268,1.4181425019008413,3.0362474195744253,2,3.908579722121208,-4.144381639307126,-2.35483191105903,6.164262157447966,25,-1,-8,ok,140,252728.00000000003,84,80.5,0,0,0,0,0,0,-15.0,4.0,-1002.0
1777593094.698127,5.079555988311768,0.8641004479546389,1.37669868550777,3.012699100463835,0.8250146507334268,1.4181425019008413,3.0362474195744253,2,3.908579722121208,-4.144381639307126,-2.35483191105903,6.164262157447966,2,2,-5,ok,140,252732.00000000003,84,80.5,0,0,0,0,0,0,-45.0,29.0,-979.0
1777593094.769535,5.150964021682739,0.8641004479546389,1.37669868550777,3.012699100463835,0.8510454574385327,1.3799788353043088,3.052094379442067,2,1.3054990516106257,-0.32801497965386783,-3.939527897823192,4.163148046654213,-8,8,10,ok,140,252732.00000000003,84,80.5,0,0,0,0,0,0,-45.0,29.0,-979.0
1777593094.8411362,5.222565174102783,0.8641004479546389,1.37669868550777,3.012699100463835,0.8669407228286045,1.443468448860905,3.020879324743547,2,-0.28402748739655426,-6.6769763353135,-0.818022427971199,6.7328927875466125,-5,-9,-29,ok,140,252728.00000000003,84,80.5,0,0,0,0,0,0,-33.0,12.0,-962.0
1777593094.912386,5.2938148975372314,0.8641004479546389,1.37669868550777,3.012699100463835,0.8669407228286045,1.443468448860905,3.020879324743547,2,-0.28402748739655426,-6.6769763353135,-0.818022427971199,6.7328927875466125,0,1,-6,ok,140,252732.00000000003,84,80.5,0,0,0,0,0,0,-17.0,27.0,-1003.0
1777593094.9843898,5.365818738937378,0.8641004479546389,1.37669868550777,3.012699100463835,0.840319825706745,1.3135710100240932,3.0842014120895045,2,2.37806222478939,6.312767548367693,-7.150231162566945,9.830158683502416,10,27,30,ok,140,252732.00000000003,84,80.5,0,0,0,0,0,0,-17.0,27.0,-1003.0
1777593095.056569,5.437998056411743,0.8641004479546389,1.37669868550777,3.012699100463835,0.9030630344894534,1.412797713313927,3.0470257809737316,2,-3.8962586534814436,-3.6099027806156814,-3.432668050989651,6.324194773139973,-24,-9,-30,ok,140,252729.0,84,80.5,0,0,0,0,0,0,2.0,-6.0,-997.0
1777593095.128696,5.510124921798706,0.8641004479546389,1.37669868550777,3.012699100463835,0.8997916026883742,1.4125961302886956,3.0465715544000544,2,-3.5691154733735297,-3.589744478092549,-3.3872453936219404,6.090835906251567,0,2,-4,ok,150,252733.0,84,80.5,0,0,0,0,0,0,-14.0,19.0,-1006.0
1777593095.200942,5.58237099647522,0.8641004479546389,1.37669868550777,3.012699100463835,0.8291282548729034,1.4216070930183853,3.0374167692914193,2,3.497219308173549,-4.49084075106152,-2.4717668827584305,6.205467352549525,26,0,-8,ok,150,252736.0,84,80.5,0,0,0,0,0,0,-10.0,2.0,-955.0
1777593095.271927,5.653356075286865,0.8641004479546389,1.37669868550777,3.012699100463835,0.8700184150379426,1.4441809382065007,3.0217528211176656,2,-0.5917967083303721,-6.748225269873065,-0.9053720653830588,6.834359239440084,-14,-4,-15,ok,150,252736.0,84,80.5,0,0,0,0,0,0,-10.0,2.0,-955.0
1777593095.342186,5.723614931106567,0.8641004479546389,1.37669868550777,3.012699100463835,0.9011917437183379,1.4122377145887186,3.046958138878708,2,-3.709129576369896,-3.5539029080948525,-3.42590384148731,6.174519027874519,-13,11,6,ok,150,252726.00000000003,84,80.5,-1,0,0,0,0,0,19.0,-5.0,-1049.0
1777593095.413594,5.795022964477539,0.8641004479546389,1.37669868550777,3.012699100463835,0.9016353459363441,1.4137325124767326,3.0470054634894677,2,-3.7534897981705173,-3.7033826968962513,-3.4306363025632614,6.29070699564887,-2,3,-5,ok,150,252732.00000000003,84,80.5,-1,0,0,0,0,0,-1.0,11.0,-992.0
1777593095.48573,5.867158889770508,0.8641004479546389,1.37669868550777,3.012699100463835,0.8309716738781943,1.4226349141812036,3.0379745432653102,2,3.3128774076444656,-4.59362286734335,-2.52754428014752,6.202016434480587,26,0,-8,ok,150,252732.00000000003,84,80.5,-1,0,0,0,0,0,-1.0,11.0,-992.0
1777593095.5568051,5.938234090805054,0.8641004479546389,1.37669868550777,3.012699100463835,0.8713414783277889,1.4438174296171766,3.0221734703935716,2,-0.7241030373149937,-6.711874410940655,-0.9474369929736604,6.816980282540337,-14,-4,-14,ok,150,252730.00000000003,84,80.5,0,0,0,0,0,0,-2.0,1.0,-1002.0
1777593095.626771,6.00819993019104,0.8641004479546389,1.37669868550777,3.012699100463835,0.906107827047157,1.4727061017769847,3.0159213676885783,2,-4.2007379092518065,-9.600741626921462,-0.32222672247432804,10.484477518207779,-14,-1,-19,ok,150,252736.0,84,80.5,0,0,0,0,0,0,-29.0,14.0,-954.0
1777593095.698528,6.079957008361816,0.8641004479546389,1.37669868550777,3.012699100463835,0.8454621485930951,1.31364936157037,3.0857409556029904,2,1.863829936154382,6.304932393740015,-7.30418551391554,9.827367935629105,22,29,30,ok,150,252736.0,84,80.5,0,0,0,0,0,0,-29.0,14.0,-954.0
1777593095.770127,6.151556015014648,0.8641004479546389,1.37669868550777,3.012699100463835,0.8731307388168366,1.4448752991119274,3.022664255289513,2,-0.9030290862197643,-6.817661360415728,-0.9965154825677836,6.9490295051080215,-10,-20,-30,ok,150,252727.0,84,80.5,0,0,0,0,0,0,-9.0,-1.0,-998.0
1777593095.8403368,6.221765756607056,0.8641004479546389,1.37669868550777,3.012699100463835,0.8468847015911729,1.4757083595439267,2.997322952246955,2,1.7215746363466011,-9.900967403615656,1.5376148216879937,10.16647599199675,10,-8,-20,ok,150,252735.0,84,80.5,0,0,0,0,0,0,-22.0,26.0,-978.0
1777593095.912031,6.293459892272949,0.8641004479546389,1.37669868550777,3.012699100463835,0.8624387540314484,1.3808992005017087,3.0551513517671904,2,0.16616939231904881,-0.42005149939385866,-4.245225130335539,4.269191016611825,-5,23,29,ok,150,252735.0,84,80.5,0,0,0,0,0,0,-22.0,26.0,-978.0
1777593095.9839108,6.365339756011963,0.8641004479546389,1.37669868550777,3.012699100463835,0.9046536749835505,1.4059202927754364,3.038248331695235,2,-4.0553227028911625,-2.9221607267666316,-2.554923123140007,5.613581539694356,-17,-3,-13,ok,150,252731.0,84,80.5,-1,0,0,0,0,0,-21.0,33.0,-996.0
1777593096.055265,6.436693906784058,0.8641004479546389,1.37669868550777,3.012699100463835,0.8739861175368893,1.443069909304159,3.0230412422635355,2,-0.9885669582250345,-6.637122379638893,-1.03421417997005,6.789569727401647,10,-3,-20,ok,150,252735.0,84,80.5,-1,0,0,0,0,0,-9.0,-4.0,-966.0
1777593096.1270962,6.508525133132935,0.8641004479546389,1.37669868550777,3.012699100463835,0.8953761886895436,1.3388420739297433,3.0701249282261047,2,-3.127574073490469,3.7856611578026778,-5.742582776226968,7.555806173313625,-9,20,30,ok,150,252741.0,84,80.5,0,0,0,0,0,0,-38.0,31.0,-989.0
1777593096.199038,6.580466985702515,0.8641004479546389,1.37669868550777,3.012699100463835,0.8953761886895436,1.3388420739297433,3.0701249282261047,2,-3.127574073490469,3.7856611578026778,-5.742582776226968,7.555806173313625,-1,4,0,ok,150,252741.0,84,80.5,0,0,0,0,0,0,-38.0,31.0,-989.0
1777593096.2694762,6.650905132293701,0.8641004479546389,1.37669868550777,3.012699100463835,0.859595440334887,1.3753156600978358,3.044907400542786,2,0.4505007619751922,0.1383025409934291,-3.2208300078950813,3.255122804003391,12,-5,-15,ok,150,252727.0,84,80.5,-1,0,0,0,0,0,-1.0,18.0,-1010.0
1777593096.3412118,6.722640752792358,0.8641004479546389,1.37669868550777,3.012699100463835,0.8751089183862484,1.4371627810990524,3.013766321371432,2,-1.1008470431609463,-6.04640955912823,-0.10672209075970329,6.146732658397432,-6,-9,-28,ok,150,252732.00000000003,84,80.5,-1,0,0,0,0,0,-9.0,7.0,-1012.0
1777593096.41286,6.794288873672485,0.8641004479546389,1.37669868550777,3.012699100463835,0.9075567403999271,1.4014583759902637,3.027687228143851,2,-4.345629244528815,-2.47596904824936,-1.4988127680016117,5.221240846036272,-13,6,7,ok,150,252732.00000000003,84,80.5,-1,0,0,0,0,0,-9.0,7.0,-1012.0
1777593096.485335,6.866764068603516,0.8641004479546389,1.37669868550777,3.012699100463835,0.915656023889184,1.4679406202478646,3.005779630588452,2,-5.155557593454507,-9.124193474009456,0.6919469875382944,10.502831584108472,-6,-6,-30,ok,150,252721.99999999997,84,80.5,-1,0,0,0,0,0,11.0,7.0,-1028.0
1777593096.557023,6.9384520053863525,0.8641004479546389,1.37669868550777,3.012699100463835,0.9080308175403655,1.4029520497515615,3.0277355581488683,2,-4.39303695857266,-2.6253364243791433,-1.5036457685033255,5.334052461093268,0,9,18,ok,150,252726.00000000003,83,80.5,0,0,0,0,0,0,-12.0,25.0,-966.0
1777593096.629055,7.010483980178833,0.8641004479546389,1.37669868550777,3.012699100463835,0.8811396954610073,1.4399453044787083,3.0132323395280256,2,-1.7039247506368427,-6.3246618970938195,-0.053323906419056044,6.550385569367578,8,-3,-20,ok,150,252732.00000000003,83,80.5,0,0,0,0,0,0,3.0,23.0,-1018.0
1777593096.7003179,7.081746816635132,0.8641004479546389,1.37669868550777,3.012699100463835,0.8760579945206233,1.4400382713413813,3.013884237843512,2,-1.1957546565984356,-6.333958583361121,-0.11851373796769593,6.446929970194956,0,1,-7,ok,150,252732.00000000003,83,80.5,0,0,0,0,0,0,3.0,23.0,-1018.0
1777593096.7712698,7.152698755264282,0.8641004479546389,1.37669868550777,3.012699100463835,0.9080308175403655,1.4029520497515615,3.0277355581488683,2,-4.39303695857266,-2.6253364243791433,-1.5036457685033255,5.334052461093268,-14,6,8,ok,150,252723.99999999997,83,80.5,0,0,0,0,0,0,-6.0,-1.0,-988.0
1777593096.842011,7.223439931869507,0.8641004479546389,1.37669868550777,3.012699100463835,0.9020103803475824,1.4032343806591658,3.0282394440090763,2,-3.790993239294349,-2.6535695151395755,-1.5540343545241253,4.881401815779434,0,2,-4,ok,150,252723.99999999997,83,80.5,0,0,0,0,0,0,-19.0,11.0,-975.0
1777593096.913339,7.2947678565979,0.8641004479546389,1.37669868550777,3.012699100463835,0.9034062982770117,1.4041117627538413,3.027896669555438,2,-3.930585032237277,-2.7413077246071227,-1.5197569091602858,5.027318151816019,-3,1,-5,ok,150,252723.99999999997,83,80.5,0,0,0,0,0,0,-19.0,11.0,-975.0
1777593096.985271,7.366699934005737,0.8641004479546389,1.37669868550777,3.012699100463835,0.9146363404751593,1.4624961384549753,2.9961642521159857,2,-5.053589252052038,-8.57974529472052,1.6534848347849351,10.093800362083577,-7,-10,-29,ok,150,252723.99999999997,83,80.5,0,0,0,0,0,0,-13.0,5.0,-969.0
1777593097.057863,7.439291954040527,0.8641004479546389,1.37669868550777,3.012699100463835,0.9029524410803463,1.402609296104358,3.027850458585162,2,-3.885199312570742,-2.5910610596587835,-1.5151358121327174,4.909583245295606,1,13,15,ok,150,252734.0,83,80.5,0,0,0,0,0,0,-11.0,11.0,-998.0
1777593097.129438,7.51086688041687,0.8641004479546389,1.37669868550777,3.012699100463835,0.9034902144210301,1.4030801033987395,3.0267250602052354,2,-3.938976646639114,-2.638141789096937,-1.4025959741400307,4.94394625666802,-2,1,-5,ok,150,252728.00000000003,83,80.5,0,0,0,0,0,0,-3.0,15.0,-990.0
1777593097.201119,7.582547903060913,0.8641004479546389,1.37669868550777,3.012699100463835,0.9066224005269021,1.4033341432081166,3.0273210076549733,2,-4.252195257226321,-2.6635457700346477,-1.4621907191138206,5.226245523672809,-3,2,-5,ok,150,252717.99999999997,83,80.5,0,0,0,0,0,0,-6.0,-6.0,-985.0
1777593097.2721658,7.653594732284546,0.8641004479546389,1.37669868550777,3.012699100463835,0.8509352513425628,1.4691261094074122,2.987648506442201,2,1.3165196612076158,-9.24274238996421,2.50505940216339,9.66627298983195,20,-14,-30,ok,150,252717.99999999997,83,80.5,0,0,0,0,0,0,-6.0,-6.0,-985.0
1777593097.3426912,7.724120140075684,0.8641004479546389,1.37669868550777,3.012699100463835,0.8953582219678166,1.33495593597384,3.059595217992212,2,-3.125777401317764,4.174274953392998,-4.689611752837708,7.013381077730378,-17,29,30,ok,150,252719.99999999997,83,80.5,0,0,0,0,0,0,-12.0,22.0,-982.0
1777593097.41419,7.795619010925293,0.8641004479546389,1.37669868550777,3.012699100463835,0.8745652372521473,1.4377448173227183,3.011637459645602,2,-1.0464789297508381,-6.104613181494822,0.10616408182331227,6.194569481276498,6,-15,-30,ok,140,252721.0,83,80.5,0,0,0,0,0,0,0.0,7.0,-1013.0
1777593097.4868648,7.868293762207031,0.8641004479546389,1.37669868550777,3.012699100463835,0.9070763154175072,1.3994509863029014,3.027211378227317,2,-4.2975867462868305,-2.2752300795131353,-1.4512277763481851,5.074641446981852,-14,7,8,ok,140,252721.0,83,80.5,0,0,0,0,0,0,0.0,7.0,-1013.0
1777593097.558692,7.9401209354400635,0.8641004479546389,1.37669868550777,3.012699100463835,0.8607609590440972,1.3679070733942669,3.033484248063719,2,0.3339488910541699,0.8791612113503211,-2.0785147599883924,2.281374564789587,15,4,8,ok,140,252721.0,83,80.0,0,0,0,0,0,0,-6.0,5.0,-1028.0
1777593097.630656,8.0120849609375,0.8641004479546389,1.37669868550777,3.012699100463835,0.8815392560992488,1.4868689459289408,2.9706036250220222,2,-1.7438808144609852,-11.017026042117074,4.20954754418128,11.92209183132111,-8,-23,-30,ok,140,252721.0,83,80.0,0,0,0,0,0,0,-6.0,5.0,-1028.0
1777593097.7018392,8.083268165588379,0.8641004479546389,1.37669868550777,3.012699100463835,0.8970261328512236,1.3977702642917085,3.026477339835733,2,-3.292568489658465,-2.1071578783938394,-1.3778239371898149,4.144818498494511,-7,21,26,ok,140,252727.0,83,80.0,-1,0,0,0,0,0,-14.0,25.0,-999.0
1777593097.773401,8.154829978942871,0.8641004479546389,1.37669868550777,3.012699100463835,0.8966008579315476,1.3963171086683708,3.0264315864713858,2,-3.250040997690873,-1.9618423160600695,-1.3732486007550726,4.037004270400415,-2,2,-4,ok,140,252729.0,83,80.0,0,0,0,0,0,0,-6.0,4.0,-1033.0
1777593097.843864,8.225292921066284,0.8641004479546389,1.37669868550777,3.012699100463835,0.8295551702912325,1.404715000169284,3.016703161936523,2,3.4545277663406426,-2.8016314661513997,-0.40040614726879475,4.465783922596205,25,-1,-8,ok,140,252733.0,83,80.0,0,0,0,0,0,0,2.0,8.0,-969.0
1777593097.915191,8.296619892120361,0.8641004479546389,1.37669868550777,3.012699100463835,0.8961756027703566,1.394873775485959,3.0263856872942996,2,-3.2075154815717655,-1.8175089978188952,-1.368658683046453,3.932520961463988,-25,5,-1,ok,140,252721.99999999997,83,80.0,0,0,0,0,0,0,-5.0,17.0,-1016.0
1777593097.9886541,8.370083093643188,0.8641004479546389,1.37669868550777,3.012699100463835,0.8568667284220709,1.3680037262924332,3.0422031394416797,2,0.7233719532568017,0.8694959215336917,-2.9504038977844704,3.159774248325991,13,8,6,ok,140,252721.99999999997,83,80.0,0,0,0,0,0,0,-5.0,17.0,-1016.0
1777593098.0606568,8.44208574295044,0.8641004479546389,1.37669868550777,3.012699100463835,0.8813669418596672,1.3264124570594376,3.0572845927844536,2,-1.7266493905028324,5.028622844833253,-4.458549232061859,6.938805883437155,-9,9,14,ok,140,252725.0,83,80.0,0,0,0,0,0,0,-17.0,8.0,-1014.0
1777593098.1323462,8.513775110244751,0.8641004479546389,1.37669868550777,3.012699100463835,0.8555373321189557,1.3614400943980787,3.0322537622981396,2,0.8563115835683255,1.525859110969141,-1.9554661834304543,2.6239976275181536,9,-6,-14,ok,140,252716.0,83,80.0,0,0,0,0,0,0,-13.0,15.0,-1018.0
1777593098.203864,8.585293054580688,0.8641004479546389,1.37669868550777,3.012699100463835,0.8855644248119916,1.3248462933371525,3.0579678788909876,2,-2.1463976857352685,5.1852392170617545,-4.52687784271526,7.2101561540892645,-12,13,13,ok,140,252716.0,83,80.0,0,0,0,0,0,0,-13.0,15.0,-1018.0
1777593098.275123,8.656551837921143,0.8641004479546389,1.37669868550777,3.012699100463835,0.88448200350814,1.3301599565476532,3.0676194725746533,2,-2.0381555553501074,4.65387289601169,-5.492037211081824,7.481649799873298,-1,8,-1,ok,140,252726.00000000003,83,80.0,0,0,0,0,0,0,-6.0,13.0,-1024.0
1777593098.346943,8.728371858596802,0.8641004479546389,1.37669868550777,3.012699100463835,0.8521997539798541,1.3665911512347937,3.0415964107325473,2,1.190069397478477,1.0107534272976393,-2.889731026871223,3.2845750211056104,11,-5,-14,ok,140,252717.99999999997,83,80.0,-1,0,0,0,0,0,-32.0,23.0,-941.0
1777593098.419818,8.801246881484985,0.8641004479546389,1.37669868550777,3.012699100463835,0.8545178862283287,1.3711731637345088,3.0521355905936445,2,0.9582561726310224,0.5525521773261266,-3.943649012980943,4.095843788358983,0,7,-4,ok,140,252717.99999999997,83,80.0,0,0,0,0,0,0,9.0,-9.0,-975.0
1777593098.49107,8.872498989105225,0.8641004479546389,1.37669868550777,3.012699100463835,0.847834921810128,1.3674527381791333,3.0417610847695795,2,1.6265526144510933,0.9245947328636817,-2.906198430574447,3.456376447305809,2,0,-1,ok,140,252717.99999999997,83,80.0,0,0,0,0,0,0,9.0,-9.0,-975.0
1777593098.561952,8.943381071090698,0.8641004479546389,1.37669868550777,3.012699100463835,0.8787063595332465,1.3315914421502026,3.067460286979089,2,-1.4605911578607578,4.510724335756744,-5.476118651525397,7.243468509574227,-12,13,12,ok,140,252714.0,82,80.0,0,0,0,0,0,0,-12.0,20.0,-996.0
1777593098.633779,9.015208005905151,0.8641004479546389,1.37669868550777,3.012699100463835,0.8359588265801571,1.2989262622299473,3.0727577962422217,2,2.814162137448184,7.777242327782274,-6.005869577838663,10.221324578884243,16,6,13,ok,140,252726.00000000003,82,80.0,0,0,0,0,0,0,-15.0,19.0,-983.0
1777593098.705099,9.086528062820435,0.8641004479546389,1.37669868550777,3.012699100463835,0.8884889314046394,1.3973117693355128,3.0357645319720796,2,-2.438848345000044,-2.061308382774274,-2.3065431508244583,3.9391769197917688,-20,-10,-30,ok,140,252726.00000000003,82,80.0,0,0,0,0,0,0,-15.0,19.0,-983.0
1777593098.775622,9.157050848007202,0.8641004479546389,1.37669868550777,3.012699100463835,0.8955995827415146,1.4021662385164233,3.04557277091293,2,-3.1499134786875715,-2.546755300865322,-3.287367044909484,5.216770991107446,-4,6,-6,ok,140,252721.99999999997,82,80.0,0,0,0,0,0,0,-25.0,14.0,-1006.0
1777593098.8473852,9.228814125061035,0.8641004479546389,1.37669868550777,3.012699100463835,0.8488416815071809,1.3719618258044046,3.051562438807778,2,1.525876644745805,0.4736859703365459,-3.8863338343943177,4.201936292452853,16,5,7,ok,140,252728.00000000003,82,80.0,-1,0,0,0,0,0,3.0,1.0,-1028.0
1777593098.919184,9.300612926483154,0.8641004479546389,1.37669868550777,3.012699100463835,0.8488416815071809,1.3719618258044046,3.051562438807778,2,1.525876644745805,0.4736859703365459,-3.8863338343943177,4.201936292452853,0,3,-2,ok,140,252728.00000000003,82,80.0,-1,0,0,0,0,0,3.0,1.0,-1028.0
1777593098.988974,9.370403051376343,0.8641004479546389,1.37669868550777,3.012699100463835,0.8601950755421293,1.4348032843814207,3.01933248606762,2,0.39053724125096556,-5.81045988736506,-0.6633385603784792,5.861226960728215,-4,-9,-29,ok,140,252731.0,82,80.0,0,0,0,0,0,0,-22.0,13.0,-997.0
1777593099.0611498,9.442578792572021,0.8641004479546389,1.37669868550777,3.012699100463835,0.847313297267767,1.3719167745112646,3.0497960153481998,2,1.6787150686871866,0.47819109965054896,-3.709691488436473,4.099824624176068,5,14,19,ok,140,252717.0,82,80.0,0,-1,0,0,0,0,-28.0,21.0,-995.0
1777593099.132468,9.513896942138672,0.8641004479546389,1.37669868550777,3.012699100463835,0.8886224942406623,1.3959507489319396,3.034533159612651,2,-2.452204628602339,-1.9252063424169519,-2.1834059148815754,3.8061776614552616,-16,-2,-12,ok,140,252711.0,82,80.0,0,0,0,0,0,0,-15.0,37.0,-992.0
1777593099.2048151,9.586244106292725,0.8641004479546389,1.37669868550777,3.012699100463835,0.8411583731230603,1.3646637209324157,3.0399876303807187,2,2.294207483157862,1.2034964575354357,-2.7288529916883686,3.7627689736847296,17,5,8,ok,140,252711.0,82,80.0,0,0,0,0,0,0,-15.0,37.0,-992.0
1777593099.277044,9.658473014831543,0.8641004479546389,1.37669868550777,3.012699100463835,0.8778980778558267,1.3942453129756083,3.033644447665357,2,-1.3797629901187825,-1.7546627467838194,-2.094534720152197,3.060990519060048,-13,0,-14,ok,140,252719.99999999997,82,80.0,0,0,0,0,0,0,-22.0,28.0,-972.0
1777593099.3491871,9.730616092681885,0.8641004479546389,1.37669868550777,3.012699100463835,0.8404996656166227,1.3629754568438122,3.039215877138405,2,2.3600782338016213,1.372322866395792,-2.6516776674569975,3.80586833342762,13,5,8,ok,140,252723.0,82,80.0,0,0,0,0,0,0,-15.0,16.0,-952.0
1777593099.421366,9.802794933319092,0.8641004479546389,1.37669868550777,3.012699100463835,0.8262731124269602,1.2936193026165133,3.0702478384246707,2,3.7827335527678696,8.307938289125683,-5.7548737960835705,10.791176217447555,6,16,27,ok,140,252723.0,82,80.0,0,0,0,0,0,0,-15.0,16.0,-952.0
1777593099.492411,9.873839855194092,0.8641004479546389,1.37669868550777,3.012699100463835,0.8423410613459617,1.3560163923462558,3.028755472813717,2,2.1759386608677267,2.0682293161514265,-1.6056372349881887,3.4044606754121203,-4,-11,-23,ok,140,252727.0,82,80.0,0,0,0,0,0,0,-11.0,16.0,-988.0
1777593099.5644832,9.94591212272644,0.8641004479546389,1.37669868550777,3.012699100463835,0.8356145226067782,1.3601243194813029,3.0386578731968394,2,2.8485925347860763,1.6574366026467224,-2.59587727330044,4.195253787206419,3,6,-3,ok,140,252716.0,82,80.0,0,0,0,0,0,0,-14.0,17.0,-1030.0
1777593099.636273,10.017701864242554,0.8641004479546389,1.37669868550777,3.012699100463835,0.8793619898080707,1.3840693230675507,3.022618544683469,2,-1.526154185343176,-0.7370637559780624,-0.9919444219633977,1.9637625401461554,-16,-3,-11,ok,140,252716.0,82,80.0,0,0,0,0,0,0,-14.0,17.0,-1030.0
1777593099.707092,10.088521003723145,0.8641004479546389,1.37669868550777,3.012699100463835,0.8126372476450358,1.3950334489905045,3.0117768021574203,2,5.146320030960316,-1.833476348273444,0.09222983064147705,5.463950193989845,26,-2,-8,ok,140,252723.99999999997,82,80.0,0,0,0,0,0,0,-12.0,28.0,-925.0
1777593099.7788951,10.160324096679688,0.8641004479546389,1.37669868550777,3.012699100463835,0.8078537985075064,1.394242601157547,3.011892432924779,2,5.6246649447132535,-1.7543915649776975,0.08066675390558942,5.892474236578104,4,1,-4,ok,140,252719.99999999997,82,80.0,0,0,0,0,0,0,2.0,-13.0,-974.0
1777593099.8506,10.23202896118164,0.8641004479546389,1.37669868550777,3.012699100463835,0.7929757482876912,1.3294055562808382,3.0419680739739894,2,7.112469966694768,4.729312922693185,-2.926897351015434,9.028862489332141,9,14,23,ok,140,252719.0,82,80.0,0,0,0,0,0,0,-1.0,1.0,-1006.0
1777593099.921012,10.302440881729126,0.8641004479546389,1.37669868550777,3.012699100463835,0.8386116078409498,1.3525998868944624,3.027893585497746,2,2.5488840113689126,2.409879861330766,-1.5194485033910965,3.8227025000537402,-14,-2,-9,ok,140,252719.0,82,80.0,0,0,0,0,0,0,-1.0,1.0,-1006.0
1777593099.992779,10.374207973480225,0.8641004479546389,1.37669868550777,3.012699100463835,0.8339786064398368,1.3518302994930065,3.028015919423066,2,3.012184151480213,2.48683860147636,-1.5316818959230982,4.195672654357111,3,2,-1,ok,140,252712.0,82,80.0,0,0,0,0,0,0,-4.0,7.0,-1010.0
1777593100.0647712,10.446200132369995,0.8641004479546389,1.37669868550777,3.012699100463835,0.8339786064398368,1.3518302994930065,3.028015919423066,2,3.012184151480213,2.48683860147636,-1.5316818959230982,4.195672654357111,1,2,-1,ok,140,252721.0,82,80.0,0,0,0,0,0,0,-8.0,17.0,-1016.0
1777593100.14416,10.525588989257812,0.8641004479546389,1.37669868550777,3.012699100463835,0.8341744879493711,1.3530204633107807,3.026844473117246,2,2.9925960005267815,2.367822219698934,-1.414537265341087,4.0697823727451965,1,2,-1,ok,140,252721.0,82,80.0,0,0,0,0,0,0,-8.0,17.0,-1016.0
1777593100.2165918,10.598020792007446,0.8641004479546389,1.37669868550777,3.012699100463835,0.8373483844738064,1.3529206445558088,3.0275719284450564,2,2.6752063480832478,2.3778040951961232,-1.487282798122136,3.87591169165996,0,2,-1,ok,140,252721.0,82,80.0,0,0,0,0,0,0,-19.0,11.0,-941.0
1777593100.2882361,10.669665098190308,0.8641004479546389,1.37669868550777,3.012699100463835,0.7874356664024266,1.324966166566956,3.0306751778613714,2,7.666478155221235,5.173251894081399,-1.7976077397536372,9.421720440032349,21,3,10,ok,140,252710.0,82,80.0,0,0,0,0,0,0,-6.0,3.0,-996.0
1777593100.359045,10.740473985671997,0.8641004479546389,1.37669868550777,3.012699100463835,0.788969356010693,1.3256503034392275,3.0306133747360415,2,7.5131091943945965,5.104838206854256,-1.7914274272206487,9.258260911858878,3,2,0,ok,140,252723.99999999997,82,80.0,0,0,0,0,0,0,-22.0,9.0,-995.0
1777593100.4306712,10.812100172042847,0.8641004479546389,1.37669868550777,3.012699100463835,0.788969356010693,1.3256503034392275,3.0306133747360415,2,7.5131091943945965,5.104838206854256,-1.7914274272206487,9.258260911858878,4,2,0,ok,140,252723.99999999997,82,80.0,0,0,0,0,0,0,-22.0,9.0,-995.0
1777593100.5022788,10.883707761764526,0.8641004479546389,1.37669868550777,3.012699100463835,0.8481311227194939,1.4178205030332154,2.9963692281002743,2,1.5969325235145049,-4.11218175254453,1.632987236356076,4.70392172178922,-19,-11,-30,ok,140,252717.99999999997,82,80.0,0,0,0,0,0,0,-9.0,19.0,-1009.0
1777593100.57433,10.955759048461914,0.8641004479546389,1.37669868550777,3.012699100463835,0.8336398136618499,1.3560339534722985,3.026649064970169,2,3.0460634292789,2.066473203547159,-1.3949964506334123,3.9363471662759384,6,13,20,ok,140,252712.0,81,79.5,0,0,0,0,0,0,-11.0,10.0,-1003.0
1777593100.6459699,11.027398824691772,0.8641004479546389,1.37669868550777,3.012699100463835,0.8340020040853978,1.3574001474095416,3.026709074340575,2,3.00984438692411,1.9298538098228457,-1.4009973876739856,3.8400901865783896,1,2,-1,ok,140,252712.0,81,79.5,0,0,0,0,0,0,-11.0,10.0,-1003.0
1777593100.717538,11.0989670753479,0.8641004479546389,1.37669868550777,3.012699100463835,0.8371717666781341,1.3573263789143541,3.02743503414298,2,2.692868127650483,1.9372306593415933,-1.4735933679145052,3.6298593353421413,0,2,-1,ok,140,252719.99999999997,81,79.5,0,0,0,0,0,0,-17.0,3.0,-987.0
1777593100.788623,11.17005205154419,0.8641004479546389,1.37669868550777,3.012699100463835,0.8341312256587894,1.357601528935732,3.027933587190454,2,2.996922229584953,1.9097156572038143,-1.5234486726618979,3.8664521980473445,2,2,-1,ok,140,252715.0,81,79.5,0,0,0,0,0,0,-27.0,9.0,-977.0
1777593100.85946,11.240889072418213,0.8641004479546389,1.37669868550777,3.012699100463835,0.8344868261203682,1.3589938464348932,3.027991428021614,2,2.9613621834270742,1.77048390728769,-1.5292327557778762,3.773967682524673,1,2,-2,ok,140,252715.0,81,79.5,0,0,0,0,0,0,-27.0,9.0,-977.0
1777593100.9304252,11.311854124069214,0.8641004479546389,1.37669868550777,3.012699100463835,0.8344868261203682,1.3589938464348932,3.027991428021614,2,2.9613621834270742,1.77048390728769,-1.5292327557778762,3.773967682524673,1,2,-1,ok,140,252714.0,81,79.5,0,0,0,0,0,0,-8.0,19.0,-990.0
1777593101.00139,11.382818937301636,0.8641004479546389,1.37669868550777,3.012699100463835,0.8114626083606414,1.3949290161559476,3.001273081686635,2,5.263783959399748,-1.8230330648177473,1.1426018777199953,5.686511248350973,11,-8,-16,ok,140,252711.0,81,79.5,0,0,0,0,0,0,11.0,-19.0,-1019.0
1777593101.0721211,11.453550100326538,0.8641004479546389,1.37669868550777,3.012699100463835,0.83509544555349,1.3615597837546929,3.0268896228626954,2,2.9005002401148894,1.5138901753077194,-1.4190522398860317,3.5662970102510156,-6,11,9,ok,140,252715.0,81,79.5,0,0,0,0,0,0,-2.0,19.0,-1046.0
1777593101.1442728,11.525701761245728,0.8641004479546389,1.37669868550777,3.012699100463835,0.8470309042832183,1.4238197400167887,2.9966746897819214,2,1.7069543671420662,-4.71210545090186,1.6024410681913626,5.261696339485078,-2,-9,-27,ok,140,252715.0,81,79.5,0,0,0,0,0,0,-2.0,19.0,-1046.0
1777593101.217582,11.599010944366455,0.8641004479546389,1.37669868550777,3.012699100463835,0.8386369698544364,1.3629257222575584,3.0276710210355406,2,2.5463478100202552,1.3772963250211712,-1.49719205717056,3.2592048712172708,4,13,18,ok,140,252717.99999999997,81,79.5,0,0,0,0,0,0,-9.0,-18.0,-968.0
1777593101.289464,11.67089295387268,0.8641004479546389,1.37669868550777,3.012699100463835,0.8112646082892171,1.4039753613518915,3.011164800183089,2,5.283583966542182,-2.727667584412141,0.15343002807459705,5.948106484930255,12,-4,-19,ok,140,252726.00000000003,81,79.5,0,0,0,0,0,0,-3.0,18.0,-1005.0
1777593101.359509,11.740937948226929,0.8641004479546389,1.37669868550777,3.012699100463835,0.8476439253685452,1.4265019151472482,2.996765962907311,2,1.6456522586093758,-4.980322963947814,1.5933137556523924,5.481827879954205,-11,-4,-14,ok,140,252726.00000000003,81,79.5,0,0,0,0,0,0,15.0,1.0,-1027.0
1777593101.430273,11.811702013015747,0.8641004479546389,1.37669868550777,3.012699100463835,0.8112646082892171,1.4039753613518915,3.011164800183089,2,5.283583966542182,-2.727667584412141,0.15343002807459705,5.948106484930255,16,6,2,ok,140,252719.0,81,79.5,0,0,0,0,0,0,-9.0,4.0,-1010.0
1777593101.5021682,11.883597135543823,0.8641004479546389,1.37669868550777,3.012699100463835,0.8390056172712338,1.3643512398873894,3.0277299889602394,2,2.5094830683405123,1.2347445620380704,-1.5030888496404327,3.1751181857820185,-7,8,11,ok,140,252719.0,81,79.5,0,0,0,0,0,0,-9.0,4.0,-1010.0
1777593101.573759,11.955188035964966,0.8641004479546389,1.37669868550777,3.012699100463835,0.8476439253685452,1.4265019151472482,2.996765962907311,2,1.6456522586093758,-4.980322963947814,1.5933137556523924,5.481827879954205,-1,-10,-28,ok,140,252721.99999999997,81,79.5,0,0,0,0,0,0,0.0,9.0,-1002.0
1777593101.644962,12.02639102935791,0.8641004479546389,1.37669868550777,3.012699100463835,0.8776532796887023,1.3944884601105705,3.022060814910773,2,-1.3552831734063409,-1.7789774602800401,-0.9361714446937786,2.4244525687591456,-10,11,6,ok,140,252726.00000000003,81,79.5,0,0,0,0,0,0,-2.0,14.0,-986.0
1777593101.7174568,12.098885774612427,0.8641004479546389,1.37669868550777,3.012699100463835,0.8390056172712338,1.3643512398873894,3.0277299889602394,2,2.5094830683405123,1.2347445620380704,-1.5030888496404327,3.1751181857820185,15,4,8,ok,140,252726.00000000003,81,79.5,0,0,0,0,0,0,-2.0,14.0,-986.0
1777593101.789866,12.171294927597046,0.8641004479546389,1.37669868550777,3.012699100463835,0.8079971279221977,1.4041858362065662,3.0116979228036826,2,5.610332003244123,-2.748715069879615,0.1001177660152397,6.2483024325876215,14,-3,-18,ok,140,252717.99999999997,81,79.5,0,0,0,0,0,0,-6.0,3.0,-983.0
1777593101.860634,12.242063045501709,0.8641004479546389,1.37669868550777,3.012699100463835,0.8398985794218303,1.3695757241701165,3.0375362238272383,2,2.420186853280859,0.7122961337653555,-2.483712336340327,3.5402679498393486,-9,12,9,ok,140,252716.0,81,79.5,0,0,0,0,0,0,-10.0,7.0,-996.0
1777593101.932384,12.313812971115112,0.8641004479546389,1.37669868550777,3.012699100463835,0.8079971279221977,1.4041858362065662,3.0116979228036826,2,5.610332003244123,-2.748715069879615,0.1001177660152397,6.2483024325876215,14,-7,-16,ok,140,252716.0,81,79.5,0,0,0,0,0,0,-10.0,7.0,-996.0
1777593102.003646,12.385074853897095,0.8641004479546389,1.37669868550777,3.012699100463835,0.8079971279221977,1.4041858362065662,3.0116979228036826,2,5.610332003244123,-2.748715069879615,0.1001177660152397,6.2483024325876215,3,1,-4,ok,140,252729.0,81,79.5,0,0,0,0,0,0,-3.0,-8.0,-1037.0
1777593102.075217,12.456645965576172,0.8641004479546389,1.37669868550777,3.012699100463835,0.8079971279221977,1.4041858362065662,3.0116979228036826,2,5.610332003244123,-2.748715069879615,0.1001177660152397,6.2483024325876215,3,1,-4,ok,140,252719.99999999997,81,79.5,0,0,0,0,0,0,-11.0,3.0,-1006.0
1777593102.147342,12.528770923614502,0.8641004479546389,1.37669868550777,3.012699100463835,0.8109874928196316,1.4040575055131002,3.0123931404384225,2,5.311295513500736,-2.7358820005330076,0.030596002541249945,5.974600109458795,2,2,-4,ok,140,252721.0,81,79.5,0,0,0,0,0,0,-22.0,16.0,-985.0
1777593102.219551,12.600980043411255,0.8641004479546389,1.37669868550777,3.012699100463835,0.7924070672036407,1.336917848125649,3.0313219647717915,2,7.169338075099818,3.9780837382121126,-1.8622864307956455,8.407893280342538,11,9,23,ok,140,252721.0,81,79.5,0,0,0,0,0,0,-22.0,16.0,-985.0
1777593102.290944,12.672373056411743,0.8641004479546389,1.37669868550777,3.012699100463835,0.8492221893869812,1.4275979387282036,2.9971051440127696,2,1.4878258567657676,-5.089925322043354,1.5593956451065427,5.527447904957239,-18,-11,-30,ok,140,252728.00000000003,81,79.5,0,0,0,0,0,0,-12.0,14.0,-977.0
1777593102.361224,12.742652893066406,0.8641004479546389,1.37669868550777,3.012699100463835,0.8492221893869812,1.4275979387282036,2.9971051440127696,2,1.4878258567657676,-5.089925322043354,1.5593956451065427,5.527447904957239,1,0,-6,ok,140,252719.0,81,79.5,0,0,0,0,0,0,-17.0,24.0,-985.0
1777593102.4330251,12.814454078674316,0.8641004479546389,1.37669868550777,3.012699100463835,0.770543890787033,1.3777753139290785,3.0152290468139573,2,9.355655716760591,-0.1076628421308401,-0.25299463501222696,9.35969505184201,30,8,14,ok,140,252719.0,81,79.5,0,0,0,0,0,0,-17.0,24.0,-985.0
1777593102.504464,12.885892868041992,0.8641004479546389,1.37669868550777,3.012699100463835,0.8383979187497783,1.361421308688152,3.017999058131915,2,2.5702529204860602,1.527737681961816,-0.5299957668079891,3.0366227972844393,-21,3,3,ok,140,252719.0,81,79.5,0,0,0,0,0,0,-10.0,3.0,-966.0
1777593102.576705,12.958133935928345,0.8641004479546389,1.37669868550777,3.012699100463835,0.8383979187497783,1.361421308688152,3.017999058131915,2,2.5702529204860602,1.527737681961816,-0.5299957668079891,3.0366227972844393,2,2,-2,ok,140,252721.0,80,79.5,0,0,0,0,0,0,-4.0,24.0,-999.0
1777593102.648257,13.029685974121094,0.8641004479546389,1.37669868550777,3.012699100463835,0.8520185616573956,1.422342956495243,2.9877621599444613,2,1.2081886297243272,-4.564427098747292,2.4936940519373785,5.339683935350633,-3,-10,-27,ok,140,252721.0,80,79.5,0,0,0,0,0,0,-4.0,24.0,-999.0
1777593102.720608,13.102036952972412,0.8641004479546389,1.37669868550777,3.012699100463835,0.8427882320553928,1.3607018254367191,3.0177779604003567,2,2.1312215899246145,1.5996860071050945,-0.5078859936521685,2.712756710292446,5,12,19,ok,140,252719.99999999997,80,79.5,0,0,0,0,0,0,-11.0,25.0,-997.0
1777593102.792073,13.173501968383789,0.8641004479546389,1.37669868550777,3.012699100463835,0.7955662555860069,1.3376024990324762,3.032189673372374,2,6.853419236863201,3.9096186475293893,-1.949057290853906,8.127317978788998,21,8,7,ok,140,252719.99999999997,80,79.5,0,0,0,0,0,0,-23.0,13.0,-968.0
1777593102.8644521,13.245881080627441,0.8641004479546389,1.37669868550777,3.012699100463835,0.8397545218847434,1.361093728570284,3.0183388084053253,2,2.4345926069895496,1.5604956937486092,-0.5639707941490268,2.946260516123652,-13,-2,-10,ok,140,252721.0,80,79.5,0,0,0,0,0,0,-18.0,8.0,-1004.0
1777593102.936225,13.317653894424438,0.8641004479546389,1.37669868550777,3.012699100463835,0.8138776835535436,1.395323734457949,2.992446287092179,2,5.02227644010953,-1.8625048950178913,2.0252813371655964,5.726600179820145,12,-8,-16,ok,140,252721.0,80,79.5,0,0,0,0,0,0,-18.0,8.0,-1004.0
1777593103.007912,13.389340877532959,0.8641004479546389,1.37669868550777,3.012699100463835,0.842521638844564,1.3614994725061025,3.0184239374531767,2,2.1578809110074926,1.51992130016676,-0.5724836989341675,2.700805133721514,-8,11,9,ok,140,252716.0,80,79.5,0,0,0,0,0,0,-12.0,22.0,-994.0
1777593103.079144,13.460572957992554,0.8641004479546389,1.37669868550777,3.012699100463835,0.8155540913568646,1.3963717181435373,2.9928889883313494,2,4.854635659777429,-1.9673032635767251,1.9810112132485624,5.600194188336579,13,-8,-16,ok,140,252719.0,80,79.5,0,0,0,0,0,0,-5.0,9.0,-1010.0
1777593103.1515589,13.532987833023071,0.8641004479546389,1.37669868550777,3.012699100463835,0.8198075654608223,1.3959261437043684,2.9939364623271496,2,4.429288249381658,-1.9227458196598324,1.876263813668544,5.180338963968653,1,1,-4,ok,140,252719.0,80,79.5,0,0,0,0,0,0,-5.0,9.0,-1010.0
1777593103.222677,13.604105949401855,0.8641004479546389,1.37669868550777,3.012699100463835,0.8221584534537549,1.398172893038995,2.9932826570664957,2,4.194199450088398,-2.1474207531224865,1.941644339733939,5.096342576797975,2,0,-5,ok,140,252723.0,80,79.5,0,0,0,0,0,0,0.0,-10.0,-989.0
1777593103.2945259,13.675954818725586,0.8641004479546389,1.37669868550777,3.012699100463835,0.804336610455723,1.3319212642030458,3.013444032670459,2,5.976383749891589,4.4777421304724285,-0.07449322066239716,7.468124701215204,10,8,23,ok,140,252717.99999999997,80,79.5,0,0,0,0,0,0,0.0,20.0,-1070.0
1777593103.366323,13.747751951217651,0.8641004479546389,1.37669868550777,3.012699100463835,0.8591373019236985,1.4205244668478425,2.978995792345181,2,0.4963146030940391,-4.382578134007242,3.3703308118654185,5.550896240007753,-18,-12,-30,ok,140,252713.0,80,79.5,0,0,0,0,0,0,-2.0,13.0,-996.0
1777593103.436564,13.817992925643921,0.8641004479546389,1.37669868550777,3.012699100463835,0.8486671361472635,1.360408148681422,3.0091743661614716,2,1.5433311807375394,1.6290536826348179,0.35247343023634414,2.271546731494944,5,12,19,ok,140,252713.0,80,79.5,0,0,0,0,0,0,-2.0,13.0,-996.0
1777593103.508183,13.889611959457397,0.8641004479546389,1.37669868550777,3.012699100463835,0.9000079719565426,1.444754025754428,2.9626840694608276,2,-3.590752400190367,-6.805534024665794,5.0015031003007415,9.177354162430182,-19,-17,-30,ok,140,252721.99999999997,80,79.5,0,0,0,0,0,0,5.0,14.0,-1049.0
1777593103.5804338,13.961862802505493,0.8641004479546389,1.37669868550777,3.012699100463835,0.8252537494907501,1.3948556251186117,2.984729423239844,2,3.8846698463888774,-1.8156939610841638,2.796967722399124,5.119612565019254,28,7,12,ok,140,252712.0,80,79.5,0,0,0,0,0,0,-11.0,2.0,-1016.0
1777593103.652701,14.034129858016968,0.8641004479546389,1.37669868550777,3.012699100463835,0.8496063713255687,1.3564828104246796,2.9999182399430575,2,1.4494076629070207,2.021587508309053,1.2780860520777537,2.7966234254115254,-6,6,11,ok,140,252712.0,80,79.5,0,0,0,0,0,0,-11.0,2.0,-1016.0
1777593103.72445,14.105879068374634,0.8641004479546389,1.37669868550777,3.012699100463835,0.8536705354137144,1.3615301627504577,3.0103044532418637,2,1.0429912540924513,1.5168522757312397,0.23946472219713577,1.8563445088887292,0,5,-3,ok,140,252712.0,80,79.5,0,0,0,0,0,0,-15.0,29.0,-971.0
1777593103.7965922,14.17802119255066,0.8641004479546389,1.37669868550777,3.012699100463835,0.8256387647139919,1.400243506961603,2.9942463293192687,2,3.8461683240647027,-2.3544821453832965,1.8452771144566338,4.872539848898603,12,-4,-18,ok,140,252713.0,80,79.5,0,0,0,0,0,0,-23.0,19.0,-970.0
1777593103.867376,14.248805046081543,0.8641004479546389,1.37669868550777,3.012699100463835,0.8504861424844845,1.3615113830993728,3.0096263604062257,2,1.3614305470154409,1.5187302408397274,0.307274005760938,2.0626322971882876,-7,7,11,ok,140,252713.0,80,79.5,0,0,0,0,0,0,-23.0,19.0,-970.0
1777593103.9359329,14.317361831665039,0.8641004479546389,1.37669868550777,3.012699100463835,0.894979850147043,1.450187190304404,2.9726340322750775,2,-3.0879402192404037,-7.3488504796633825,4.006506818875755,8.921495113474485,-17,-13,-30,ok,140,252727.0,80,79.5,0,0,0,0,0,0,-3.0,2.0,-1008.0
1777593104.006888,14.388316869735718,0.8641004479546389,1.37669868550777,3.012699100463835,0.8532269922302944,1.360049024332298,3.0102385801146507,2,1.0873455724344505,1.6649661175472064,0.24605203491843142,2.003740045604849,16,14,29,ok,140,252717.99999999997,80,79.5,0,0,0,0,0,0,-16.0,12.0,-961.0
1777593104.078044,14.459472894668579,0.8641004479546389,1.37669868550777,3.012699100463835,0.860805987015036,1.4216098732743316,2.9793992589857967,2,0.329446093960295,-4.4911187766561556,3.329984147803833,5.60066755123744,-1,-10,-27,ok,140,252717.0,80,79.5,0,0,0,0,0,0,-4.0,15.0,-982.0
1777593104.150211,14.53164005279541,0.8641004479546389,1.37669868550777,3.012699100463835,0.8909939679616325,1.3902642612519038,3.004110662534871,2,-2.689352000699363,-1.356557574413375,0.8588437928964243,3.132167827074514,-11,9,6,ok,140,252717.0,80,79.5,0,0,0,0,0,0,-4.0,15.0,-982.0
