timestamp,phase,command,axis,repeat,t_send,t_since_cmd,marker_id,n_markers,pos_x,pos_y,pos_z,marker_dist,tello_height_cm,tello_baro_cm,tello_battery,tello_temp_c,tello_pitch,tello_roll,tello_yaw,tello_vgx,tello_vgy,tello_vgz,tello_agx,tello_agy,tello_agz
1777583388.0792162,init_hover,none,-,0,,,2,4,0.8414188585793141,1.4478176751242249,2.3620056999837544,2.5565733035863367,130,254738.0,68,71.5,0,0,0,0,0,-1,7.0,29.0,-973.0
1777583388.2710872,init_hover,none,-,0,,,3,4,0.8551766905317844,1.4504532985697858,2.3611356436658446,2.560895553604553,130,254746.99999999997,68,71.0,0,-1,0,0,0,0,-33.0,32.0,-982.0
1777583388.320801,init_hover,none,-,0,,,3,4,0.8221853970104691,1.462812571490055,2.351603959289001,2.5569051529402813,130,254746.99999999997,68,71.0,0,-1,0,0,0,0,-33.0,32.0,-982.0
1777583388.3706,init_hover,none,-,0,,,3,4,0.8561329010940946,1.4740994971261465,2.3643683644552236,2.5640006187623245,130,254746.99999999997,68,71.0,0,-1,0,0,0,0,6.0,21.0,-960.0
1777583388.421433,init_hover,none,-,0,,,3,4,0.8471057320440345,1.4841898156144755,2.359903539847772,2.562878731553442,130,254746.99999999997,68,71.0,0,-1,0,0,0,0,6.0,21.0,-960.0
1777583388.470565,init_hover,none,-,0,,,3,4,0.8480900387504913,1.4901187318779343,2.354489124434332,2.561498596558058,130,254742.99999999997,68,71.0,0,-1,0,0,0,0,0.0,13.0,-991.0
1777583388.52041,init_hover,none,-,0,,,3,4,0.863537359690957,1.5149805121426747,2.3533858081299566,2.5604658913266736,130,254742.99999999997,68,71.0,0,-1,0,0,0,0,0.0,13.0,-991.0
1777583388.570123,init_hover,none,-,0,,,3,4,0.8569276574238485,1.5043978833331746,2.3623120566309885,2.564013077862621,130,254742.99999999997,68,71.0,0,-1,0,0,0,0,20.0,12.0,-1003.0
1777583388.628196,init_hover,none,-,0,,,3,4,0.8604970659820173,1.5171661500555045,2.3554064793775575,2.5600528516956786,130,254742.99999999997,68,71.0,0,-1,0,0,0,0,20.0,12.0,-1003.0
1777583388.679543,init_hover,none,-,0,,,3,4,0.8208781499500835,1.504432389993896,2.3502545872748817,2.560045933215197,130,254746.0,68,71.0,0,0,0,0,0,0,-16.0,18.0,-988.0
1777583388.729517,init_hover,none,-,0,,,3,4,0.8861409354902082,1.5512974887591384,2.3525128910112176,2.5591588468462074,130,254746.0,68,71.0,0,0,0,0,0,0,-16.0,18.0,-988.0
1777583388.779901,init_hover,none,-,0,,,3,4,0.82399538345847,1.5041794258702461,2.3513933805924983,2.5592643671341397,130,254746.0,68,71.0,0,0,0,0,0,0,5.0,9.0,-997.0
1777583388.830564,init_hover,none,-,0,,,3,4,0.8434270987389741,1.505647189483085,2.341106329301703,2.5567937201653983,130,254746.0,68,71.0,0,0,0,0,0,0,5.0,9.0,-997.0
1777583388.881003,init_hover,none,-,0,,,3,4,0.8558405903348539,1.508017470497477,2.35336456277256,2.5581136138342737,130,254746.99999999997,68,71.0,0,0,0,0,0,0,8.0,17.0,-984.0
1777583388.931093,init_hover,none,-,0,,,3,4,0.8088853915967107,1.5269887294160294,2.3347144278627265,2.553168211536491,130,254746.99999999997,68,71.0,0,0,0,0,0,0,8.0,17.0,-984.0
1777583388.98057,init_hover,none,-,0,,,3,4,0.8323111329358646,1.5146410644345358,2.3478025109218885,2.5589122238753976,130,254748.99999999997,68,71.0,0,0,0,0,0,0,12.0,13.0,-1013.0
1777583389.030698,init_hover,none,-,0,,,3,4,0.8194776239907997,1.5579748907583204,2.3406213167410477,2.5548986951647685,130,254748.99999999997,68,71.0,0,0,0,0,0,0,12.0,13.0,-1013.0
1777583389.080657,init_hover,none,-,0,,,3,4,0.8467861464542138,1.5140841352819479,2.3507941093163236,2.557393643476909,140,254748.99999999997,68,71.0,0,0,0,0,0,0,18.0,8.0,-969.0
1777583389.130906,init_hover,none,-,0,,,3,4,0.8093371727533467,1.5260348589792878,2.352140793461243,2.5583936178554363,140,254748.99999999997,68,71.0,0,0,0,0,0,0,18.0,8.0,-969.0
1777583389.181358,init_hover,none,-,0,,,3,4,0.9104684044363301,1.5535489258583803,2.3463383482665483,2.555800498881928,140,254750.0,68,71.0,0,0,0,0,0,0,-13.0,14.0,-993.0
1777583389.231068,init_hover,none,-,0,,,3,4,0.8224915357701648,1.5254919652916317,2.34394506635707,2.554846899283554,140,254750.0,68,71.0,0,0,0,0,0,0,-13.0,14.0,-993.0
1777583389.280958,init_hover,none,-,0,,,3,4,0.8181380709464553,1.5255191555701846,2.3481345128553834,2.5589091237282666,140,254750.0,68,72.0,0,0,0,0,0,0,8.0,30.0,-982.0
1777583389.331245,init_hover,none,-,0,,,3,4,0.8224765678753314,1.5295244876223917,2.3417970281458094,2.555894686988844,140,254750.0,68,72.0,0,0,0,0,0,0,8.0,30.0,-982.0
1777583389.381483,init_hover,none,-,0,,,3,4,0.8130687490001035,1.521626392582136,2.352293980987695,2.56110712627723,140,254750.0,68,72.0,0,0,0,0,0,0,8.0,30.0,-982.0
1777583389.4316952,init_hover,none,-,0,,,3,4,0.8401976351802267,1.5021044863713782,2.3536070788741146,2.5588666535174025,140,254746.0,68,72.0,0,0,0,0,0,0,6.0,22.0,-1013.0
1777583389.481876,init_hover,none,-,0,,,3,4,0.8287218610544289,1.5246068834445488,2.346281886594487,2.5540620374602963,140,254748.99999999997,68,72.0,0,0,0,0,0,0,15.0,-13.0,-986.0
1777583389.531599,init_hover,none,-,0,,,3,4,0.8676127731518921,1.5403373456484484,2.3482479048563394,2.556281368915093,140,254748.99999999997,68,72.0,0,0,0,0,0,0,15.0,-13.0,-986.0
1777583389.581548,init_hover,none,-,0,,,3,4,0.8228099657833641,1.5180404776199308,2.343707819892475,2.5538831572561174,140,254748.99999999997,68,72.0,0,0,0,0,0,0,6.0,18.0,-995.0
1777583389.632399,init_hover,none,-,0,,,3,4,0.8133691644225955,1.5351430506078467,2.3458948424021955,2.5565390664067578,140,254748.99999999997,68,72.0,0,0,0,0,0,0,6.0,18.0,-995.0
1777583389.6829288,init_hover,none,-,0,,,3,4,0.8214255773255419,1.544036080615935,2.3354999626222295,2.550996889724064,140,254748.0,68,72.0,0,0,0,0,0,0,30.0,14.0,-989.0
1777583389.733363,init_hover,none,-,0,,,3,4,0.8121007196136013,1.5579894313744405,2.342058850718904,2.5533833398752686,140,254748.0,68,72.0,0,0,0,0,0,0,30.0,14.0,-989.0
1777583389.783087,init_hover,none,-,0,,,3,4,0.8398197533874926,1.5081638354773292,2.3425145205021782,2.552942226352694,140,254752.0,68,72.0,0,0,0,0,0,0,-6.0,27.0,-1005.0
1777583389.833078,init_hover,none,-,0,,,3,4,0.8213484605113632,1.5141663528266018,2.3442121188484375,2.5537499586212737,140,254752.0,68,72.0,0,0,0,0,0,0,-6.0,27.0,-1005.0
1777583389.883092,init_hover,none,-,0,,,3,4,0.8067834660413176,1.5339659105980263,2.341108659771798,2.5526827688523714,140,254748.99999999997,68,72.0,0,0,0,0,0,0,39.0,-15.0,-1002.0
1777583389.933423,init_hover,none,-,0,,,3,4,0.8580462683682054,1.5407912158610648,2.349501522683657,2.554266549216971,140,254748.99999999997,68,72.0,0,0,0,0,0,0,39.0,-15.0,-1002.0
1777583389.983365,init_hover,none,-,0,,,3,4,0.7936632386307212,1.5398415936636953,2.34401391322133,2.5542366271321857,140,254744.0,68,72.0,0,0,0,0,0,0,-16.0,19.0,-1011.0
1777583390.03317,init_hover,none,-,0,,,3,4,0.8289454291054105,1.5444676234952852,2.344599591288702,2.554184700350172,140,254744.0,68,72.0,0,0,0,0,0,0,-16.0,19.0,-1011.0
1777583390.083423,init_hover,none,-,0,,,3,4,0.8224915054447457,1.5174397985333672,2.344082910237043,2.5537487328552384,140,254748.0,68,72.0,0,0,0,0,0,0,12.0,3.0,-976.0
1777583390.133259,init_hover,none,-,0,,,3,4,0.7958699170286971,1.5513478984496896,2.340842575762066,2.5538075505283726,140,254748.0,68,72.0,0,0,0,0,0,0,12.0,3.0,-976.0
1777583390.183688,init_hover,none,-,0,,,3,4,0.8110827107829572,1.5297441420904248,2.358512491172248,2.5613939879460945,140,254757.00000000003,68,72.0,0,0,0,0,0,0,8.0,2.0,-989.0
1777583390.2336059,init_hover,none,-,0,,,3,4,0.8264218959687589,1.5464662294231157,2.3490026883401116,2.5567640723222276,140,254757.00000000003,68,72.0,0,0,0,0,0,0,8.0,2.0,-989.0
1777583390.283533,init_hover,none,-,0,,,3,4,0.8521447716556608,1.5449756465809537,2.354091787979324,2.5588925905418156,140,254742.99999999997,68,71.5,0,0,0,0,0,0,-6.0,22.0,-969.0
1777583390.333869,init_hover,none,-,0,,,3,4,0.8093996002415126,1.5137362437673003,2.3546787675767935,2.559444542300621,140,254742.99999999997,68,71.5,0,0,0,0,0,0,-6.0,22.0,-969.0
1777583390.384025,init_hover,none,-,0,,,3,4,0.802005607027093,1.5349347070051955,2.3527029221955025,2.55807830667373,140,254742.99999999997,68,71.5,0,0,0,0,0,0,24.0,0.0,-972.0
1777583390.4347231,init_hover,none,-,0,,,3,4,0.8048040427698533,1.5258453341338765,2.3477343689602175,2.5587044656070654,140,254742.99999999997,68,71.5,0,0,0,0,0,0,24.0,0.0,-972.0
1777583390.485079,init_hover,none,-,0,,,3,4,0.8286383463241755,1.5199685097686912,2.3451076266212874,2.557063932439565,140,254736.0,68,71.5,0,0,0,0,0,0,26.0,-3.0,-986.0
1777583390.535765,init_hover,none,-,0,,,3,4,0.8305408384961306,1.536729411745137,2.359756143963701,2.563287604252275,140,254736.0,68,71.5,0,0,0,0,0,0,26.0,-3.0,-986.0
1777583390.585962,init_hover,none,-,0,,,3,4,0.8010776364151136,1.51283201898784,2.349022435584707,2.561282791099087,140,254736.0,68,71.5,0,0,0,0,0,0,26.0,-3.0,-986.0
1777583390.636232,init_hover,none,-,0,,,3,4,0.8149591935278577,1.5158846494040388,2.3543116356405376,2.560121505716912,140,254744.99999999997,68,71.5,0,-1,0,0,0,0,-8.0,30.0,-986.0
1777583390.686286,init_hover,none,-,0,,,3,4,0.8301923575789938,1.5257953568415075,2.352403582726872,2.5604703589111164,140,254744.99999999997,68,71.5,0,-1,0,0,0,0,-8.0,30.0,-986.0
1777583390.7368078,init_hover,none,-,0,,,3,4,0.8397479109575388,1.5282008207812479,2.3663017835372506,2.5663652619338815,140,254746.99999999997,68,71.5,0,-1,0,0,0,0,6.0,21.0,-977.0
1777583390.786725,init_hover,none,-,0,,,3,4,0.8040992803873765,1.5016541145832905,2.3519443424568873,2.5603977825428164,140,254746.99999999997,68,71.5,0,-1,0,0,0,0,6.0,21.0,-977.0
1777583390.8362591,init_hover,none,-,0,,,3,4,0.8139571005434025,1.4936324283143747,2.3509060636126438,2.559685426616466,140,254744.99999999997,68,71.5,0,-1,0,0,0,0,16.0,4.0,-996.0
1777583390.886275,init_hover,none,-,0,,,3,4,0.8020077013811528,1.495010539526876,2.3601615321157463,2.5628106063371634,140,254744.99999999997,68,71.5,0,-1,0,0,0,0,16.0,4.0,-996.0
1777583390.9367611,init_hover,none,-,0,,,3,4,0.8279281455008995,1.5038887165511587,2.3673305061509278,2.5638358648025337,140,254746.0,68,71.5,0,-1,0,0,0,0,-7.0,5.0,-986.0
1777583390.98666,init_hover,none,-,0,,,3,4,0.8227174047390495,1.5012698955481767,2.3701138446073404,2.5642027266608576,140,254746.0,68,71.5,0,-1,0,0,0,0,-7.0,5.0,-986.0
1777583391.0359879,init_hover,none,-,0,,,3,4,0.8264615688106811,1.486675544815888,2.3590260251789634,2.5595016429083093,140,254744.99999999997,68,71.5,0,-1,0,0,0,0,6.0,-1.0,-974.0
1777583391.086454,init_hover,none,-,0,,,3,4,0.8330299401622228,1.4791908466081973,2.3770152309599957,2.5669031718877666,140,254744.99999999997,68,71.5,0,-1,0,0,0,0,6.0,-1.0,-974.0
1777583391.1375191,init_hover,none,-,0,,,3,4,0.822586252389353,1.4633064658652069,2.368762423665389,2.562615382166718,140,254742.99999999997,68,71.5,0,0,0,0,0,0,22.0,-3.0,-1000.0
1777583391.189038,init_hover,none,-,0,,,3,4,0.8338146150439681,1.4552116759428233,2.3685338849369817,2.561430432149681,140,254742.99999999997,68,71.5,0,0,0,0,0,0,22.0,-3.0,-1000.0
1777583391.2408671,init_hover,none,-,0,,,3,4,0.8279201399810309,1.4832308235839218,2.3664412342639585,2.5598309414246954,140,254746.99999999997,68,71.5,0,0,0,0,0,0,8.0,9.0,-1009.0
1777583391.2917702,init_hover,none,-,0,,,3,4,0.8281089317902822,1.4839823737671634,2.3670942129785786,2.5597205806433774,140,254746.99999999997,68,71.5,0,0,0,0,0,0,8.0,9.0,-1009.0
1777583391.3441541,init_hover,none,-,0,,,3,4,0.8245841381231321,1.4571462690464045,2.36673254170118,2.5583044411863196,130,254739.0,68,71.5,0,0,0,0,0,0,11.0,16.0,-994.0
1777583391.3946629,init_hover,none,-,0,,,3,4,0.8697645756278637,1.4607094880645413,2.363734841953242,2.557379388816143,130,254739.0,68,71.5,0,0,0,0,0,0,11.0,16.0,-994.0
1777583391.446069,init_hover,none,-,0,,,3,4,0.8750671811281425,1.454438697323422,2.357997903405566,2.5540537117831152,130,254741.0,68,71.5,0,0,0,0,0,0,25.0,-7.0,-1022.0
1777583391.496583,init_hover,none,-,0,,,3,4,0.8685864128138312,1.448449810376089,2.3682556203773673,2.5594126870613314,130,254741.0,68,71.5,0,0,0,0,0,0,25.0,-7.0,-1022.0
1777583391.547244,init_hover,none,-,0,,,3,4,0.8167948924658992,1.442996312914559,2.372673460312859,2.5614488153824038,130,254740.0,68,71.5,0,0,0,0,0,0,19.0,14.0,-1016.0
1777583391.597103,init_hover,none,-,0,,,3,4,0.8242927719298435,1.4577671860646977,2.367906729115069,2.5576495303567066,130,254740.0,68,71.5,0,0,0,0,0,0,19.0,14.0,-1016.0
1777583391.646935,init_hover,none,-,0,,,3,4,0.8558223153458433,1.4607274346799484,2.372528517192945,2.5586366956883104,130,254734.0,68,71.5,0,0,0,0,0,0,-13.0,34.0,-1005.0
1777583391.697811,init_hover,none,-,0,,,2,4,0.814707882029139,1.4377687543742756,2.362764695343214,2.5549406396682244,130,254734.0,68,71.5,0,0,0,0,0,0,-13.0,34.0,-1005.0
1777583391.747906,init_hover,none,-,0,,,2,4,0.8415364614657058,1.4344494836648933,2.3689276525296785,2.557921888861416,130,254733.0,68,71.5,0,-1,0,0,0,0,-34.0,29.0,-1001.0
1777583391.798707,init_hover,none,-,0,,,2,4,0.8209056992940731,1.4296026884544668,2.385562280254632,2.5635721494911614,130,254733.0,68,71.5,0,-1,0,0,0,0,-34.0,29.0,-1001.0
1777583391.8489332,init_hover,none,-,0,,,2,4,0.8737782237533562,1.4531270896197037,2.3834825783674067,2.562285225147504,130,254739.0,68,71.5,0,-1,0,0,0,0,11.0,-9.0,-985.0
1777583391.899136,init_hover,none,-,0,,,2,4,0.8784973805541048,1.4566855567814259,2.384092266433848,2.5643792108845673,130,254738.0,68,71.5,0,-1,0,0,0,0,20.0,1.0,-1004.0
1777583391.949313,init_hover,none,-,0,,,2,4,0.8359163067065479,1.416818920009219,2.3816342127344337,2.56119329968225,130,254738.0,68,71.5,0,-1,0,0,0,0,20.0,1.0,-1004.0
1777583392.000096,init_hover,none,-,0,,,2,4,0.7959460217792997,1.4218038105859327,2.381080422454743,2.5635654675483766,130,254746.99999999997,68,71.5,0,-1,0,0,0,0,-22.0,32.0,-1011.0
1777583392.0499752,init_hover,none,-,0,,,2,4,0.8189530067596453,1.421864508962129,2.381881796796988,2.56401122168877,130,254746.99999999997,68,71.5,0,-1,0,0,0,0,-22.0,32.0,-1011.0
1777583392.100062,init_hover,none,-,0,,,2,4,0.8203393116174333,1.4244697755003872,2.3785086047218202,2.562422883691532,130,254736.0,68,71.5,0,-1,0,0,0,0,0.0,16.0,-1005.0
1777583392.151571,init_hover,none,-,0,,,2,4,0.8009710830573077,1.4096849887299865,2.3815982646526934,2.564101591813631,130,254736.0,68,71.5,0,-1,0,0,0,0,0.0,16.0,-1005.0
1777583392.2018912,init_hover,none,-,0,,,2,4,0.8522762071886403,1.386045620046757,2.3962524347099707,2.5696464390642433,130,254734.0,68,71.5,0,0,0,0,0,0,14.0,-3.0,-1004.0
1777583392.2519538,init_hover,none,-,0,,,2,4,0.8245092708653018,1.4023832882914977,2.387617492941363,2.567464009674414,130,254734.0,68,71.5,0,0,0,0,0,0,14.0,-3.0,-1004.0
1777583392.301825,init_hover,none,-,0,,,2,4,0.8110610477771092,1.4058757966757862,2.389368133289382,2.5689870604563017,130,254731.0,68,71.0,0,0,0,0,0,0,5.0,19.0,-1017.0
1777583392.351954,init_hover,none,-,0,,,2,4,0.8110610477771092,1.4058757966757862,2.389368133289382,2.5689870604563017,130,254731.0,68,71.0,0,0,0,0,0,0,5.0,19.0,-1017.0
1777583392.402818,init_hover,none,-,0,,,2,4,0.8175768076508471,1.39790812640394,2.3905998998240343,2.5694995374198397,130,254727.0,68,71.0,0,0,0,0,0,0,-1.0,-6.0,-1022.0
1777583392.452681,init_hover,none,-,0,,,2,4,0.8175768076508471,1.39790812640394,2.3905998998240343,2.5694995374198397,130,254727.0,68,71.0,0,0,0,0,0,0,-1.0,-6.0,-1022.0
1777583392.503505,init_hover,none,-,0,,,2,4,0.8354876586722377,1.4033276934505858,2.3895620595795113,2.5698152666597043,130,254729.0,68,71.0,0,0,0,0,0,0,3.0,26.0,-1006.0
1777583392.554069,init_hover,none,-,0,,,2,4,0.7984459112754577,1.4078868592185525,2.3982249199795476,2.5728567115202203,130,254729.0,68,71.0,0,0,0,0,0,0,3.0,26.0,-1006.0
1777583392.604507,init_hover,none,-,0,,,2,4,0.8010276855497214,1.3684981075679998,2.401701568503434,2.573207339159614,130,254734.0,68,71.0,0,0,0,0,0,0,27.0,-5.0,-1020.0
1777583392.65505,init_hover,none,-,0,,,2,4,0.8273173151800471,1.3791746065032444,2.400910924469139,2.575371597108019,130,254734.0,68,71.0,0,0,0,0,0,0,27.0,-5.0,-1020.0
1777583392.705986,init_hover,none,-,0,,,2,4,0.8288567319209972,1.3654950678520619,2.4049309632365654,2.577489005820928,130,254730.00000000003,68,71.0,0,0,0,0,0,0,-10.0,19.0,-978.0
1777583392.756636,init_hover,none,-,0,,,2,4,0.8144086418729162,1.3880597276531579,2.397763137040848,2.5729077781453054,130,254730.00000000003,68,71.0,0,0,0,0,0,0,-10.0,19.0,-978.0
1777583392.807549,init_hover,none,-,0,,,2,4,0.8243084137338964,1.3884302209820607,2.4051409862780333,2.578634883056406,130,254727.0,68,71.0,0,-1,0,0,0,0,-3.0,8.0,-1000.0
1777583392.858258,init_hover,none,-,0,,,2,4,0.7920476112848251,1.3813441167969582,2.4143107787828164,2.5828154845799105,130,254727.0,68,71.0,0,-1,0,0,0,0,-3.0,8.0,-1000.0
1777583392.909725,init_hover,none,-,0,,,2,4,0.8066561507899528,1.3768187150229476,2.4068242897727954,2.58106914680237,130,254738.0,68,71.0,0,-1,0,0,0,0,22.0,14.0,-983.0
1777583392.9592278,init_hover,none,-,0,,,2,4,0.8220688702782454,1.3990063554793633,2.3998698869101744,2.5774032753217258,130,254738.0,68,71.0,0,-1,0,0,0,0,22.0,14.0,-983.0
1777583393.0105228,init_hover,none,-,0,,,2,4,0.823145283894126,1.3836804131388893,2.415122674980694,2.5839895876509793,130,254735.0,68,71.0,0,-1,0,0,0,0,3.0,15.0,-1016.0
1777583393.061332,init_hover,none,-,0,,,2,4,0.8243394305616715,1.3671447036543563,2.417901542918348,2.5840359212029216,130,254735.0,68,71.0,0,-1,0,0,0,0,3.0,15.0,-1016.0
1777583393.1326232,recenter,right,-,1,,,2,,0.8205223838333118,1.3794329772031535,2.4209792453554684,2.58668388156667,130,254742.99999999997,68,71.0,0,-1,0,0,0,0,-6.0,22.0,-1001.0
1777583393.182163,recenter,right,-,1,,,2,,0.7824809983470771,1.399758559420681,2.4045275054368824,2.582833637560526,130,254742.99999999997,68,71.0,0,-1,0,0,0,0,-6.0,22.0,-1001.0
1777583393.2319622,recenter,right,-,1,,,2,,0.8021959902207647,1.410112549928785,2.4100564969134117,2.5862702609547945,130,254733.0,68,71.0,0,0,0,0,0,0,7.0,17.0,-990.0
1777583393.282217,recenter,right,-,1,,,2,,0.8084348473326637,1.404473516693353,2.404295919423742,2.5849428043065332,130,254733.0,68,71.0,0,0,0,0,0,0,7.0,17.0,-990.0
1777583393.333279,recenter,right,-,1,,,2,,0.800723690402497,1.3860852201406648,2.414412556205132,2.5899421691593396,130,254729.0,68,71.5,0,0,0,0,0,0,0.0,6.0,-1001.0
1777583393.384232,recenter,right,-,1,,,2,,0.811277834849882,1.3762733650074062,2.4279353158023893,2.5960031726125887,130,254729.0,68,71.5,0,0,0,0,0,0,0.0,6.0,-1001.0
1777583393.434923,recenter,right,-,1,,,2,,0.7874556775205419,1.4161587812367398,2.419565835115989,2.5932481542144736,130,254735.0,68,71.5,0,0,0,0,0,0,12.0,1.0,-1022.0
1777583393.485016,recenter,right,-,1,,,2,,0.8141063855378093,1.3998414831262511,2.4220053444142793,2.5950129936337745,130,254735.0,68,71.5,0,0,0,0,0,0,12.0,1.0,-1022.0
1777583393.535899,recenter,right,-,1,,,2,,0.8043250197365617,1.40139692602738,2.4082251755809363,2.5922181598179677,130,254734.0,68,71.5,0,-1,0,0,0,0,8.0,-3.0,-985.0
1777583393.5870452,recenter,right,-,1,,,2,,0.8049141999869719,1.4009685359182793,2.42539909903367,2.5980439627299416,130,254734.0,68,71.5,0,-1,0,0,0,0,8.0,-3.0,-985.0
1777583393.63786,recenter,right,-,1,,,2,,0.7877120518528322,1.388220626816646,2.4279238453307395,2.598816761264513,130,254746.0,68,71.5,0,-1,0,0,0,0,-11.0,28.0,-996.0
1777583393.687746,recenter,right,-,1,,,2,,0.7914955480907457,1.4004382683709322,2.4265785504723283,2.603299448887391,130,254746.0,68,71.5,0,-1,0,0,0,0,-11.0,28.0,-996.0
1777583393.739146,recenter,right,-,1,,,2,,0.8020966241849328,1.3956289257971248,2.436263770403934,2.6062702791857317,130,254746.0,68,71.5,0,-1,0,0,0,0,-14.0,30.0,-1025.0
1777583393.7900648,recenter,right,-,1,,,2,,0.7984990992597513,1.4034007497212357,2.4367075578803767,2.608769934237767,130,254746.0,68,71.5,0,-1,0,0,0,0,-14.0,30.0,-1025.0
1777583393.84059,recenter,right,-,1,,,2,,0.8109908700123518,1.3972352439252897,2.43311982200182,2.6071789942092005,130,254739.0,68,71.5,0,0,0,0,0,0,9.0,13.0,-988.0
1777583393.891435,recenter,right,-,1,,,2,,0.8176306018822425,1.3967863681068182,2.4320178255798712,2.608510556652525,130,254739.0,68,71.5,0,0,0,0,0,0,9.0,13.0,-988.0
1777583393.942136,recenter,right,-,1,,,2,,0.8215353112834229,1.409179782832765,2.4456779735650125,2.6138388461946676,130,254740.0,68,71.5,0,0,0,0,0,0,16.0,0.0,-995.0
1777583393.993273,recenter,right,-,1,,,2,,0.8123701581594006,1.4162971356758054,2.430070015510542,2.6091147115496063,130,254740.0,68,71.5,0,0,0,0,0,0,16.0,0.0,-995.0
1777583394.0445938,recenter,right,-,1,,,2,,0.8041156713893268,1.4021884892161265,2.433330868131726,2.6114977159752377,130,254733.0,68,71.5,0,0,0,0,0,0,11.0,12.0,-1010.0
1777583394.096575,recenter,right,-,1,,,2,,0.7981969329008586,1.4355870154064796,2.4287911676731553,2.6102550678908454,130,254733.0,68,71.5,0,0,0,0,0,0,11.0,12.0,-1010.0
1777583394.14877,recenter,right,-,1,,,2,,0.7788124984643512,1.4212674835446293,2.431681366008635,2.612379925717094,130,254740.0,68,71.5,0,0,0,0,0,0,15.0,11.0,-982.0
1777583394.200288,recenter,right,-,1,,,2,,0.8801907118553348,1.4448947313809393,2.448166060296324,2.6202043433863884,130,254740.0,68,71.5,0,0,0,0,0,0,15.0,11.0,-982.0
1777583394.251481,recenter,right,-,1,,,2,,0.7943201042499822,1.4056073503013387,2.4459563331419925,2.6180465628046825,130,254738.0,68,71.5,0,0,0,0,0,0,-4.0,6.0,-1002.0
1777583394.30253,recenter,right,-,1,,,2,,0.7860146665337928,1.4393157596956878,2.4304920253966382,2.6147133867559753,130,254738.0,68,71.5,0,0,0,0,0,0,-4.0,6.0,-1002.0
1777583394.35302,recenter,right,-,1,,,2,,0.8297287762294745,1.41380578872958,2.444981723157451,2.6212849049386566,130,254728.00000000003,68,72.0,0,-1,0,0,0,0,-1.0,2.0,-983.0
1777583394.4033768,recenter,right,-,1,,,2,,0.8366534724136372,1.4070163706326573,2.442967084084488,2.6211132023576904,130,254728.00000000003,68,72.0,0,-1,0,0,0,0,-1.0,2.0,-983.0
1777583394.454018,recenter,right,-,1,,,2,,0.7823124487876546,1.4160808330953913,2.446710099768687,2.6202015593294896,130,254742.99999999997,68,72.0,0,-1,0,0,0,0,-29.0,30.0,-987.0
1777583394.504291,recenter,right,-,1,,,2,,0.8561109480008053,1.4383584466218786,2.452398504343874,2.6246463442353636,130,254742.99999999997,68,72.0,0,-1,0,0,0,0,-29.0,30.0,-987.0
1777583394.555277,recenter,right,-,1,,,2,,0.8352147663500362,1.4190604764134025,2.436764977749702,2.6168458872255784,130,254736.0,68,72.0,0,-1,0,0,0,0,-20.0,28.0,-998.0
1777583394.60504,recenter,right,-,1,,,2,,0.8162827150964282,1.4120048802577676,2.447249046753782,2.6200858414568726,130,254736.0,68,72.0,0,-1,0,0,0,0,-20.0,28.0,-998.0
1777583394.655658,recenter,right,-,1,,,2,,0.8034854863671133,1.4372480831827952,2.446138737286817,2.6227202397096425,130,254733.0,68,72.0,0,0,0,0,0,0,25.0,-10.0,-1019.0
1777583394.7065558,recenter,right,-,1,,,2,,0.7964708239063455,1.4108189240632742,2.4453286854245073,2.621345418336778,130,254733.0,68,72.0,0,0,0,0,0,0,25.0,-10.0,-1019.0
1777583394.7574852,recenter,right,-,1,,,2,,0.7864952767166737,1.436360270553875,2.439939909684518,2.6173161722147977,130,254734.0,68,72.0,0,0,0,0,0,0,19.0,17.0,-1000.0
1777583394.808148,recenter,right,-,1,,,2,,0.7916450737964393,1.4121722431790333,2.438050096288714,2.616697405389884,130,254734.0,68,72.0,0,0,0,0,0,0,19.0,17.0,-1000.0
1777583394.858502,recenter,right,-,1,,,2,,0.8175859633346909,1.4152372487168328,2.442376696985437,2.6176971738941903,130,254733.0,68,72.0,0,0,0,0,0,0,24.0,11.0,-1008.0
1777583394.909835,recenter,right,-,1,,,2,,0.7708100388263984,1.434710516775889,2.4389949130114568,2.6162964612918413,130,254733.0,68,72.0,0,0,0,0,0,0,24.0,11.0,-1008.0
1777583394.960939,recenter,right,-,1,,,2,,0.7826140815624243,1.4224955810527815,2.433654779263417,2.6137311895065323,130,254735.0,68,72.0,0,0,0,0,0,0,21.0,0.0,-998.0
1777583395.012803,recenter,right,-,1,,,2,,0.8079020341579701,1.4112284307797223,2.4379159759638798,2.615185105566886,130,254735.0,68,72.0,0,0,0,0,0,0,21.0,0.0,-998.0
1777583395.064729,recenter,right,-,1,,,2,,0.7768759948517637,1.4313301360817972,2.436344723178728,2.6148880676710227,130,254741.0,68,72.0,0,0,0,0,0,0,30.0,-3.0,-997.0
1777583395.116441,recenter,right,-,1,,,2,,0.7868474620255407,1.3846080553519522,2.455445224289586,2.619616979586896,130,254741.0,68,72.0,0,0,0,0,0,0,30.0,-3.0,-997.0
1777583395.166637,recenter,right,-,1,,,2,,0.8345925563396162,1.4277115369533964,2.4450299277259786,2.6155918383009285,130,254730.00000000003,68,72.0,0,0,0,0,0,0,3.0,31.0,-1010.0
1777583395.217282,recenter,right,-,1,,,2,,0.8032265862862953,1.438243914102989,2.4338663102822102,2.6125039557818175,130,254730.00000000003,68,72.0,0,0,0,0,0,0,3.0,31.0,-1010.0
1777583395.268513,recenter,right,-,1,,,2,,0.7622268352778117,1.4386109467382195,2.4343877116125854,2.6125725363884005,130,254734.0,68,72.0,0,0,0,0,0,0,0.0,29.0,-1002.0
1777583395.319861,recenter,right,-,1,,,2,,0.7777222605114411,1.4283847247406132,2.427431090009781,2.60958984362199,130,254734.0,68,72.0,0,0,0,0,0,0,0.0,29.0,-1002.0
1777583395.37098,recenter,right,-,1,,,2,,0.761978935261252,1.4320374591072464,2.4303031921485223,2.6088312681950523,130,254739.0,68,71.5,0,0,0,0,0,0,-2.0,9.0,-1000.0
1777583395.421632,recenter,right,-,1,,,2,,0.787487417139402,1.4323502625407514,2.4307882637838,2.610497859903867,130,254739.0,68,71.5,0,0,0,0,0,0,-2.0,9.0,-1000.0
1777583395.472194,recenter,right,-,1,,,2,,0.787487417139402,1.4323502625407514,2.4307882637838,2.610497859903867,130,254734.0,68,71.5,0,0,0,0,0,0,-9.0,11.0,-999.0
1777583395.5226629,recenter,right,-,1,,,2,,0.7687761558838682,1.4431046731857469,2.4313446340517735,2.610660620515941,130,254734.0,68,71.5,0,0,0,0,0,0,-9.0,11.0,-999.0
1777583395.573907,recenter,right,-,1,,,2,,0.773118355592366,1.434317201689539,2.425773527378352,2.6071420676797095,130,254739.0,68,71.5,0,0,0,0,0,0,17.0,-3.0,-1015.0
1777583395.624223,recenter,right,-,1,,,2,,0.7912412489819386,1.4174840345446034,2.4343820516759935,2.6128467068546977,130,254739.0,68,71.5,0,0,0,0,0,0,17.0,-3.0,-1015.0
1777583395.6750531,recenter,right,-,1,,,2,,0.7864476744584101,1.4281338685714156,2.442958112763288,2.613619931981246,130,254742.0,68,71.5,0,0,0,0,0,0,-17.0,49.0,-1001.0
1777583395.725591,recenter,right,-,1,,,2,,0.8145202331060761,1.4295177309464506,2.426718740821981,2.6080249128986566,130,254744.0,68,71.5,0,0,0,0,0,0,-16.0,6.0,-992.0
1777583395.7773728,recenter,right,-,1,,,2,,0.8156043039630003,1.432042158955923,2.4229446984983594,2.607929155366972,130,254744.0,68,71.5,0,0,0,0,0,0,-16.0,6.0,-992.0
1777583395.8289568,recenter,right,-,1,,,2,,0.7839136687488791,1.4313527229487553,2.4395660906001844,2.613902129539084,130,254739.0,68,71.5,0,0,0,0,0,0,-28.0,32.0,-1014.0
1777583395.8796968,recenter,right,-,1,,,2,,0.7701500172208701,1.4215081495922588,2.436803170267088,2.611587668522012,130,254739.0,68,71.5,0,0,0,0,0,0,-28.0,32.0,-1014.0
1777583395.9306712,recenter,right,-,1,,,2,,0.7775454134511379,1.4288738871097877,2.43318077711169,2.610498377055853,130,254726.00000000003,68,71.5,0,-1,0,0,0,0,9.0,18.0,-990.0
1777583395.981206,recenter,right,-,1,,,2,,0.7663658853927413,1.4311555525810198,2.425588274296879,2.6072817427130195,130,254726.00000000003,68,71.5,0,-1,0,0,0,0,9.0,18.0,-990.0
1777583396.031818,recenter,right,-,1,,,2,,0.7565192868467246,1.4311212788515415,2.421586984699989,2.6063989216360763,130,254739.0,68,71.5,0,-1,0,0,0,0,-36.0,33.0,-1013.0
1777583396.082686,recenter,right,-,1,,,2,,0.7776417238529181,1.4363416309448755,2.4245523496502184,2.606341397947026,130,254739.0,68,71.5,0,-1,0,0,0,0,-36.0,33.0,-1013.0
1777583396.133952,recenter,right,-,1,,,2,,0.7649116455631613,1.4220219020802567,2.4195459994038733,2.6049063029586246,130,254737.0,68,71.5,0,0,0,0,0,0,12.0,6.0,-979.0
1777583396.183191,recenter,right,-,1,,,2,,0.791928798069502,1.423034744877499,2.4310391709949006,2.608307272539002,130,254737.0,68,71.5,0,0,0,0,0,0,12.0,6.0,-979.0
1777583396.231621,recenter,right,-,1,,,2,,0.7723063738300713,1.4189034286482476,2.4268771654413817,2.606931948004113,130,254732.00000000003,68,71.5,0,0,0,0,0,0,-12.0,15.0,-982.0
1777583396.279416,recenter,right,-,1,,,2,,0.7623793784544595,1.4393482883915498,2.419182244553897,2.6060007413472928,130,254732.00000000003,68,71.5,0,0,0,0,0,0,-12.0,15.0,-982.0
1777583396.3255749,recenter,right,-,1,,,2,,0.8139833260520059,1.4263794234393683,2.441515732602622,2.612656436117761,130,254732.00000000003,68,71.5,0,0,0,0,0,0,-12.0,15.0,-982.0
1777583396.375395,recenter,right,-,1,,,2,,0.7729163034200419,1.4391139330888472,2.4245587567172393,2.6062761050671903,130,254742.99999999997,68,72.0,0,0,0,0,0,0,-3.0,18.0,-992.0
1777583396.42281,recenter,right,-,1,,,2,,0.7918323078496077,1.445467668170132,2.436829095524323,2.611176422308013,130,254738.0,68,72.0,0,0,0,0,0,0,-4.0,4.0,-990.0
1777583396.4740422,recenter,right,-,1,,,2,,0.7918323078496077,1.445467668170132,2.436829095524323,2.611176422308013,130,254738.0,68,72.0,0,0,0,0,0,0,-4.0,4.0,-990.0
1777583396.5217211,recenter,right,-,1,,,2,,0.8005868714071271,1.4207710615447253,2.439291420830312,2.609929322619657,130,254736.0,68,72.0,0,0,0,0,0,0,-3.0,19.0,-1009.0
1777583396.570837,recenter,right,-,1,,,2,,0.7913579435546622,1.438447403744739,2.4364349640489813,2.609218398458349,130,254736.0,68,72.0,0,0,0,0,0,0,-3.0,19.0,-1009.0
1777583396.6191318,recenter,right,-,1,,,2,,0.7762145415259034,1.44500771165568,2.439301067501356,2.6111559181883988,130,254736.0,68,72.0,0,0,0,0,0,0,-3.0,19.0,-1009.0
1777583396.6683478,recenter,right,-,1,,,2,,0.8008591428754928,1.4398941426766312,2.4316890716200055,2.607826017238567,130,254746.99999999997,68,72.0,0,0,0,0,0,0,5.0,12.0,-1002.0
1777583396.7187881,recenter,right,-,1,,,2,,0.7952424031181275,1.4394241380301467,2.4309428174541186,2.607262719290698,130,254740.0,68,72.0,0,0,0,0,0,0,27.0,-17.0,-988.0
1777583396.769898,recenter,right,-,1,,,2,,0.7979714936069014,1.410813151773537,2.44218888190482,2.610271234047688,130,254740.0,68,72.0,0,0,0,0,0,0,27.0,-17.0,-988.0
1777583396.821866,recenter,right,-,1,,,2,,0.7544784963385246,1.4206073580465497,2.426968887001367,2.6065083770753223,130,254742.0,68,72.0,0,0,0,0,0,0,25.0,-10.0,-999.0
1777583396.872576,recenter,right,-,1,,,2,,0.773784366138101,1.4168385893856885,2.443458808771736,2.6093638652429623,130,254742.0,68,72.0,0,0,0,0,0,0,25.0,-10.0,-999.0
1777583396.923776,recenter,right,-,1,,,2,,0.7587565074014536,1.4122885666658505,2.434825985943888,2.6069109115646327,130,254740.0,68,72.0,0,0,0,0,0,0,1.0,32.0,-984.0
1777583396.974886,recenter,right,-,1,,,2,,0.7547255925097294,1.4293773020988267,2.4325384858238586,2.6062517433041554,130,254740.0,68,72.0,0,0,0,0,0,0,1.0,32.0,-984.0
1777583397.025522,recenter,right,-,1,,,2,,0.7504797816450239,1.4268434950168198,2.4331744743567127,2.6060693028496544,130,254744.0,68,72.0,0,0,0,0,0,0,23.0,27.0,-983.0
1777583397.0770822,recenter,right,-,1,,,2,,0.7502722844728351,1.4357921407076464,2.4264087550529885,2.6018562735568915,130,254744.0,68,72.0,0,0,0,0,0,0,23.0,27.0,-983.0
1777583397.1285388,recenter,right,-,1,,,2,,0.7558515317933888,1.4337976847646066,2.4251472816418893,2.601896638374671,130,254746.0,68,72.0,0,0,0,0,0,0,-3.0,4.0,-979.0
1777583397.180445,recenter,right,-,1,,,2,,0.7814851045846514,1.427324847973494,2.434126358164324,2.605408292957682,130,254746.0,68,72.0,0,0,0,0,0,0,-3.0,4.0,-979.0
1777583397.231498,recenter,right,-,1,,,2,,0.7852457177819017,1.434753159394674,2.4270152971959296,2.60322804185032,130,254739.0,68,72.0,0,0,0,0,0,0,-23.0,38.0,-986.0
1777583397.282513,recenter,right,-,1,,,2,,0.7683995300727898,1.4082499694551656,2.4350701584613037,2.6038056784187917,130,254739.0,68,72.0,0,0,0,0,0,0,-23.0,38.0,-986.0
1777583397.333416,recenter,right,-,1,,,2,,0.7810604466939068,1.4120919536581154,2.436043284353343,2.6027224446312753,130,254741.0,68,72.0,0,0,0,0,0,0,-31.0,45.0,-999.0
1777583397.384594,recenter,right,-,1,,,2,,0.7413642377445451,1.4210574026778022,2.4323306671082436,2.599507773074162,130,254741.0,68,72.0,0,0,0,0,0,0,-31.0,45.0,-999.0
1777583397.4349492,recenter,right,-,1,,,2,,0.766010422985334,1.4094224471846801,2.43906328424191,2.6024648548408265,130,254735.0,68,72.0,0,0,0,0,0,0,9.0,30.0,-990.0
1777583397.485437,recenter,right,-,1,,,2,,0.7693421510260823,1.413754641766843,2.4332799707105917,2.5991844045153663,130,254735.0,68,72.0,0,0,0,0,0,0,9.0,30.0,-990.0
1777583397.536128,recenter,right,-,1,,,2,,0.7568644304980605,1.406702775117764,2.4183152625840783,2.5925855042198624,130,254737.0,68,72.0,0,0,0,0,0,0,6.0,15.0,-998.0
1777583397.587283,recenter,right,-,1,,,2,,0.7599696867586628,1.4092189891488833,2.419102172421196,2.591272782629853,130,254737.0,68,72.0,0,0,0,0,0,0,6.0,15.0,-998.0
1777583397.6375208,recenter,right,-,1,,,2,,0.7571412888024871,1.3970587901922733,2.425856049049221,2.5930984439844424,130,254741.0,68,72.0,0,0,0,0,0,0,7.0,0.0,-971.0
1777583397.6880572,recenter,right,-,1,,,2,,0.7573095195166778,1.4006602519201294,2.425551742108483,2.5909376672755995,130,254741.0,68,72.0,0,0,0,0,0,0,7.0,0.0,-971.0
1777583397.739188,recenter,right,-,1,,,2,,0.743681842012028,1.4019058096333088,2.4266893795436566,2.590852214137833,130,254744.99999999997,68,72.0,0,0,0,0,0,0,6.0,0.0,-1001.0
1777583397.790047,recenter,right,-,1,,,2,,0.7452963533228625,1.3980687482776808,2.420049535026371,2.5894278808966527,130,254744.99999999997,68,72.0,0,0,0,0,0,0,6.0,0.0,-1001.0
1777583397.840783,recenter,right,-,1,,,2,,0.7468382145531907,1.4022413283576425,2.424572089016543,2.591741040221876,130,254736.0,68,72.0,0,0,0,0,0,0,15.0,12.0,-1000.0
1777583397.890354,recenter,right,-,1,,,2,,0.7511845370134551,1.4207751886219993,2.4117594872388515,2.5852127115864816,130,254736.0,68,72.0,0,0,0,0,0,0,15.0,12.0,-1000.0
1777583397.9419231,recenter,right,-,1,,,2,,0.8199203241471105,1.3766307572035763,2.436064214393243,2.593166268293314,130,254741.0,68,72.0,0,0,0,0,0,0,9.0,8.0,-1000.0
1777583397.99237,recenter,right,-,1,,,2,,0.7358401118800633,1.4028280178860912,2.423614953117621,2.5885991466295977,130,254741.0,68,72.0,0,0,0,0,0,0,9.0,8.0,-1000.0
1777583398.042887,recenter,right,-,1,,,2,,0.7572853860854327,1.376271873840733,2.4248745228948985,2.589099406414098,130,254736.0,68,72.0,0,0,0,0,0,0,-2.0,11.0,-990.0
1777583398.093984,recenter,right,-,1,,,2,,0.7812081674629331,1.3968038008461714,2.422193835915431,2.587612168930948,130,254736.0,68,72.0,0,0,0,0,0,0,-2.0,11.0,-990.0
1777583398.145254,recenter,right,-,1,,,2,,0.7768768083419856,1.3798409982155615,2.433761595096234,2.5911281562832333,130,254731.0,68,72.0,0,0,0,0,0,0,26.0,-4.0,-995.0
1777583398.195124,recenter,right,-,1,,,2,,0.7500017807850294,1.3950560355078796,2.4082397587683553,2.5830331289589306,130,254731.0,68,72.0,0,0,0,0,0,0,26.0,-4.0,-995.0
1777583398.243207,recenter,right,-,1,,,2,,0.7383870128172629,1.388018245311636,2.427569297331682,2.5880350495988407,130,254735.0,68,72.0,0,-1,0,0,0,0,-28.0,19.0,-1004.0
1777583398.29282,recenter,right,-,1,,,2,,0.7450943549527924,1.389234055416344,2.4241531216938927,2.5852672865771362,130,254735.0,68,72.0,0,-1,0,0,0,0,-28.0,19.0,-1004.0
1777583398.340954,recenter,right,-,1,,,2,,0.7873760894511957,1.375060305850004,2.426464265800419,2.5851977210501422,130,254735.0,68,72.0,0,-1,0,0,0,0,-28.0,19.0,-1004.0
1777583398.389782,recenter,right,-,1,,,2,,0.7464225958733274,1.358879748536845,2.4257485508652303,2.5873276264683662,130,254734.0,68,71.5,0,-1,0,0,0,0,-16.0,28.0,-1006.0
1777583398.4378629,recenter,right,-,1,,,2,,0.7570849001000806,1.3684223826853703,2.4282855807851447,2.5877295219282637,130,254734.0,68,71.5,0,-1,0,0,0,0,-16.0,28.0,-1006.0
1777583398.486361,recenter,right,-,1,,,2,,0.7340987960596711,1.37517329419711,2.4247762601705176,2.5862887132254304,130,254733.0,68,71.5,0,-1,0,0,0,0,-5.0,6.0,-1006.0
1777583398.5358489,recenter,right,-,1,,,2,,0.7276365551907,1.3736156125850971,2.4255852951508476,2.587614104884058,130,254733.0,68,71.5,0,-1,0,0,0,0,-5.0,6.0,-1006.0
1777583398.5844429,recenter,right,-,1,,,2,,0.7394869931433918,1.3829889269264832,2.417457310781221,2.5847247028612004,130,254733.0,68,71.5,0,-1,0,0,0,0,-3.0,23.0,-1014.0
1777583398.6358202,recenter,right,-,1,,,2,,0.7392718957281176,1.354639895507676,2.4333125775838176,2.5894044195475097,130,254733.0,68,71.5,0,-1,0,0,0,0,-3.0,23.0,-1014.0
1777583398.6861188,recenter,right,-,1,,,2,,0.7604037338876322,1.3865944237109253,2.4333441194275234,2.5903489854839505,130,254733.0,68,71.5,0,-1,0,0,0,0,11.0,14.0,-1008.0
1777583398.737671,recenter,right,-,1,,,2,,0.757784276241323,1.3733360816293352,2.4288252840775653,2.589665326790932,130,254733.0,68,71.5,0,-1,0,0,0,0,11.0,14.0,-1008.0
1777583398.789044,recenter,right,-,1,,,2,,0.7469739871270878,1.358917920458329,2.4213647778766285,2.5876262867251505,130,254728.00000000003,68,71.5,0,-1,0,0,0,0,0.0,-1.0,-1013.0
1777583398.8412879,recenter,right,-,1,,,2,,0.7450216224294429,1.3657867316019339,2.438043659581526,2.5944912638871758,130,254728.00000000003,68,71.5,0,-1,0,0,0,0,0.0,-1.0,-1013.0
1777583398.8925078,recenter,right,-,1,,,2,,0.7391134783277122,1.372743890927049,2.4338406665514496,2.591765730035889,130,254735.0,68,71.5,0,-1,0,0,0,0,-13.0,27.0,-1033.0
1777583398.943434,recenter,right,-,1,,,2,,0.7392215488971787,1.3787422840631407,2.4322627484580144,2.5912849273297933,130,254735.0,68,71.5,0,-1,0,0,0,0,-13.0,27.0,-1033.0
1777583398.994507,recenter,right,-,1,,,2,,0.7478206754886381,1.3713325577990776,2.4378535248677276,2.593574091105507,130,254731.0,68,71.5,0,-1,0,0,0,0,-2.0,20.0,-1003.0
1777583399.047298,recenter,right,-,1,,,2,,0.7345317919661323,1.3805977805973377,2.431430893074272,2.591744366362324,130,254732.00000000003,68,71.5,0,-1,0,0,0,0,-8.0,7.0,-1005.0
1777583399.098618,recenter,right,-,1,,,2,,0.7507062756548479,1.3382529636627496,2.4602847271322292,2.6019832204061246,130,254732.00000000003,68,71.5,0,-1,0,0,0,0,-8.0,7.0,-1005.0
1777583399.130423,pre_hover,right,x,1,,,2,4,0.7460917651557801,1.356098349677975,2.4384104589046904,2.5948192716226037,130,254733.0,68,71.5,0,-1,0,0,0,0,-19.0,30.0,-1016.0
1777583399.1814778,pre_hover,right,x,1,,,2,4,0.7261120238379664,1.361886060625888,2.438531621144731,2.594285882367217,130,254733.0,68,71.5,0,-1,0,0,0,0,-19.0,30.0,-1016.0
1777583399.232366,pre_hover,right,x,1,,,2,4,0.6982922031970344,1.3780842063091259,2.430285282792486,2.5922418072202498,130,254728.00000000003,68,71.5,0,-1,0,0,0,0,-8.0,6.0,-1013.0
1777583399.282458,pre_hover,right,x,1,,,2,4,0.741692281679941,1.3685825896528707,2.4422549538219647,2.596306497219938,130,254728.00000000003,68,71.5,0,-1,0,0,0,0,-8.0,6.0,-1013.0
1777583399.3327649,pre_hover,right,x,1,,,2,4,0.689199117485481,1.3658969739817697,2.431782252762091,2.5957974524266847,130,254739.0,68,71.5,0,0,0,0,0,0,-3.0,35.0,-991.0
1777583399.383134,pre_hover,right,x,1,,,2,4,0.7170150378704212,1.3702029032730554,2.4354714304047556,2.5938528248706394,130,254739.0,68,71.5,0,0,0,0,0,0,-3.0,35.0,-991.0
1777583399.433011,pre_hover,right,x,1,,,2,4,0.703220165801656,1.3732008307605126,2.434130410906755,2.5957579331220386,130,254740.0,68,71.5,0,0,0,0,0,0,4.0,13.0,-985.0
1777583399.483552,pre_hover,right,x,1,,,2,4,0.7000811256780393,1.3554943561330384,2.4507215850063115,2.603781820511863,130,254740.0,68,71.5,0,0,0,0,0,0,4.0,13.0,-985.0
1777583399.534179,pre_hover,right,x,1,,,2,4,0.6795115769587629,1.3719334267885785,2.4500749097081003,2.6039404840017912,130,254729.0,68,71.5,0,0,0,0,0,0,16.0,-4.0,-975.0
1777583399.584642,pre_hover,right,x,1,,,2,4,0.7033231849828616,1.3777417246692434,2.4510384428594536,2.6057351263408353,130,254729.0,68,71.5,0,0,0,0,0,0,16.0,-4.0,-975.0
1777583399.635343,pre_hover,right,x,1,,,2,4,0.6936725470292003,1.3797546760190667,2.444221997014935,2.6017859525406175,130,254734.0,68,71.5,0,0,0,0,0,0,21.0,26.0,-985.0
1777583399.686307,pre_hover,right,x,1,,,2,4,0.6762778698792761,1.3850785848193437,2.451654912527741,2.60796730461841,130,254734.0,68,71.5,0,0,0,0,0,0,21.0,26.0,-985.0
1777583399.737546,pre_hover,right,x,1,,,2,4,0.6787142194987792,1.3912798700713385,2.4549026253006385,2.6103160210459997,130,254732.00000000003,68,71.5,0,0,0,0,0,0,-11.0,45.0,-987.0
1777583399.788928,pre_hover,right,x,1,,,2,4,0.6779455432795877,1.3832262851976314,2.4456543676500955,2.6068727826410014,130,254732.00000000003,68,71.5,0,0,0,0,0,0,-11.0,45.0,-987.0
1777583399.8400378,pre_hover,right,x,1,,,2,4,0.6721485367744615,1.380108628381208,2.464129629256576,2.6143431855520305,130,254726.00000000003,68,71.5,0,0,0,0,0,0,0.0,14.0,-978.0
1777583399.890422,pre_hover,right,x,1,,,2,4,0.6801433912016323,1.391055561286241,2.451405257082558,2.6103843514267036,130,254726.00000000003,68,71.5,0,0,0,0,0,0,0.0,14.0,-978.0
1777583399.941238,pre_hover,right,x,1,,,2,4,0.6820803987859075,1.3790477344618126,2.4622200852419467,2.6149886051710842,130,254731.0,68,71.5,0,0,0,0,0,0,26.0,-13.0,-981.0
1777583399.99155,pre_hover,right,x,1,,,2,4,0.6813495783110147,1.3822266059529338,2.457321933016085,2.611825305196403,130,254731.0,68,71.5,0,0,0,0,0,0,26.0,-13.0,-981.0
1777583400.043964,pre_hover,right,x,1,,,2,4,0.6730313667006652,1.3773486119671807,2.4620255213848363,2.615578944630787,130,254732.00000000003,68,71.5,0,0,0,0,0,0,15.0,-8.0,-1002.0
1777583400.0957508,pre_hover,right,x,1,,,2,4,0.6788045170351835,1.35930367486622,2.4628635081745145,2.61699987299808,130,254732.00000000003,68,71.5,0,0,0,0,0,0,15.0,-8.0,-1002.0
1777583400.146314,pre_hover,right,x,1,,,2,4,0.6480889211518701,1.382819439000639,2.4569474328081258,2.6134828030737434,130,254728.00000000003,68,71.5,0,0,0,0,0,0,17.0,2.0,-991.0
1777583400.1963441,pre_hover,right,x,1,,,2,4,0.672149226308148,1.378765223293108,2.46499449673205,2.6191920169092313,130,254728.00000000003,68,71.5,0,0,0,0,0,0,17.0,2.0,-991.0
1777583400.24619,pre_hover,right,x,1,,,2,4,0.6702012535008822,1.374476943141186,2.467577129349026,2.618241685032573,130,254729.0,68,71.5,0,0,0,0,0,0,-4.0,28.0,-1015.0
1777583400.2950652,pre_hover,right,x,1,,,2,4,0.6585015624278722,1.374329244909577,2.470905587345882,2.6197925657570194,130,254729.0,68,71.5,0,0,0,0,0,0,-4.0,28.0,-1015.0
1777583400.343681,pre_hover,right,x,1,,,2,4,0.6554198264906854,1.3741107022851098,2.4823694415739737,2.624503297073247,130,254739.0,68,72.0,0,0,0,0,0,0,-22.0,27.0,-997.0
1777583400.391538,pre_hover,right,x,1,,,2,4,0.6554078651430403,1.3695100423845115,2.4578657015055136,2.616689731220193,130,254739.0,68,72.0,0,0,0,0,0,0,-22.0,27.0,-997.0
1777583400.439681,pre_hover,right,x,1,,,2,4,0.6705073715878178,1.371934890776295,2.4653847888847116,2.6200476555944667,130,254736.0,68,72.0,0,0,0,0,0,0,-3.0,21.0,-1005.0
1777583400.487969,pre_hover,right,x,1,,,2,4,0.6720606917237801,1.3585241934911867,2.4759173608148917,2.622846381125014,130,254736.0,68,72.0,0,0,0,0,0,0,-3.0,21.0,-1005.0
1777583400.539432,pre_hover,right,x,1,,,2,4,0.6740758496979362,1.3736398170562214,2.475261043495701,2.621853773915226,130,254735.0,68,72.0,0,0,0,0,0,0,-24.0,28.0,-984.0
1777583400.590446,pre_hover,right,x,1,,,2,4,0.6777963490179797,1.3729464979375507,2.4706990565175104,2.622697373880488,130,254735.0,68,72.0,0,0,0,0,0,0,-24.0,28.0,-984.0
1777583400.6401541,pre_hover,right,x,1,,,2,4,0.6672248566370369,1.3769420145552795,2.4777343530129308,2.62768264655389,130,254730.00000000003,68,72.0,0,0,0,0,0,0,-6.0,25.0,-1000.0
1777583400.690382,pre_hover,right,x,1,,,2,4,0.6770451976643619,1.3438981253861748,2.480415888808199,2.628006997743129,130,254730.00000000003,68,72.0,0,0,0,0,0,0,-6.0,25.0,-1000.0
1777583400.742068,pre_hover,right,x,1,,,2,4,0.639524402375009,1.3505876850819913,2.4935735067642844,2.6339393670280082,130,254733.0,68,72.0,0,0,0,0,0,0,-11.0,4.0,-1025.0
1777583400.793441,pre_hover,right,x,1,,,2,4,0.64823318715803,1.378314395283267,2.4726016114615144,2.6258901177923155,130,254733.0,68,72.0,0,0,0,0,0,0,-11.0,4.0,-1025.0
1777583400.844822,pre_hover,right,x,1,,,2,4,0.6811384012297249,1.3768023637489533,2.481102195575919,2.628412159261593,130,254734.0,68,72.0,0,0,0,0,0,0,1.0,4.0,-988.0
1777583400.895675,pre_hover,right,x,1,,,2,4,0.6665116805959128,1.3479903399175779,2.4817532275955547,2.629769969589284,130,254734.0,68,72.0,0,0,0,0,0,0,1.0,4.0,-988.0
1777583400.946082,pre_hover,right,x,1,,,2,4,0.7022972779474602,1.3668422163907876,2.4744880340006516,2.625695316441401,130,254731.0,68,72.0,0,0,0,0,0,0,6.0,14.0,-997.0
1777583400.996941,pre_hover,right,x,1,,,2,4,0.6747221828683337,1.3630146646743986,2.473034142964713,2.6280285013992226,130,254731.0,68,72.0,0,0,0,0,0,0,6.0,14.0,-997.0
1777583401.0472288,pre_hover,right,x,1,,,2,4,0.6583454724996958,1.3688280822113232,2.4815561665090917,2.6304185039141457,130,254736.0,68,72.0,0,0,0,0,0,0,9.0,16.0,-1011.0
1777583401.0979269,pre_hover,right,x,1,,,2,4,0.6448770831785955,1.375420966560418,2.476488838545873,2.6281135303862326,130,254736.0,68,72.0,0,0,0,0,0,0,9.0,16.0,-1011.0
1777583401.148204,pre_hover,right,x,1,,,2,4,0.6476972058972892,1.3733582231313077,2.477940851836163,2.627704490471466,130,254736.0,68,72.0,0,0,0,0,0,0,9.0,16.0,-1011.0
1777583401.197767,pre_hover,right,x,1,,,2,4,0.6637022943315707,1.388756749081485,2.4626601964614396,2.620315204541632,130,254731.0,68,72.0,0,0,0,0,0,0,-12.0,13.0,-989.0
1777583401.247425,pre_hover,right,x,1,,,2,4,0.6582366423043071,1.3862826536780755,2.480468508557743,2.6287262090604693,130,254731.0,68,72.0,0,0,0,0,0,0,-12.0,13.0,-989.0
1777583401.2978618,pre_hover,right,x,1,,,2,4,0.646270423490992,1.376004435385887,2.4710753644178207,2.6237301075642634,130,254732.00000000003,68,72.0,0,0,0,0,0,0,-9.0,25.0,-1013.0
1777583401.348321,pre_hover,right,x,1,,,2,4,0.6485437254101178,1.387478196066424,2.4822276191353896,2.6282557258672377,130,254732.00000000003,68,72.0,0,0,0,0,0,0,-9.0,25.0,-1013.0
1777583401.398877,pre_hover,right,x,1,,,2,4,0.6698331110598167,1.3803734773381686,2.460317583653272,2.618433563049673,130,254736.0,68,72.0,0,0,0,0,0,0,38.0,-10.0,-1007.0
1777583401.449794,pre_hover,right,x,1,,,2,4,0.6560468498567399,1.3802886251547979,2.4652978594787127,2.620511271907271,130,254736.0,68,72.0,0,0,0,0,0,0,38.0,-10.0,-1007.0
1777583401.499939,pre_hover,right,x,1,,,2,4,0.6748644646519176,1.3874739238835696,2.472312424080001,2.622383910401184,130,254739.0,68,72.0,0,0,0,0,0,0,-7.0,33.0,-1019.0
1777583401.550517,pre_hover,right,x,1,,,2,4,0.6520042293845103,1.4059126392124102,2.463677882527419,2.6191122522724397,130,254739.0,68,72.0,0,0,0,0,0,0,-7.0,33.0,-1019.0
1777583401.600876,pre_hover,right,x,1,,,2,4,0.6777252203083173,1.380922291718163,2.46393100365805,2.6162752934896423,130,254742.0,68,72.0,0,0,0,0,0,0,1.0,7.0,-1016.0
1777583401.651123,pre_hover,right,x,1,,,2,4,0.6779961910306651,1.4126654475528748,2.4529519741460626,2.6157856653229183,130,254742.0,68,72.0,0,0,0,0,0,0,1.0,7.0,-1016.0
1777583401.701988,pre_hover,right,x,1,,,2,4,0.6810847804296257,1.394315437596349,2.4615866942758355,2.6166073375758607,130,254736.0,68,72.0,0,0,0,0,0,0,-18.0,14.0,-1012.0
1777583401.753215,pre_hover,right,x,1,,,2,4,0.6483752098211688,1.3962262919121353,2.4590416524314485,2.617423517909822,130,254736.0,68,72.0,0,0,0,0,0,0,-18.0,14.0,-1012.0
1777583401.804233,pre_hover,right,x,1,,,2,4,0.6506353896881196,1.4182283630915018,2.4504033212786784,2.614214987497955,130,254731.0,68,72.0,0,0,0,0,0,0,14.0,8.0,-1004.0
1777583401.8556108,pre_hover,right,x,1,,,2,4,0.6592399085443805,1.415980598714758,2.4539303176471066,2.6138956351645595,130,254731.0,68,72.0,0,0,0,0,0,0,14.0,8.0,-1004.0
1777583401.906239,pre_hover,right,x,1,,,2,4,0.6575945005456274,1.441107039282336,2.4447170783033583,2.6109045693515487,130,254730.00000000003,68,72.0,0,0,0,0,0,0,5.0,2.0,-997.0
1777583401.957037,pre_hover,right,x,1,,,2,4,0.6769552180950895,1.4331574973156556,2.445315095805657,2.610064023426263,130,254730.00000000003,68,72.0,0,0,0,0,0,0,5.0,2.0,-997.0
1777583402.008445,pre_hover,right,x,1,,,2,4,0.647437957513874,1.4263738556700332,2.450281111777122,2.6095026582088314,130,254732.00000000003,68,72.0,0,0,0,0,0,0,29.0,4.0,-982.0
1777583402.059408,pre_hover,right,x,1,,,2,4,0.6322050453658313,1.4191684638935724,2.4483594062963565,2.609743393526038,130,254732.00000000003,68,72.0,0,0,0,0,0,0,29.0,4.0,-982.0
1777583402.110479,pre_hover,right,x,1,,,2,4,0.675109831839813,1.439800662878833,2.4412361185051177,2.6090335202870483,130,254741.0,67,72.0,0,0,0,0,0,0,6.0,16.0,-997.0
1777583402.161164,response,right,x,1,1777583402.160654,0.0005099773406982422,2,4,0.6654704889196015,1.4162505449076108,2.4433211115527462,2.61055282426169,130,254741.0,67,72.0,0,0,0,0,0,0,6.0,16.0,-997.0
1777583402.210314,response,right,x,1,1777583402.160654,0.04965996742248535,2,4,0.6977551395989661,1.417046260393734,2.448393193175193,2.608293855288685,130,254741.0,67,72.0,0,0,0,0,0,0,8.0,2.0,-975.0
1777583402.25905,response,right,x,1,1777583402.160654,0.09839582443237305,2,4,0.6784987798888653,1.425775884863181,2.445853138239806,2.6077449821563228,130,254741.0,67,72.0,0,0,0,0,0,0,8.0,2.0,-975.0
1777583402.305917,response,right,x,1,1777583402.160654,0.1452629566192627,2,4,0.6712906501912649,1.436766360567605,2.4389625027980593,2.605007378135923,130,254737.0,67,72.0,0,0,0,0,0,0,6.0,-1.0,-991.0
1777583402.3532648,response,right,x,1,1777583402.160654,0.1926107406616211,2,4,0.6666022770562573,1.451721946685325,2.435752064021087,2.6048681676699847,130,254737.0,67,72.0,0,0,0,0,0,0,6.0,-1.0,-991.0
1777583402.4005818,response,right,x,1,1777583402.160654,0.2399277687072754,2,4,0.6865689779619173,1.4220707472933825,2.4392264259617,2.6060134169721207,130,254738.0,67,72.0,0,0,0,0,0,0,14.0,-25.0,-995.0
1777583402.446399,response,right,x,1,1777583402.160654,0.28574490547180176,2,4,0.6865689779619173,1.4220707472933825,2.4392264259617,2.6060134169721207,130,254738.0,67,72.0,0,0,0,0,0,0,14.0,-25.0,-995.0
1777583402.4939148,response,right,x,1,1777583402.160654,0.33326077461242676,2,4,0.7025532713382028,1.452590460033587,2.4299741597636983,2.602114874450007,130,254741.0,67,72.0,0,3,0,0,0,0,-29.0,23.0,-974.0
1777583402.544718,response,right,x,1,1777583402.160654,0.3840639591217041,2,4,0.6655260869275713,1.4486712085487752,2.4294606320878147,2.599125465748452,130,254741.0,67,72.0,0,3,0,0,0,0,-29.0,23.0,-974.0
1777583402.5948942,response,right,x,1,1777583402.160654,0.43424010276794434,2,4,0.6932075771687769,1.4515600602798044,2.4380716151945983,2.6035267474915713,130,254738.0,67,72.0,0,3,0,0,1,0,2.0,27.0,-991.0
1777583402.64578,response,right,x,1,1777583402.160654,0.4851260185241699,2,4,0.6644673403443097,1.4494651778753993,2.427842752991722,2.5988404539632253,130,254738.0,67,72.0,0,3,0,0,1,0,2.0,27.0,-991.0
1777583402.696089,response,right,x,1,1777583402.160654,0.5354349613189697,2,4,0.6826350567137182,1.4560139751250032,2.4196704013367842,2.5956137404172077,130,254738.0,67,72.0,0,2,0,0,1,0,31.0,-6.0,-983.0
1777583402.746315,response,right,x,1,1777583402.160654,0.5856609344482422,2,4,0.6992864819336907,1.4612692313125901,2.4351821884457334,2.6026286938392706,130,254738.0,67,72.0,0,2,0,0,1,0,31.0,-6.0,-983.0
1777583402.7960808,response,right,x,1,1777583402.160654,0.6354267597198486,2,4,0.7162405101060261,1.461573230444701,2.4198491014481487,2.597029867848625,130,254741.0,67,72.0,0,0,0,0,2,0,28.0,-6.0,-1011.0
1777583402.846751,response,right,x,1,1777583402.160654,0.6860969066619873,2,4,0.7466462947805325,1.4330429228334403,2.4286580047241775,2.601307743321148,130,254741.0,67,72.0,0,0,0,0,2,0,28.0,-6.0,-1011.0
1777583402.89814,response,right,x,1,1777583402.160654,0.7374858856201172,2,4,0.7377713468157094,1.4485652098349273,2.4242822781578424,2.598432864289144,130,254742.99999999997,67,72.0,0,0,0,0,2,0,-1.0,26.0,-1001.0
1777583402.947881,response,right,x,1,1777583402.160654,0.7872269153594971,2,4,0.7077850123759224,1.4601940029584128,2.422089849550907,2.5985828523829224,130,254742.99999999997,67,72.0,0,0,0,0,2,0,-1.0,26.0,-1001.0
1777583402.997702,response,right,x,1,1777583402.160654,0.837047815322876,2,4,0.7528953651461495,1.4738629998638668,2.4215684993843696,2.601322345048734,130,254732.00000000003,67,72.0,0,0,0,0,1,0,-10.0,1.0,-989.0
1777583403.0483809,response,right,x,1,1777583402.160654,0.8877267837524414,2,4,0.7371675116488968,1.4762960255695563,2.4186373892435804,2.6004280799042214,130,254732.00000000003,67,72.0,0,0,0,0,1,0,-10.0,1.0,-989.0
1777583403.099036,response,right,x,1,1777583402.160654,0.9383819103240967,3,4,0.770677073896757,1.46456521507538,2.4213645145082037,2.602459726643898,130,254746.0,67,72.0,0,0,0,0,1,0,0.0,-4.0,-1013.0
1777583403.1490948,response,right,x,1,1777583402.160654,0.988440752029419,3,4,0.7812034071557837,1.476267114671628,2.4346226700759845,2.6086312209440496,130,254741.0,67,72.0,0,0,0,0,2,0,0.0,0.0,-1013.0
1777583403.199187,response,right,x,1,1777583402.160654,1.0385329723358154,3,4,0.7935998191770827,1.4581213052937612,2.421846487145313,2.6056889235786844,130,254741.0,67,72.0,0,0,0,0,2,0,0.0,0.0,-1013.0
1777583403.2497332,response,right,x,1,1777583402.160654,1.0890791416168213,3,4,0.7759926330190934,1.4567444226763702,2.4277544960304747,2.611309255086576,130,254746.99999999997,67,72.0,0,0,0,0,2,0,10.0,-9.0,-995.0
1777583403.300858,response,right,x,1,1777583402.160654,1.1402039527893066,3,4,0.8042142586384843,1.4795105941471265,2.41955916462509,2.608910078308221,130,254746.99999999997,67,72.0,0,0,0,0,2,0,10.0,-9.0,-995.0
1777583403.351639,response,right,x,1,1777583402.160654,1.1909849643707275,3,4,0.8083843334591725,1.4792307617437765,2.4157057169037692,2.6082991328706626,130,254751.00000000003,67,72.0,0,0,0,0,2,0,19.0,-14.0,-1007.0
1777583403.401886,response,right,x,1,1777583402.160654,1.241231918334961,3,4,0.8269106804695225,1.4659704141709375,2.4258733332251734,2.6168459607712466,130,254751.00000000003,67,72.0,0,0,0,0,2,0,19.0,-14.0,-1007.0
1777583403.4525912,response,right,x,1,1777583402.160654,1.2919371128082275,3,4,0.8341033090328704,1.4568716890037443,2.4270711325924412,2.6187261293478263,130,254748.0,67,72.0,0,0,0,0,2,0,-19.0,11.0,-989.0
1777583403.502835,response,right,x,1,1777583402.160654,1.3421809673309326,3,4,0.896958216112685,1.473007845547714,2.434969570918101,2.6223951282564433,130,254748.0,67,72.0,0,0,0,0,2,0,-19.0,11.0,-989.0
1777583403.5678048,response,right,x,1,1777583402.160654,1.4071507453918457,3,4,0.8912420408245604,1.469592348175651,2.4242301372740576,2.624465388538823,130,254742.99999999997,67,72.0,0,0,0,0,2,0,-4.0,1.0,-1011.0
1777583403.6179059,response,right,x,1,1777583402.160654,1.457251787185669,3,4,0.8740176759427408,1.457079367446037,2.4234914347751557,2.6270049318551982,130,254742.99999999997,67,72.0,0,0,0,0,2,0,-4.0,1.0,-1011.0
1777583403.668223,response,right,x,1,1777583402.160654,1.5075688362121582,3,4,0.8808680926701361,1.4805166139717953,2.425093390888652,2.6289817447406953,130,254748.0,67,72.0,0,0,0,0,2,0,22.0,-30.0,-982.0
1777583403.718838,response,right,x,1,1777583402.160654,1.5581839084625244,3,4,0.9066042038921827,1.5049538815975732,2.4223956136907323,2.6310190378340117,130,254748.0,67,72.0,0,0,0,0,2,0,22.0,-30.0,-982.0
1777583403.7690969,response,right,x,1,1777583402.160654,1.608442783355713,3,5,0.932954267107507,1.4667074113553746,2.439236206007082,2.687516981295388,130,254750.0,67,72.0,0,0,0,0,2,0,11.0,1.0,-990.0
1777583403.819255,response,right,x,1,1777583402.160654,1.6586010456085205,3,5,0.9250929857965708,1.481152554863332,2.4241516174823516,2.68352153071124,130,254750.0,67,72.0,0,0,0,0,2,0,11.0,1.0,-990.0
1777583403.8692439,response,right,x,1,1777583402.160654,1.708589792251587,3,5,0.9582016730675039,1.4768797432499317,2.430167845494325,2.686506630738316,130,254744.99999999997,67,72.0,0,-1,0,0,2,0,-18.0,5.0,-996.0
1777583403.919533,response,right,x,1,1777583402.160654,1.7588789463043213,3,5,0.9565970923946956,1.4781252243295748,2.4336411878763977,2.6896777952296325,130,254744.99999999997,67,72.0,0,-1,0,0,2,0,-18.0,5.0,-996.0
1777583403.9691079,response,right,x,1,1777583402.160654,1.8084537982940674,3,5,1.0528622498699312,1.507126911321688,2.4257638107321347,2.6891843554646524,130,254752.0,67,72.0,0,-1,0,0,1,0,-10.0,0.0,-973.0
1777583404.019448,response,right,x,1,1777583402.160654,1.8587939739227295,3,4,1.0809443558723595,1.503017051611052,2.43010335743433,2.706745671821968,130,254752.0,67,72.0,0,-1,0,0,1,0,-10.0,0.0,-973.0
1777583404.0699232,response,right,x,1,1777583402.160654,1.909269094467163,3,4,1.068897220438337,1.5191487413974034,2.43994519864592,2.7137058414314463,130,254755.00000000003,66,72.0,0,-4,0,0,1,0,22.0,-6.0,-1016.0
1777583404.1200771,response,right,x,1,1777583402.160654,1.9594230651855469,3,4,1.1158032237487534,1.4830135927841492,2.441193372897364,2.714332591711944,130,254755.00000000003,66,72.0,0,-4,0,0,1,0,22.0,-6.0,-1016.0
1777583404.1702971,response,right,x,1,1777583402.160654,2.009643077850342,3,4,1.1370593751204494,1.4862376741282743,2.4339297569707403,2.710930250433295,130,254753.00000000003,66,72.0,0,-3,0,0,0,0,4.0,2.0,-974.0
1777583404.221719,response,right,x,1,1777583402.160654,2.0610649585723877,3,4,1.1320658595840642,1.5013463036125994,2.4386329814280403,2.7135349229802954,130,254753.00000000003,66,72.0,0,-3,0,0,0,0,4.0,2.0,-974.0
1777583404.2724931,response,right,x,1,1777583402.160654,2.1118390560150146,3,5,1.136063421407585,1.5070752634887508,2.444005059414553,2.6962448667963756,140,254757.00000000003,66,72.0,0,-2,0,0,0,0,-8.0,17.0,-989.0
1777583404.322276,response,right,x,1,1777583402.160654,2.1616220474243164,3,5,1.111227628453078,1.50900537722907,2.437921685981895,2.696342533905919,140,254757.00000000003,66,72.0,0,-2,0,0,0,0,-8.0,17.0,-989.0
1777583404.371655,response,right,x,1,1777583402.160654,2.211000919342041,3,5,1.1162221767124343,1.5165598758920942,2.434844284440562,2.692228116104457,140,254750.0,66,72.0,0,-1,0,0,0,0,-14.0,17.0,-989.0
1777583404.422747,response,right,x,1,1777583402.160654,2.2620928287506104,3,5,1.1229406332892429,1.5018931195859746,2.4371993638799445,2.693969375570962,140,254750.0,66,72.0,0,-1,0,0,0,0,-14.0,17.0,-989.0
1777583404.472159,response,right,x,1,1777583402.160654,2.31150484085083,3,5,1.1220559094510498,1.5101974973952372,2.440074116880005,2.695983723513902,140,254755.00000000003,66,72.0,0,0,0,0,0,0,19.0,15.0,-994.0
1777583404.5213819,response,right,x,1,1777583402.160654,2.3607277870178223,3,5,1.1336822603586052,1.5088464385605063,2.4355423542028922,2.6949158185666775,140,254755.00000000003,66,72.0,0,0,0,0,0,0,19.0,15.0,-994.0
1777583404.57218,response,right,x,1,1777583402.160654,2.4115259647369385,3,5,1.107738698142413,1.534671603605207,2.4417500305892235,2.6988647225186932,140,254750.0,66,72.0,0,0,0,0,0,0,18.0,-11.0,-1001.0
1777583404.623274,response,right,x,1,1777583402.160654,2.4626200199127197,3,5,1.120938188240627,1.5094738139444792,2.4459231680528184,2.698908575962643,140,254750.0,66,72.0,0,0,0,0,0,0,18.0,-11.0,-1001.0
1777583404.673842,response,right,x,1,1777583402.160654,2.513187885284424,3,5,1.132940803953857,1.5040995631415792,2.4445021806975795,2.698317589890231,140,254746.0,66,72.0,0,0,0,0,0,0,12.0,5.0,-999.0
1777583404.7249951,response,right,x,1,1777583402.160654,2.5643410682678223,3,5,1.1196515217219385,1.5219194572173036,2.4433905505120683,2.698120996003683,140,254746.0,66,72.0,0,0,0,0,0,0,12.0,5.0,-999.0
1777583404.776284,response,right,x,1,1777583402.160654,2.6156299114227295,3,5,1.1089425970254352,1.5074464150822102,2.4394524130989614,2.6956844535479276,140,254755.00000000003,66,72.0,0,0,0,0,0,0,1.0,8.0,-1002.0
1777583404.827202,response,right,x,1,1777583402.160654,2.666548013687134,3,5,1.1079277349483845,1.5323466458799648,2.439831136744909,2.696895959804399,140,254755.00000000003,66,72.0,0,0,0,0,0,0,1.0,8.0,-1002.0
1777583404.8774002,response,right,x,1,1777583402.160654,2.7167460918426514,3,5,1.1410612534924653,1.5023616469768095,2.4457966258983737,2.698003827532913,140,254750.0,66,72.0,0,0,0,0,0,0,18.0,-13.0,-1006.0
1777583404.92816,response,right,x,1,1777583402.160654,2.7675058841705322,3,5,1.0958077528857397,1.5233639829503092,2.4334657555480503,2.694967316825374,140,254750.0,66,72.0,0,0,0,0,0,0,18.0,-13.0,-1006.0
1777583404.979087,response,right,x,1,1777583402.160654,2.8184330463409424,3,5,1.142608480605547,1.5183457057647165,2.4410321931334744,2.693283468522995,140,254742.0,66,72.0,0,0,0,0,0,0,28.0,-10.0,-974.0
1777583405.028886,response,right,x,1,1777583402.160654,2.868232011795044,3,5,1.1298829624283802,1.5140347977021147,2.4399030701090108,2.6945354728053603,140,254742.0,66,72.0,0,0,0,0,0,0,28.0,-10.0,-974.0
