timestamp,phase,command,axis,repeat,t_send,t_since_cmd,marker_id,n_markers,pos_x,pos_y,pos_z,marker_dist,tello_height_cm,tello_baro_cm,tello_battery,tello_temp_c,tello_pitch,tello_roll,tello_yaw,tello_vgx,tello_vgy,tello_vgz,tello_agx,tello_agy,tello_agz
1777586732.5739079,init_hover,none,-,0,,,4,1,1.1951200943624876,1.358346403546994,2.516781679732356,2.8107738285260395,140,255055.00000000003,68,77.5,0,-1,6,0,0,-1,-35.0,20.0,-959.0
1777586732.759852,init_hover,none,-,0,,,4,1,1.2142600596023252,1.40105040334972,2.5172747298546203,2.82066680583642,140,255046.0,68,77.5,0,-1,6,0,0,0,-20.0,27.0,-1021.0
1777586732.809597,init_hover,none,-,0,,,4,1,1.213667386937654,1.4042567123522187,2.5166693586596347,2.8214314068370046,140,255046.0,68,77.5,0,-1,6,0,0,0,-20.0,27.0,-1021.0
1777586732.8598511,init_hover,none,-,0,,,4,1,1.2133751359860376,1.4058650759855529,2.5163710846554266,2.821819743261843,140,255053.00000000003,68,77.5,0,-1,6,0,0,0,-28.0,32.0,-969.0
1777586732.9089532,init_hover,none,-,0,,,4,1,1.1907534961102617,1.3817799933605708,2.5208578762542184,2.8237379998317436,140,255053.00000000003,68,77.5,0,-1,6,0,0,0,-28.0,32.0,-969.0
1777586732.958234,init_hover,none,-,0,,,4,1,1.212554453782058,1.4015846857083178,2.5085740452300724,2.8135717711311137,140,255054.0,68,77.5,0,0,6,0,0,0,-30.0,27.0,-973.0
1777586733.008596,init_hover,none,-,0,,,4,1,1.1617615113628803,1.370198399993711,2.5083060976190974,2.8170069539381943,140,255054.0,68,77.5,0,0,6,0,0,0,-30.0,27.0,-973.0
1777586733.05861,init_hover,none,-,0,,,4,1,1.2117690555797207,1.3823914460900788,2.527653007358911,2.824080505350935,140,255057.00000000003,68,77.5,0,0,6,0,0,0,-27.0,30.0,-1002.0
1777586733.1187232,init_hover,none,-,0,,,4,1,1.1855591669361463,1.3731681431283138,2.5146511054128915,2.8167073485393956,140,255057.00000000003,68,77.5,0,0,6,0,0,0,-27.0,30.0,-1002.0
1777586733.169246,init_hover,none,-,0,,,4,1,1.1855591669361463,1.3731681431283138,2.5146511054128915,2.8167073485393956,140,255057.00000000003,68,77.5,0,0,6,0,0,0,-27.0,30.0,-1002.0
1777586733.2203321,init_hover,none,-,0,,,2,1,1.2197980848991317,1.430271353557031,2.4774687758418943,2.692140745829812,140,255052.0,68,77.5,0,0,6,0,0,0,8.0,3.0,-987.0
1777586733.270124,init_hover,none,-,0,,,2,1,1.2197980848991317,1.430271353557031,2.4774687758418943,2.692140745829812,140,255052.0,68,77.5,0,0,6,0,0,0,8.0,3.0,-987.0
1777586733.3194602,init_hover,none,-,0,,,2,1,1.2154870757786953,1.4264344160192444,2.4710152692638823,2.6843842405944196,140,255055.00000000003,68,77.5,0,0,6,0,0,0,0.0,28.0,-1001.0
1777586733.36965,init_hover,none,-,0,,,2,1,1.2154870757786953,1.4264344160192444,2.4710152692638823,2.6843842405944196,140,255055.00000000003,68,77.5,0,0,6,0,0,0,0.0,28.0,-1001.0
1777586733.420226,init_hover,none,-,0,,,2,1,1.226783205195096,1.39193499580625,2.491350060457966,2.6911318774462942,140,255053.00000000003,68,77.5,0,0,6,0,0,0,-38.0,7.0,-927.0
1777586733.470807,init_hover,none,-,0,,,2,1,1.246348578051316,1.3748404030552632,2.493840522193818,2.6889109288841806,140,255053.00000000003,68,77.5,0,0,6,0,0,0,-8.0,21.0,-983.0
1777586733.5213811,init_hover,none,-,0,,,2,1,1.232909315313518,1.4407200542217145,2.4534301652158863,2.6751943024779172,140,255053.00000000003,68,77.5,0,0,6,0,0,0,-8.0,21.0,-983.0
1777586733.571431,init_hover,none,-,0,,,2,1,1.1914674390985753,1.4655990012513045,2.4403134485045057,2.6696986231885234,140,255050.0,68,77.5,0,0,6,0,0,0,-4.0,15.0,-996.0
1777586733.6210382,init_hover,none,-,0,,,2,1,1.2102338252086136,1.4497022079163964,2.4440291592763135,2.668211295598474,140,255050.0,68,77.5,0,0,6,0,0,0,-4.0,15.0,-996.0
1777586733.6707919,init_hover,none,-,0,,,2,1,1.2320919737815894,1.4372614332604279,2.4536312541718126,2.6739641539616894,140,255065.0,68,77.5,0,0,6,0,0,0,-28.0,26.0,-1001.0
1777586733.720244,init_hover,none,-,0,,,2,1,1.216273695998003,1.4130858853754895,2.4579160486963705,2.667296126260985,140,255065.0,68,77.5,0,0,6,0,0,0,-28.0,26.0,-1001.0
1777586733.7705238,init_hover,none,-,0,,,2,1,1.216273695998003,1.4130858853754895,2.4579160486963705,2.667296126260985,140,255059.0,68,77.5,0,0,6,0,0,0,-13.0,-16.0,-1009.0
1777586733.820791,init_hover,none,-,0,,,2,1,1.231311701069118,1.4332987364847782,2.44687610996601,2.666160925262187,140,255059.0,68,77.5,0,0,6,0,0,0,-13.0,-16.0,-1009.0
1777586733.871031,init_hover,none,-,0,,,2,1,1.2154153442646392,1.4116019688983044,2.45807688017302,2.6668116286803434,140,255055.00000000003,68,77.5,0,0,6,0,0,0,0.0,21.0,-995.0
1777586733.921561,init_hover,none,-,0,,,2,1,1.2154153442646392,1.4116019688983044,2.45807688017302,2.6668116286803434,140,255055.00000000003,68,77.5,0,0,6,0,0,0,0.0,21.0,-995.0
1777586733.971968,init_hover,none,-,0,,,2,1,1.2083970733641505,1.4431952966021555,2.438575730272076,2.6605144914680676,140,255056.0,68,77.5,0,0,6,0,0,0,-23.0,40.0,-1008.0
1777586734.0218902,init_hover,none,-,0,,,2,1,1.2390579013991132,1.394280873187968,2.4613812235036305,2.665359387104299,140,255056.0,68,77.5,0,0,6,0,0,0,-23.0,40.0,-1008.0
1777586734.071651,init_hover,none,-,0,,,2,1,1.2122460418198442,1.40723398589249,2.4527086737819315,2.659952729476632,140,255059.0,68,77.5,0,0,6,0,0,0,-38.0,21.0,-1011.0
1777586734.121872,init_hover,none,-,0,,,2,1,1.235359176401003,1.3920737598023831,2.4549239573920474,2.6582430143577973,140,255059.0,68,77.5,0,0,6,0,0,0,-38.0,21.0,-1011.0
1777586734.172151,init_hover,none,-,0,,,2,1,1.2168785210818334,1.4085529361986873,2.452107539311124,2.6602719226364986,140,255060.0,68,77.5,0,0,6,0,0,0,-33.0,-3.0,-1035.0
1777586734.222183,init_hover,none,-,0,,,2,1,1.2154633495398568,1.4092611611233599,2.4522638156443026,2.6605695570432584,140,255060.0,68,77.5,0,0,6,0,0,0,-33.0,-3.0,-1035.0
1777586734.2720928,init_hover,none,-,0,,,2,1,1.2177357345873046,1.4090674806088046,2.4529257662037796,2.6612911988440633,140,255059.0,68,77.5,0,0,6,0,0,0,-24.0,50.0,-964.0
1777586734.322884,init_hover,none,-,0,,,2,1,1.2310778919534822,1.4254836284337467,2.435269955456609,2.6524617660364007,140,255059.0,68,77.5,0,0,6,0,0,0,-24.0,50.0,-964.0
1777586734.373218,init_hover,none,-,0,,,2,1,1.2393541056157373,1.3961052250716572,2.45525273136476,2.6604101154078257,140,255060.0,68,77.5,0,0,6,0,0,0,7.0,3.0,-1000.0
1777586734.423499,init_hover,none,-,0,,,4,1,1.19225570953363,1.3566118438320487,2.4868925404272675,2.7842757704964427,140,255060.0,68,77.5,0,0,6,0,0,0,7.0,3.0,-1000.0
1777586734.473444,init_hover,none,-,0,,,4,1,1.1944989528082521,1.3823375582139719,2.4774385226038813,2.7841552845677433,140,255054.0,68,77.5,0,0,6,0,0,0,2.0,21.0,-1053.0
1777586734.523754,init_hover,none,-,0,,,4,1,1.1944989528082521,1.3823375582139719,2.4774385226038813,2.7841552845677433,140,255054.0,68,77.5,0,0,6,0,0,0,2.0,21.0,-1053.0
1777586734.5741189,init_hover,none,-,0,,,4,1,1.193544122419775,1.3841304283089202,2.476219487271808,2.7839803755687367,140,255057.00000000003,68,77.5,0,0,6,0,0,0,-8.0,21.0,-1013.0
1777586734.624613,init_hover,none,-,0,,,4,1,1.1930053479247478,1.3873397966623124,2.4756689740426294,2.7847831354682757,140,255057.00000000003,68,77.5,0,0,6,0,0,0,-8.0,21.0,-1013.0
1777586734.674069,init_hover,none,-,0,,,4,1,1.2174029384003284,1.392438421365581,2.4803847173666114,2.7838283939878354,140,255064.0,68,77.5,0,0,6,0,0,0,5.0,-14.0,-978.0
1777586734.723912,init_hover,none,-,0,,,4,1,1.1973842163171455,1.3933114205513877,2.474456131768651,2.7845633091136808,140,255064.0,68,77.5,0,0,6,0,0,0,5.0,-14.0,-978.0
1777586734.774035,init_hover,none,-,0,,,4,1,1.2368155240605816,1.424736600899403,2.4812740079636755,2.790923923745309,140,255056.0,68,77.5,0,0,6,0,0,0,5.0,-8.0,-915.0
1777586734.8242009,init_hover,none,-,0,,,4,1,1.2379192568373356,1.4008822824485878,2.492792204920115,2.7922294639462106,140,255056.0,68,77.5,0,0,6,0,0,0,5.0,-8.0,-915.0
1777586734.874341,init_hover,none,-,0,,,4,1,1.217386356922848,1.4014884194040462,2.4871485226229666,2.7930934359803494,140,255058.0,68,77.5,0,0,6,0,0,0,-6.0,-5.0,-987.0
1777586734.924911,init_hover,none,-,0,,,4,1,1.216617413445852,1.426730587632321,2.4757095033168715,2.792311143355903,140,255058.0,68,77.5,0,0,6,0,0,0,-6.0,-5.0,-987.0
1777586734.975175,init_hover,none,-,0,,,4,1,1.1919088329327583,1.4013300639796618,2.4809168506029837,2.794748942378803,140,255060.0,68,77.5,0,0,6,0,0,0,9.0,-9.0,-995.0
1777586735.026056,init_hover,none,-,0,,,4,1,1.191665030387908,1.4029606173479698,2.4806637805658927,2.7951794602959343,140,255060.0,68,77.5,0,0,6,0,0,0,9.0,-9.0,-995.0
1777586735.0773,init_hover,none,-,0,,,4,1,1.2110659304268523,1.434922198291574,2.4821028954080084,2.8025552101685225,140,255069.0,68,77.5,0,0,6,0,0,0,-30.0,26.0,-1013.0
1777586735.127915,init_hover,none,-,0,,,4,1,1.2107946284264295,1.4365403758648108,2.481827830249792,2.8029859878923644,140,255069.0,68,77.5,0,0,6,0,0,0,-30.0,26.0,-1013.0
1777586735.178569,init_hover,none,-,0,,,3,1,1.3591518073347792,1.5583245838209123,2.4169340819673115,2.44859695563175,140,255071.99999999997,68,78.0,0,0,6,0,0,0,-7.0,10.0,-985.0
1777586735.228759,init_hover,none,-,0,,,3,1,1.2908651369097346,1.6013982801761117,2.4252332565487094,2.45090190415636,140,255071.99999999997,68,78.0,0,0,6,0,0,0,-7.0,10.0,-985.0
1777586735.278858,init_hover,none,-,0,,,3,1,1.2990497857102323,1.603336906320434,2.422449658134058,2.4492935752986242,140,255067.0,68,78.0,-1,0,6,0,0,0,22.0,21.0,-993.0
1777586735.328952,init_hover,none,-,0,,,3,1,1.3726375178232646,1.557457624623316,2.410761362011091,2.4444676246183077,140,255067.0,68,78.0,-1,0,6,0,0,0,22.0,21.0,-993.0
1777586735.379445,init_hover,none,-,0,,,3,1,1.369475747747771,1.6146262434093666,2.4067166374573823,2.4443530280112893,140,255063.0,68,78.0,-1,0,6,0,0,0,-12.0,20.0,-993.0
1777586735.429534,init_hover,none,-,0,,,3,1,1.3148417441505642,1.6045103702776866,2.4166276653654273,2.4456163003260425,140,255063.0,68,78.0,-1,0,6,0,0,0,-12.0,20.0,-993.0
1777586735.480159,init_hover,none,-,0,,,3,1,1.3759122324192639,1.6170113254126148,2.40385425906965,2.4427278237018286,140,255066.0,68,78.0,0,0,6,0,0,0,-24.0,37.0,-968.0
1777586735.53042,init_hover,none,-,0,,,3,1,1.1982215770412346,1.669943279782685,2.4270025009685043,2.4500004709411636,140,255066.0,68,78.0,0,0,6,0,0,0,-24.0,37.0,-968.0
1777586735.580821,init_hover,none,-,0,,,3,1,1.2726884449631857,1.5962437901131368,2.426420269392407,2.449568520554738,140,255061.0,68,78.0,0,0,6,0,0,0,-20.0,36.0,-1001.0
1777586735.632062,init_hover,none,-,0,,,3,1,1.334707585899956,1.6013465292298437,2.409816329840112,2.4412669531323172,140,255061.0,68,78.0,0,0,6,0,0,0,-20.0,36.0,-1001.0
1777586735.682527,init_hover,none,-,0,,,3,1,1.3385387613382407,1.5998445644872679,2.409840322659318,2.441695460862862,140,255064.0,68,78.0,0,0,6,0,0,0,-3.0,10.0,-993.0
1777586735.733715,init_hover,none,-,0,,,3,1,1.3560676759924877,1.5458324129130063,2.414463630597017,2.4449306546441045,140,255064.0,68,78.0,0,0,6,0,0,0,-3.0,10.0,-993.0
1777586735.7845,init_hover,none,-,0,,,3,1,1.3609594904669209,1.5434497468599577,2.4136274698488713,2.4446813998640784,140,255066.0,68,78.0,0,0,6,0,0,0,-32.0,33.0,-983.0
1777586735.83327,init_hover,none,-,0,,,3,1,1.2835058503205892,1.6488444524775587,2.413191951833104,2.4424975998119063,140,255066.0,68,78.0,0,0,6,0,0,0,-32.0,33.0,-983.0
1777586735.8845708,init_hover,none,-,0,,,3,1,1.2825971244334877,1.6463949796604749,2.413360853619415,2.4423108382273115,150,255061.0,68,78.0,0,0,6,0,0,0,-9.0,-20.0,-992.0
1777586735.935234,init_hover,none,-,0,,,3,1,1.2254253241942006,1.575956510705162,2.431805287619524,2.4485616650070043,150,255061.0,68,78.0,0,0,6,0,0,0,-9.0,-20.0,-992.0
1777586735.9860501,init_hover,none,-,0,,,3,1,1.2828698657435316,1.6425364664171889,2.414578063943247,2.44315912812977,150,255069.99999999997,68,78.0,0,0,6,0,0,0,-6.0,3.0,-1032.0
1777586736.036452,init_hover,none,-,0,,,3,1,1.2175268858363406,1.6383803476430252,2.422723714717251,2.444122201130177,150,255069.99999999997,68,78.0,0,0,6,0,0,0,-6.0,3.0,-1032.0
1777586736.08765,init_hover,none,-,0,,,3,1,1.2818762093898262,1.6923890654217637,2.4039371461256382,2.4380031512532683,150,255059.0,68,78.0,0,0,6,0,0,0,3.0,-9.0,-1021.0
1777586736.137138,init_hover,none,-,0,,,3,1,1.2849699368125644,1.6331901969130092,2.4103524010182396,2.4383158593417873,150,255059.0,68,78.0,0,0,6,0,0,0,3.0,-9.0,-1021.0
1777586736.187027,init_hover,none,-,0,,,3,1,1.2818391156525335,1.688865039422669,2.405273440001012,2.43889659872795,150,255064.0,68,78.0,0,0,6,0,0,0,15.0,1.0,-984.0
1777586736.236856,init_hover,none,-,0,,,3,1,1.281462235837633,1.6291127792801332,2.4128635276519796,2.440004930098573,150,255064.0,68,78.0,0,0,6,0,0,0,15.0,1.0,-984.0
1777586736.286722,init_hover,none,-,0,,,3,1,1.2879528306448111,1.566645345778299,2.4225866592783385,2.445324850742598,150,255064.0,68,78.0,0,0,6,0,0,0,15.0,1.0,-984.0
1777586736.3373618,init_hover,none,-,0,,,3,1,1.2159978760325596,1.6940112338895856,2.4134618395034053,2.4408801156228495,150,255061.0,68,78.0,0,0,6,0,0,0,-18.0,0.0,-1000.0
1777586736.386368,init_hover,none,-,0,,,3,1,1.3422117329443037,1.571425808071508,2.409419052281748,2.4396302685726763,150,255061.0,68,78.0,0,0,6,0,0,0,-18.0,0.0,-1000.0
1777586736.436909,init_hover,none,-,0,,,3,1,1.2721779798704682,1.6809595482275643,2.4050143879362578,2.436619241212508,150,255066.0,68,78.0,0,0,6,0,0,0,-13.0,4.0,-973.0
1777586736.486162,init_hover,none,-,0,,,3,1,1.2623869290488088,1.620329714699908,2.413897797831439,2.4380924227950995,150,255066.0,68,78.0,0,0,6,0,0,0,-13.0,4.0,-973.0
1777586736.536001,init_hover,none,-,0,,,3,1,1.3832298201572877,1.5823735543547002,2.3992108570905755,2.436460125913627,150,255067.0,68,78.0,0,0,6,0,0,0,-31.0,25.0,-1069.0
1777586736.586108,init_hover,none,-,0,,,3,1,1.3090693513677316,1.6739101947396917,2.3997394036454565,2.435015372466026,150,255067.0,68,78.0,0,0,6,0,0,0,-31.0,25.0,-1069.0
1777586736.636252,init_hover,none,-,0,,,4,1,1.22675037739002,1.4455198382329053,2.463251529547981,2.7854326071232642,150,255060.0,68,78.0,0,0,6,0,0,0,-9.0,0.0,-1008.0
1777586736.686632,init_hover,none,-,0,,,4,1,1.2710580216210252,1.4557981251478584,2.478164074161557,2.7905847536625354,150,255060.0,68,78.0,0,0,6,0,0,0,-9.0,0.0,-1008.0
1777586736.737589,init_hover,none,-,0,,,4,1,1.251792404103337,1.4463095359663112,2.468164522296951,2.783238107086211,140,255055.00000000003,68,78.0,0,0,6,0,0,0,-4.0,13.0,-985.0
1777586736.7878022,init_hover,none,-,0,,,4,1,1.2520486247653801,1.444676699600424,2.4684108885592693,2.7827743316987372,140,255055.00000000003,68,78.0,0,0,6,0,0,0,-4.0,13.0,-985.0
1777586736.8384519,init_hover,none,-,0,,,4,1,1.2279736003562354,1.4159345485403594,2.475172562018038,2.7847130876325044,140,255055.00000000003,68,78.0,0,0,6,0,0,0,-1.0,11.0,-970.0
1777586736.888973,init_hover,none,-,0,,,4,1,1.2525685704653933,1.4414218488409194,2.468911119290227,2.7818582501727698,140,255055.00000000003,68,78.0,0,0,6,0,0,0,-1.0,11.0,-970.0
1777586736.938018,init_hover,none,-,0,,,4,1,1.2286927235516505,1.4109937989788675,2.475863392239966,2.7833294654621623,140,255059.0,68,78.0,0,0,6,0,0,0,-37.0,22.0,-974.0
1777586736.987988,init_hover,none,-,0,,,4,1,1.253367235255542,1.4365655196169214,2.469680750266069,2.7805128250168933,140,255053.00000000003,68,78.0,0,0,6,0,0,0,-11.0,-3.0,-1011.0
1777586737.037996,init_hover,none,-,0,,,4,1,1.234264543272194,1.427521735513659,2.4591179739185143,2.7729790688521687,140,255053.00000000003,68,78.0,0,0,6,0,0,0,-11.0,-3.0,-1011.0
1777586737.088083,init_hover,none,-,0,,,4,1,1.2281676202525462,1.425182951456875,2.457979328062483,2.7727942014449867,140,255064.0,68,78.0,0,0,6,0,0,0,-5.0,-1.0,-997.0
1777586737.138002,init_hover,none,-,0,,,4,1,1.229063996317806,1.421852788140333,2.459371887618512,2.7725503645582146,140,255064.0,68,78.0,0,0,6,0,0,0,-5.0,-1.0,-997.0
1777586737.187881,init_hover,none,-,0,,,4,1,1.2097851483549924,1.391861313090005,2.4579943491141543,2.7658569370887722,140,255056.0,68,78.0,0,0,6,0,0,0,1.0,5.0,-999.0
1777586737.237893,init_hover,none,-,0,,,4,1,1.2540134765845354,1.4226778063612167,2.4638361993743154,2.769991806141049,140,255056.0,68,78.0,0,0,6,0,0,0,1.0,5.0,-999.0
1777586737.288033,init_hover,none,-,0,,,4,1,1.2306417792231474,1.3937304345398447,2.4712603046034034,2.7724609540111076,140,255065.0,68,78.0,0,0,6,0,0,0,1.0,11.0,-972.0
1777586737.338254,init_hover,none,-,0,,,4,1,1.2550080927643028,1.4193435024244958,2.465222578123406,2.769728592745349,140,255065.0,68,78.0,0,0,6,0,0,0,1.0,11.0,-972.0
1777586737.3881652,init_hover,none,-,0,,,4,1,1.2311174304413055,1.413831900150218,2.461588478188103,2.771002230869149,140,255065.0,68,78.0,0,0,6,0,0,0,-31.0,0.0,-974.0
1777586737.438895,init_hover,none,-,0,,,4,1,1.2555874119457442,1.3743133567454917,2.494281737053179,2.7793664749693097,140,255065.0,68,78.0,0,0,6,0,0,0,-31.0,0.0,-974.0
1777586737.489454,init_hover,none,-,0,,,4,1,1.2345967782385645,1.3913997950908472,2.471693083581361,2.7709172389324257,140,255062.0,68,78.0,0,0,6,0,0,0,-7.0,-4.0,-1038.0
1777586737.539781,init_hover,none,-,0,,,4,1,1.2343118671934092,1.3841272615979907,2.464716299405723,2.7621750886389234,140,255062.0,68,78.0,0,0,6,0,0,0,-7.0,-4.0,-1038.0
1777586737.609025,recenter,right,-,1,,,4,,1.2355873351933793,1.3821959390306668,2.4661733901614196,2.762434935904439,140,255060.0,68,78.0,0,0,6,0,0,0,0.0,8.0,-1019.0
1777586737.6590312,recenter,right,-,1,,,4,,1.2132223698806017,1.357686815729537,2.470387480577579,2.763873618759171,140,255060.0,68,78.0,0,0,6,0,0,0,0.0,8.0,-1019.0
1777586737.709693,recenter,right,-,1,,,4,,1.2331618154938466,1.38082322069701,2.4655835225709013,2.762092883711242,140,255060.0,68,78.0,0,0,6,0,0,0,3.0,0.0,-955.0
1777586737.760054,recenter,right,-,1,,,4,,1.2089842426756499,1.3517800954290897,2.4714933536085213,2.7640315981047534,140,255060.0,68,78.0,0,0,6,0,0,0,3.0,0.0,-955.0
1777586737.8107488,recenter,right,-,1,,,4,,1.2098136559396022,1.3739661728307384,2.462196514137475,2.7632256944355498,140,255060.0,68,78.0,0,0,6,0,0,0,-9.0,30.0,-1011.0
1777586737.8611999,recenter,right,-,1,,,4,,1.233305162443262,1.3755850552992612,2.4679431582214626,2.76230530649158,140,255060.0,68,78.0,0,0,6,0,0,0,-9.0,30.0,-1011.0
1777586737.911933,recenter,right,-,1,,,4,,1.2326860185643738,1.3757213602515326,2.4676223557826824,2.762238767687575,140,255062.0,68,78.0,0,0,6,0,0,0,8.0,1.0,-1017.0
1777586737.962878,recenter,right,-,1,,,4,,1.2112243430773626,1.3691500173922067,2.455400328710475,2.755069793561782,140,255062.0,68,78.0,0,0,6,0,0,0,8.0,1.0,-1017.0
1777586738.0137448,recenter,right,-,1,,,4,,1.2060340870641642,1.3723610201777379,2.4621709234904947,2.763720948458285,140,255056.0,68,78.0,0,0,6,0,0,0,-41.0,-1.0,-1012.0
1777586738.063457,recenter,right,-,1,,,4,,1.2503899532774145,1.3791598247849315,2.480652853746996,2.7702540976277623,140,255056.0,68,78.0,0,0,6,0,0,0,-41.0,-1.0,-1012.0
1777586738.113538,recenter,right,-,1,,,4,,1.204881590449224,1.3449920296706794,2.4734222283541243,2.7646049882512957,140,255062.0,68,78.0,0,0,6,0,0,0,0.0,10.0,-983.0
1777586738.1139982,pre_hover,right,x,1,,,4,1,1.2508339041063556,1.3775313519054206,2.481582493072117,2.7703914981671067,140,255062.0,68,78.0,0,0,6,0,0,0,0.0,10.0,-983.0
1777586738.163934,pre_hover,right,x,1,,,4,1,1.24899503282816,1.377399329920296,2.481360531091958,2.770643967763881,140,255062.0,68,78.0,0,0,6,0,0,0,0.0,10.0,-983.0
1777586738.214337,pre_hover,right,x,1,,,4,1,1.2219665287293737,1.3551437101194983,2.4933242352158853,2.781061187984389,140,255048.0,68,77.5,0,0,6,0,0,0,0.0,18.0,-1033.0
1777586738.264652,pre_hover,right,x,1,,,4,1,1.201789704622189,1.3672726460148086,2.4639924854420343,2.764781187669367,140,255048.0,68,77.5,0,0,6,0,0,0,0.0,18.0,-1033.0
1777586738.314539,pre_hover,right,x,1,,,4,1,1.2209195511098714,1.3703071838915806,2.4772924134363548,2.772262628003302,140,255060.0,68,77.5,0,0,6,0,0,0,11.0,-16.0,-972.0
1777586738.3650079,pre_hover,right,x,1,,,2,1,1.236092927502208,1.384164812531184,2.450217766012144,2.6510162861669944,140,255060.0,68,77.5,0,0,6,0,0,0,11.0,-16.0,-972.0
1777586738.416171,pre_hover,right,x,1,,,2,1,1.221224066805312,1.3650412332403228,2.4671201441865396,2.6583691382949235,140,255053.00000000003,68,77.5,0,0,6,0,0,0,13.0,-6.0,-973.0
1777586738.466708,pre_hover,right,x,1,,,2,1,1.2286904664444394,1.4176478053515291,2.4358452701373463,2.64976386971176,140,255053.00000000003,68,77.5,0,0,6,0,0,0,13.0,-6.0,-973.0
1777586738.5177941,pre_hover,right,x,1,,,2,1,1.2246796318770239,1.417354403226923,2.435378825958978,2.648879186500384,140,255048.0,68,77.5,0,0,6,0,0,0,-11.0,11.0,-1026.0
1777586738.568494,pre_hover,right,x,1,,,2,1,1.2329170090893349,1.3860970573318512,2.454276656597643,2.6552046336811332,140,255048.0,68,77.5,0,0,6,0,0,0,-11.0,11.0,-1026.0
1777586738.619021,pre_hover,right,x,1,,,2,1,1.205541354888792,1.3986070996563926,2.4447726296172467,2.6488443892722917,140,255060.0,68,77.5,0,0,6,0,0,0,-17.0,2.0,-1025.0
1777586738.66991,pre_hover,right,x,1,,,2,1,1.2405116655132287,1.3507818697571121,2.4735646894970738,2.660893515012116,140,255060.0,68,77.5,0,0,6,0,0,0,-17.0,2.0,-1025.0
1777586738.719729,pre_hover,right,x,1,,,2,1,1.2032552347067713,1.3977198670789273,2.444022691096349,2.647641316000628,140,255061.0,68,77.5,0,0,6,0,0,0,-13.0,10.0,-1031.0
1777586738.769582,pre_hover,right,x,1,,,2,1,1.2018276310590197,1.3982777423272719,2.4431188665111376,2.646908128248428,140,255061.0,68,77.5,0,0,6,0,0,0,-13.0,10.0,-1031.0
1777586738.819814,pre_hover,right,x,1,,,2,1,1.204480582338639,1.4015904830637251,2.4495149377444148,2.654264349033532,140,255056.0,68,77.5,0,0,6,0,0,0,2.0,-38.0,-954.0
1777586738.870481,pre_hover,right,x,1,,,2,1,1.2274493370173687,1.3895955293486364,2.457910452896316,2.6593902133897958,140,255056.0,68,77.5,0,0,6,0,0,0,2.0,-38.0,-954.0
1777586738.921002,pre_hover,right,x,1,,,2,1,1.2315292692842392,1.3540775091721287,2.470794932260899,2.658702182142544,140,255062.0,68,77.5,0,0,6,0,0,0,-6.0,35.0,-990.0
1777586738.971126,pre_hover,right,x,1,,,2,1,1.2224063117371393,1.3931133046167234,2.4566158295215663,2.6590787760356402,140,255062.0,68,77.5,0,0,6,0,0,0,-6.0,35.0,-990.0
1777586739.021253,pre_hover,right,x,1,,,2,1,1.2224063117371393,1.3931133046167234,2.4566158295215663,2.6590787760356402,140,255054.0,68,77.5,0,0,6,0,0,0,0.0,23.0,-993.0
1777586739.071393,pre_hover,right,x,1,,,2,1,1.2288986795966095,1.3588689984260482,2.4760892327865354,2.6651158043103975,140,255054.0,68,77.5,0,0,6,0,0,0,0.0,23.0,-993.0
1777586739.12114,pre_hover,right,x,1,,,2,1,1.2212104198719207,1.397085002675034,2.461699624885916,2.6651599568474014,140,255052.0,68,77.5,0,0,6,0,0,0,22.0,-13.0,-1014.0
1777586739.171175,pre_hover,right,x,1,,,2,1,1.1993995759772507,1.410449165440963,2.4518153454232463,2.659354469583391,140,255052.0,68,77.5,0,0,6,0,0,0,22.0,-13.0,-1014.0
1777586739.220565,pre_hover,right,x,1,,,2,1,1.2522340802664969,1.3470289079422808,2.4828717401052067,2.669295386715245,140,255064.0,68,77.5,0,0,6,0,0,0,9.0,-5.0,-1042.0
1777586739.271012,pre_hover,right,x,1,,,2,1,1.1778494598016855,1.3958959950378764,2.4680997663288173,2.6673874333955685,140,255064.0,68,77.5,0,0,6,0,0,0,9.0,-5.0,-1042.0
1777586739.320738,pre_hover,right,x,1,,,2,1,1.1946396785390045,1.412159181733545,2.4503543425455345,2.6583053281481877,140,255063.0,68,77.5,0,0,6,0,0,0,6.0,15.0,-961.0
1777586739.371212,pre_hover,right,x,1,,,2,1,1.225316560077395,1.3672564431413141,2.4796278605388533,2.6711246518655747,140,255063.0,68,77.5,0,0,6,0,0,0,6.0,15.0,-961.0
1777586739.422126,pre_hover,right,x,1,,,2,1,1.2042055087825376,1.3840736093287478,2.4767688978268603,2.6729169331718716,140,255056.0,68,77.5,0,0,6,0,0,0,-5.0,9.0,-1064.0
1777586739.471807,pre_hover,right,x,1,,,2,1,1.2242266554553514,1.3715362016670092,2.48582554660584,2.6783369527235505,140,255056.0,68,77.5,0,0,6,0,0,0,-5.0,9.0,-1064.0
1777586739.5219562,pre_hover,right,x,1,,,2,1,1.180206780017913,1.4023177059946215,2.472648884844222,2.6741555255886142,140,255056.0,68,77.5,0,0,6,0,0,0,-9.0,6.0,-1038.0
1777586739.572172,pre_hover,right,x,1,,,2,1,1.2158478645216415,1.4083433930450076,2.4642238314279905,2.671281675580791,140,255056.0,68,77.5,0,0,6,0,0,0,-9.0,6.0,-1038.0
1777586739.622568,pre_hover,right,x,1,,,2,1,1.192407574162711,1.422300526864225,2.4543740803988396,2.6657215099022817,140,255053.00000000003,68,77.5,0,0,6,0,0,0,-16.0,38.0,-1011.0
1777586739.672653,pre_hover,right,x,1,,,2,1,1.1990075871319206,1.3935377062040786,2.4814159381447882,2.6803257733835846,140,255053.00000000003,68,77.5,0,0,6,0,0,0,-16.0,38.0,-1011.0
1777586739.722398,pre_hover,right,x,1,,,2,1,1.1789777907200756,1.4063819040795114,2.4706376724134858,2.6737404688522908,140,255062.0,68,77.5,0,0,6,0,0,0,-4.0,21.0,-945.0
1777586739.772778,pre_hover,right,x,1,,,2,1,1.1982984526061842,1.39558954261486,2.4804485675714547,2.6801391587075014,140,255062.0,68,77.5,0,0,6,0,0,0,-4.0,21.0,-945.0
1777586739.822471,pre_hover,right,x,1,,,2,1,1.191836907817284,1.4278716596927143,2.4593484806671406,2.6723990153717923,140,255066.0,68,77.5,0,0,6,0,0,0,15.0,-9.0,-1023.0
1777586739.8727832,pre_hover,right,x,1,,,2,1,1.1762261575153854,1.4142989298615598,2.4760279187951206,2.681524236766067,140,255066.0,68,77.5,0,0,6,0,0,0,15.0,-9.0,-1023.0
1777586739.9240088,pre_hover,right,x,1,,,2,1,1.1786336005475035,1.4150330398101905,2.475735875854934,2.6816916605281222,140,255066.0,68,77.5,0,0,6,0,0,0,7.0,-3.0,-968.0
1777586739.9719691,pre_hover,right,x,1,,,2,1,1.2003406995614285,1.4031137143818273,2.4852734483148953,2.687556070630096,140,255066.0,68,77.5,0,0,6,0,0,0,7.0,-3.0,-968.0
1777586740.02066,pre_hover,right,x,1,,,2,1,1.1991099488160402,1.4041521404043014,2.4853765858097074,2.687947742439794,140,255063.0,68,77.5,0,0,6,0,0,0,19.0,-11.0,-991.0
1777586740.070431,pre_hover,right,x,1,,,2,1,1.1558818172817438,1.4359639472009582,2.470543039732525,2.6834871626356023,140,255063.0,68,77.5,0,0,6,0,0,0,19.0,-11.0,-991.0
1777586740.120461,pre_hover,right,x,1,,,2,1,1.1815427085074135,1.3865959087759687,2.495488424586969,2.689570917353406,140,255062.0,68,77.5,0,0,6,0,0,0,-13.0,51.0,-1035.0
1777586740.170111,pre_hover,right,x,1,,,2,1,1.1789935582065392,1.424787324607963,2.4805024261979165,2.689817845306692,140,255062.0,68,77.5,0,0,6,0,0,0,-13.0,51.0,-1035.0
1777586740.220041,pre_hover,right,x,1,,,2,1,1.2158135488925166,1.4300695860761565,2.4730732798100785,2.68769609281914,140,255051.00000000003,68,78.0,0,0,6,0,0,0,-15.0,23.0,-970.0
1777586740.27009,pre_hover,right,x,1,,,2,1,1.1857048375615573,1.39656140677149,2.5082003633814223,2.70530774349737,140,255051.00000000003,68,78.0,0,0,6,0,0,0,-15.0,23.0,-970.0
1777586740.3198311,pre_hover,right,x,1,,,2,1,1.1755571245666883,1.4317846021286802,2.4870061426469823,2.6982585722535535,140,255065.0,68,78.0,0,0,6,0,0,0,-7.0,-20.0,-1051.0
1777586740.370134,pre_hover,right,x,1,,,2,1,1.1647154002287934,1.4155185545874445,2.5038030262242987,2.7069242124436843,140,255065.0,68,78.0,0,0,6,0,0,0,-7.0,-20.0,-1051.0
1777586740.4205408,pre_hover,right,x,1,,,2,1,1.1610652779772328,1.4486432515126135,2.4818377159602245,2.6990948744116965,140,255067.99999999997,68,78.0,0,0,6,0,0,0,7.0,-3.0,-983.0
1777586740.471193,pre_hover,right,x,1,,,2,1,1.2163924366428893,1.4376186737170382,2.4789902209631998,2.696084329970731,140,255060.0,68,78.0,0,0,6,0,0,0,4.0,-18.0,-963.0
1777586740.521337,pre_hover,right,x,1,,,2,1,1.2004033577922382,1.4196598500626871,2.48925566889164,2.697454633678467,140,255060.0,68,78.0,0,0,6,0,0,0,4.0,-18.0,-963.0
1777586740.57125,pre_hover,right,x,1,,,2,1,1.1763983862649146,1.43686851397372,2.4858193647353586,2.6991685053068175,140,255060.0,68,78.0,0,0,6,0,0,0,4.0,-18.0,-963.0
1777586740.620579,pre_hover,right,x,1,,,2,1,1.1771663524415503,1.4384037926258868,2.485702782582855,2.6997015902350054,140,255067.99999999997,68,78.0,0,0,6,0,0,0,8.0,-16.0,-1037.0
1777586740.6701388,pre_hover,right,x,1,,,2,1,1.1771663524415503,1.4384037926258868,2.485702782582855,2.6997015902350054,140,255067.99999999997,68,78.0,0,0,6,0,0,0,8.0,-16.0,-1037.0
1777586740.720824,pre_hover,right,x,1,,,2,1,1.1816131694830556,1.4396567135649758,2.485237155728916,2.700050582045818,140,255062.0,68,78.0,0,0,6,0,0,0,8.0,1.0,-1052.0
1777586740.7713401,pre_hover,right,x,1,,,2,1,1.1812517981878474,1.4408316350063015,2.4851072177087605,2.7003593446584837,140,255062.0,68,78.0,0,0,6,0,0,0,8.0,1.0,-1052.0
1777586740.821996,pre_hover,right,x,1,,,2,1,1.1812517981878474,1.4408316350063015,2.4851072177087605,2.7003593446584837,140,255058.0,68,78.0,0,0,6,0,0,0,-23.0,24.0,-1018.0
1777586740.872134,pre_hover,right,x,1,,,2,1,1.1554631150244463,1.4892489990420392,2.459033257708824,2.6939704386955063,140,255058.0,68,78.0,0,0,6,0,0,0,-23.0,24.0,-1018.0
1777586740.922188,pre_hover,right,x,1,,,2,1,1.1765509780924757,1.4734883484185448,2.4634231922706507,2.692954011169279,140,255073.0,68,78.0,0,0,6,0,0,0,-24.0,34.0,-957.0
1777586740.97255,pre_hover,right,x,1,,,2,1,1.1765509780924757,1.4734883484185448,2.4634231922706507,2.692954011169279,140,255073.0,68,78.0,0,0,6,0,0,0,-24.0,34.0,-957.0
1777586741.0212831,pre_hover,right,x,1,,,2,1,1.1820104112814875,1.4423821156211165,2.4849882784157957,2.7008989260328704,140,255059.0,68,78.0,0,0,6,0,0,0,-27.0,39.0,-1034.0
1777586741.069717,pre_hover,right,x,1,,,2,1,1.1955401455853885,1.457080011650996,2.4675245350721613,2.6915295708482767,140,255059.0,68,78.0,0,0,6,0,0,0,-27.0,39.0,-1034.0
1777586741.116985,response,right,x,1,1777586741.11678,0.00020503997802734375,2,1,1.1955401455853885,1.457080011650996,2.4675245350721613,2.6915295708482767,140,255067.99999999997,68,78.0,0,0,6,0,0,0,-6.0,23.0,-966.0
1777586741.164594,response,right,x,1,1777586741.11678,0.04781389236450195,2,1,1.1814649664239538,1.4364855269988621,2.4780161539834222,2.6921730704247353,140,255067.99999999997,68,78.0,0,0,6,0,0,0,-6.0,23.0,-966.0
1777586741.211995,response,right,x,1,1777586741.11678,0.09521484375,2,1,1.1946647338466136,1.4528365458220822,2.460689004474963,2.6835330308319536,140,255055.00000000003,68,77.5,0,0,6,0,0,0,-4.0,-2.0,-1050.0
1777586741.2586439,response,right,x,1,1777586741.11678,0.14186382293701172,2,1,1.1732567695411875,1.4683728492535102,2.456925025871336,2.6847567927033507,140,255055.00000000003,68,77.5,0,0,6,0,0,0,-4.0,-2.0,-1050.0
1777586741.3081129,response,right,x,1,1777586741.11678,0.19133281707763672,2,1,1.1940824518457989,1.454060866326274,2.467766655279274,2.6904617768969006,140,255052.0,68,77.5,0,2,6,0,0,0,-23.0,-17.0,-985.0
1777586741.3566358,response,right,x,1,1777586741.11678,0.23985576629638672,2,1,1.1717608946416282,1.46542580656563,2.45714237238886,2.6836882442662504,140,255052.0,68,77.5,0,2,6,0,0,0,-23.0,-17.0,-985.0
1777586741.4057631,response,right,x,1,1777586741.11678,0.2889831066131592,2,1,1.1773605945766163,1.4263860816782743,2.4726477254485353,2.6830788179509875,140,255059.0,68,77.5,-1,4,6,0,0,0,9.0,12.0,-951.0
1777586741.454398,response,right,x,1,1777586741.11678,0.3376178741455078,2,1,1.1584104523246426,1.4413253775880626,2.469291649161769,2.6845583737431875,140,255059.0,68,77.5,-1,4,6,0,0,0,9.0,12.0,-951.0
1777586741.503755,response,right,x,1,1777586741.11678,0.3869750499725342,2,1,1.1775307085836868,1.423369251468774,2.4746021608452082,2.683739486574984,140,255050.0,68,77.5,0,3,6,0,1,0,-20.0,4.0,-999.0
1777586741.554328,response,right,x,1,1777586741.11678,0.4375479221343994,2,1,1.1616409160672971,1.4278674946992922,2.460095958784348,2.6710880739566703,140,255050.0,68,77.5,0,3,6,0,1,0,-20.0,4.0,-999.0
1777586741.605024,response,right,x,1,1777586741.11678,0.48824405670166016,2,1,1.1809313893152895,1.446403235215712,2.4514221051690726,2.671547535796628,140,255051.00000000003,68,77.5,0,1,6,0,2,0,-2.0,11.0,-1018.0
1777586741.656075,response,right,x,1,1777586741.11678,0.539294958114624,2,1,1.1925653701667391,1.4058901692881043,2.469348216255169,2.6733082627299996,140,255051.00000000003,68,77.5,0,1,6,0,2,0,-2.0,11.0,-1018.0
1777586741.7073238,response,right,x,1,1777586741.11678,0.5905437469482422,2,1,1.2361791685957393,1.4048030978742911,2.466562400598847,2.6738249645824417,140,255046.99999999997,68,77.5,0,0,6,0,2,0,22.0,-7.0,-989.0
1777586741.756683,response,right,x,1,1777586741.11678,0.6399030685424805,4,1,1.2120426480749966,1.381509746008525,2.4907518418505523,2.7907136914496085,140,255046.99999999997,68,77.5,0,0,6,0,2,0,22.0,-7.0,-989.0
1777586741.8074062,response,right,x,1,1777586741.11678,0.6906261444091797,4,1,1.2032051904224,1.3540241555856576,2.4862925097548656,2.77969323884379,140,255055.00000000003,68,77.5,0,0,6,0,2,0,-4.0,0.0,-1015.0
1777586741.857447,response,right,x,1,1777586741.11678,0.7406668663024902,4,1,1.2086799743992778,1.3726985361633952,2.46857209396156,2.7687863782272735,140,255055.00000000003,68,77.5,0,0,6,0,2,0,-4.0,0.0,-1015.0
1777586741.907506,response,right,x,1,1777586741.11678,0.7907259464263916,4,1,1.2193517683002533,1.3311955293447078,2.4934043980077063,2.773734354175194,140,255042.0,68,77.5,0,0,6,0,2,0,-1.0,-17.0,-1033.0
1777586741.9581041,response,right,x,1,1777586741.11678,0.8413240909576416,4,1,1.2476436746725683,1.3740804085702094,2.472076284725836,2.761527446925776,140,255042.0,68,77.5,0,0,6,0,2,0,-1.0,-17.0,-1033.0
1777586742.007793,response,right,x,1,1777586741.11678,0.8910129070281982,4,1,1.2815598406962736,1.3771023298494796,2.474927898546969,2.75611199491308,140,255046.0,68,77.5,0,0,6,0,2,0,-22.0,0.0,-1039.0
1777586742.057031,response,right,x,1,1777586741.11678,0.9402508735656738,4,1,1.2861145210683431,1.3718876255195132,2.4673563348356247,2.746278448504617,140,255046.0,68,77.5,0,0,6,0,2,0,-22.0,0.0,-1039.0
1777586742.107208,response,right,x,1,1777586741.11678,0.9904279708862305,4,1,1.27731680800664,1.3242518774968195,2.4812355371205252,2.7446388322903053,140,255046.0,68,77.5,0,0,6,0,2,0,-22.0,0.0,-1039.0
1777586742.156884,response,right,x,1,1777586741.11678,1.0401039123535156,4,1,1.3040649537703262,1.3680099277730533,2.458250967904846,2.7320993082322254,140,255048.99999999997,68,77.5,0,0,6,0,2,0,-35.0,4.0,-975.0
1777586742.207009,response,right,x,1,1777586741.11678,1.0902290344238281,4,1,1.3401204823554913,1.3527652621267916,2.4780287772345297,2.735658831675606,140,255053.00000000003,68,78.0,0,0,6,0,2,0,6.0,-20.0,-1007.0
1777586742.257768,response,right,x,1,1777586741.11678,1.1409878730773926,4,1,1.3178590993824004,1.3434141676063922,2.4664559789604947,2.727407486256101,140,255053.00000000003,68,78.0,0,0,6,0,2,0,6.0,-20.0,-1007.0
1777586742.307888,response,right,x,1,1777586741.11678,1.191107988357544,4,1,1.352548204381998,1.3697976445625688,2.4582113012075077,2.7207543256296387,140,255046.99999999997,68,78.0,0,0,6,0,2,0,-4.0,0.0,-1031.0
1777586742.357089,response,right,x,1,1777586741.11678,1.2403090000152588,4,1,1.3638317880660815,1.3425227316932604,2.4619304265113575,2.711855548995212,140,255046.99999999997,68,78.0,0,0,6,0,2,0,-4.0,0.0,-1031.0
1777586742.4060621,response,right,x,1,1777586741.11678,1.2892820835113525,4,1,1.3712337092607396,1.3429827952588087,2.4601146544584394,2.708639458031521,140,255046.99999999997,68,78.0,0,0,6,0,2,0,-4.0,0.0,-1031.0
1777586742.456335,response,right,x,1,1777586741.11678,1.339555025100708,4,1,1.355554310906299,1.3105211678647382,2.460341198267858,2.7014140473491546,140,255051.00000000003,68,78.0,0,0,6,0,2,0,7.0,-11.0,-943.0
1777586742.506298,response,right,x,1,1777586741.11678,1.3895180225372314,4,1,1.3673942708334828,1.312638909359991,2.4588362872089298,2.69795768587046,140,255051.00000000003,68,78.0,0,0,6,0,2,0,7.0,-11.0,-943.0
1777586742.55619,response,right,x,1,1777586741.11678,1.4394099712371826,4,1,1.389242650489808,1.3845635914477876,2.4196347619902148,2.682726670202673,140,255042.99999999997,68,78.0,1,0,6,0,1,0,-6.0,12.0,-1045.0
1777586742.606343,response,right,x,1,1777586741.11678,1.48956298828125,4,1,1.404954814529531,1.3346194517882868,2.4426348465522723,2.682173985036031,140,255042.99999999997,68,78.0,1,0,6,0,1,0,-6.0,12.0,-1045.0
1777586742.656242,response,right,x,1,1777586741.11678,1.5394618511199951,4,1,1.4290248017972553,1.3860232968145283,2.420747471995049,2.6754948966488565,130,255044.99999999997,68,78.0,3,0,6,0,1,0,-8.0,-7.0,-983.0
1777586742.7071779,response,right,x,1,1777586741.11678,1.590397834777832,4,1,1.4260689354292593,1.261908640952723,2.4821342513115843,2.6894746352703143,130,255044.99999999997,68,78.0,3,0,6,0,1,0,-8.0,-7.0,-983.0
1777586742.7566478,response,right,x,1,1777586741.11678,1.6398677825927734,4,1,1.3821525164759256,1.1506288991913975,2.520816998221104,2.701795254218716,130,255042.0,68,78.0,0,-1,6,0,1,0,-22.0,27.0,-929.0
1777586742.8066502,response,right,x,1,1777586741.11678,1.6898701190948486,4,1,1.477801199591565,1.1989333977930197,2.538074239775598,2.711605983152712,130,255042.0,68,78.0,0,-1,6,0,1,0,-22.0,27.0,-929.0
1777586742.856879,response,right,x,1,1777586741.11678,1.7400989532470703,4,1,1.4856819150970697,1.3323026747287061,2.4662500520472137,2.686280083868285,130,255042.0,68,78.0,-2,-4,6,0,1,0,-17.0,13.0,-1042.0
1777586742.907176,response,right,x,1,1777586741.11678,1.790395975112915,4,1,1.4959857368517266,1.3102525522746729,2.4848233022319133,2.6938702510874877,130,255042.0,68,78.0,-2,-4,6,0,1,0,-17.0,13.0,-1042.0
1777586742.9573991,response,right,x,1,1777586741.11678,1.8406190872192383,4,1,1.4965922306128274,1.3103221710515935,2.484054819727135,2.6930715149800726,130,255044.0,68,78.0,0,-2,6,0,0,0,25.0,-21.0,-985.0
1777586743.007469,response,right,x,1,1777586741.11678,1.8906888961791992,4,1,1.5018153660923952,1.308941806916085,2.4843230526254323,2.691881157783099,130,255044.0,68,78.0,0,-2,6,0,0,0,25.0,-21.0,-985.0
1777586743.057062,response,right,x,1,1777586741.11678,1.940281867980957,4,1,1.5315115904588676,1.3159146010377456,2.4837738776600564,2.68840354515742,130,255050.0,68,78.0,0,-1,6,0,0,0,-21.0,23.0,-999.0
1777586743.106654,response,right,x,1,1777586741.11678,1.9898738861083984,4,1,1.506040757220791,1.3090021484430732,2.483925398950541,2.6907556609533945,130,255050.0,68,78.0,0,-1,6,0,0,0,-21.0,23.0,-999.0
1777586743.157279,response,right,x,1,1777586741.11678,2.040498971939087,4,1,1.5135962675935644,1.2809363610439632,2.496578668453921,2.6917545413516897,130,255055.00000000003,68,78.0,0,0,6,0,0,0,-20.0,24.0,-960.0
1777586743.207754,response,right,x,1,1777586741.11678,2.0909738540649414,4,1,1.5101629224048314,1.3074059486284222,2.4846467543368482,2.690129255636215,130,255055.00000000003,68,78.0,0,0,6,0,0,0,-20.0,24.0,-960.0
1777586743.258618,response,right,x,1,1777586741.11678,2.1418380737304688,4,1,1.5290974525362797,1.3389914581137514,2.471748135809482,2.6857015870152177,130,255054.0,68,78.5,0,0,6,0,0,0,7.0,0.0,-989.0
1777586743.308553,response,right,x,1,1777586741.11678,2.191772937774658,4,1,1.5345406152009229,1.34142738494511,2.470945823167776,2.684867076980237,130,255054.0,68,78.5,0,0,6,0,0,0,7.0,0.0,-989.0
1777586743.359221,response,right,x,1,1777586741.11678,2.242440938949585,4,1,1.5065874256044909,1.3298864364176803,2.4642791244479336,2.6797045278155296,130,255056.0,68,78.5,0,0,6,0,0,0,-45.0,30.0,-992.0
1777586743.40943,response,right,x,1,1777586741.11678,2.292649984359741,4,1,1.5404032010493152,1.3183943179032713,2.4905001284222807,2.693931741977537,130,255056.0,68,78.5,0,0,6,0,0,0,-45.0,30.0,-992.0
1777586743.459975,response,right,x,1,1777586741.11678,2.3431949615478516,4,1,1.5375685839839113,1.336905015115835,2.463726782451438,2.6761135029061016,130,255055.00000000003,68,78.5,0,0,6,0,0,0,-19.0,22.0,-1001.0
1777586743.511035,response,right,x,1,1777586741.11678,2.3942549228668213,4,1,1.5170044593150367,1.304192084202806,2.4767568073233344,2.6805171702638,130,255055.00000000003,68,78.5,0,0,6,0,0,0,-19.0,22.0,-1001.0
1777586743.56153,response,right,x,1,1777586741.11678,2.4447500705718994,4,1,1.523485645973853,1.2823945406683992,2.4958362055393177,2.6897740462490995,130,255046.99999999997,68,78.5,0,-1,6,0,0,0,3.0,-7.0,-1016.0
1777586743.6121159,response,right,x,1,1777586741.11678,2.495335817337036,4,1,1.542705396626352,1.3152485779590761,2.4827045543252275,2.6852598045250664,130,255046.99999999997,68,78.5,0,-1,6,0,0,0,3.0,-7.0,-1016.0
1777586743.662573,response,right,x,1,1777586741.11678,2.545793056488037,4,1,1.524831490573729,1.2838190609267266,2.495715400705725,2.6898915602915157,130,255048.0,68,78.5,0,0,6,0,0,0,-8.0,16.0,-1049.0
1777586743.714018,response,right,x,1,1777586741.11678,2.597238063812256,4,1,1.5664327135352671,1.3496314475668103,2.4691871547314035,2.68079571828791,130,255048.0,68,78.5,0,0,6,0,0,0,-8.0,16.0,-1049.0
1777586743.76439,response,right,x,1,1777586741.11678,2.6476099491119385,4,1,1.545718148229628,1.321270954891864,2.4898625858392487,2.693423076595542,130,255051.00000000003,68,78.5,0,0,6,0,0,0,-15.0,24.0,-1047.0
1777586743.814909,response,right,x,1,1777586741.11678,2.6981289386749268,4,1,1.5498306526331374,1.3235972666942142,2.4892523638911843,2.6929652213668818,130,255051.00000000003,68,78.5,0,0,6,0,0,0,-15.0,24.0,-1047.0
1777586743.865778,response,right,x,1,1777586741.11678,2.748997926712036,4,1,1.5600009810478652,1.3753326484472064,2.456010988716414,2.6789667576328116,130,255057.00000000003,68,78.5,0,0,6,0,0,0,0.0,-13.0,-983.0
1777586743.9169831,response,right,x,1,1777586741.11678,2.8002030849456787,4,1,1.53245885328498,1.2636590695183323,2.5145463667511216,2.6995268368316205,130,255057.00000000003,68,78.5,0,0,6,0,0,0,0.0,-13.0,-983.0
1777586743.967477,response,right,x,1,1777586741.11678,2.8506970405578613,4,1,1.5469137482818587,1.324090623946324,2.4896404700610923,2.6939822387921417,130,255051.00000000003,68,78.5,0,0,6,0,0,0,-26.0,28.0,-998.0
1777586744.0187368,response,right,x,1,1777586741.11678,2.901956796646118,4,1,1.527498514905889,1.2881083717768793,2.4954776542920034,2.6906138438109317,130,255051.00000000003,68,78.5,0,0,6,0,0,0,-26.0,28.0,-998.0
1777586744.0693371,response,right,x,1,1777586741.11678,2.95255708694458,4,1,1.5753009369326005,1.333291193790091,2.4878688966855473,2.6908908178653075,130,255050.0,68,78.5,0,-1,6,0,0,0,1.0,1.0,-1001.0
1777586744.119993,response,right,x,1,1777586741.11678,3.0032129287719727,4,1,1.5528112664874618,1.3007803036493168,2.501634579949914,2.696211877880573,130,255050.0,68,78.5,0,-1,6,0,0,0,1.0,1.0,-1001.0
1777586744.170568,response,right,x,1,1777586741.11678,3.05378794670105,4,1,1.552729629962212,1.3022459057430544,2.5015852823461118,2.6966696837385404,130,255053.00000000003,68,78.5,0,0,6,0,0,0,-19.0,30.0,-969.0
1777586744.220238,response,right,x,1,1777586741.11678,3.1034579277038574,4,1,1.5208413914268817,1.3188172951502342,2.4825732200730415,2.690165048293645,130,255053.00000000003,68,78.5,0,0,6,0,0,0,-19.0,30.0,-969.0
1777586744.270108,response,right,x,1,1777586741.11678,3.1533279418945312,4,1,1.5465787755115206,1.3297822923988432,2.4894345152231323,2.695806024857744,130,255050.0,68,78.0,0,0,6,0,0,0,11.0,19.0,-1037.0
1777586744.3198888,response,right,x,1,1777586741.11678,3.203108787536621,4,1,1.546501948570506,1.331218977555122,2.4893868741188463,2.6962708090702527,130,255050.0,68,78.0,0,0,6,0,0,0,11.0,19.0,-1037.0
1777586744.3707242,response,right,x,1,1777586741.11678,3.253944158554077,4,1,1.54463004798823,1.3280276375717786,2.4819826236382116,2.6886492581469748,130,255058.0,68,78.0,0,0,6,0,0,0,6.0,0.0,-1008.0
1777586744.421362,response,right,x,1,1777586741.11678,3.304581880569458,4,1,1.5590601368290076,1.386118617095405,2.4554572840942717,2.6825600392026687,130,255058.0,68,78.0,0,0,6,0,0,0,6.0,0.0,-1008.0
1777586744.471348,response,right,x,1,1777586741.11678,3.3545680046081543,4,1,1.5602293519970785,1.3861054502241084,2.456240485034337,2.6830802265546065,130,255056.0,68,78.0,0,0,6,0,0,0,-25.0,14.0,-1013.0
1777586744.5224829,response,right,x,1,1777586741.11678,3.405702829360962,4,1,1.5448636086491927,1.3355777869860932,2.48933514219044,2.698007483380639,130,255056.0,68,78.0,0,0,6,0,0,0,-25.0,14.0,-1013.0
1777586744.572876,response,right,x,1,1777586741.11678,3.4560959339141846,4,1,1.5375605523787357,1.3635746998746825,2.476237029862234,2.6970495496033773,140,255050.0,68,78.0,0,0,6,0,0,0,-15.0,33.0,-1011.0
1777586744.622303,response,right,x,1,1777586741.11678,3.5055229663848877,4,1,1.542802586090818,1.339783608196345,2.4889936967520105,2.6995022370783515,140,255050.0,68,78.0,0,0,6,0,0,0,-15.0,33.0,-1011.0
1777586744.672052,response,right,x,1,1777586741.11678,3.555271863937378,4,1,1.542802586090818,1.339783608196345,2.4889936967520105,2.6995022370783515,140,255052.0,68,78.0,0,0,6,0,0,0,-16.0,46.0,-1025.0
1777586744.723027,response,right,x,1,1777586741.11678,3.6062469482421875,4,1,1.542739525506987,1.3412611284655318,2.4889519845442347,2.699989191619194,140,255060.0,68,78.0,0,0,6,0,0,0,14.0,-2.0,-1027.0
1777586744.7730381,response,right,x,1,1777586741.11678,3.6562581062316895,4,1,1.535955411945788,1.3679047875920736,2.476188741311815,2.698830809840708,140,255060.0,68,78.0,0,0,6,0,0,0,14.0,-2.0,-1027.0
1777586744.822483,response,right,x,1,1777586741.11678,3.705703020095825,4,1,1.535955411945788,1.3679047875920736,2.476188741311815,2.698830809840708,140,255057.00000000003,68,78.0,0,0,6,0,0,0,12.0,8.0,-980.0
1777586744.8724558,response,right,x,1,1777586741.11678,3.755675792694092,4,1,1.5371999675975165,1.3678339747730859,2.477048123246312,2.699380276581069,140,255057.00000000003,68,78.0,0,0,6,0,0,0,12.0,8.0,-980.0
1777586744.922276,response,right,x,1,1777586741.11678,3.8054959774017334,4,1,1.5749203947287058,1.4102079238216194,2.466592440924725,2.6991278202035156,140,255056.0,68,78.0,0,0,6,0,0,0,-13.0,30.0,-1029.0
1777586744.972383,response,right,x,1,1777586741.11678,3.855602979660034,4,1,1.5368963235001292,1.3482697917179882,2.495725510293786,2.709672754375287,140,255056.0,68,78.0,0,0,6,0,0,0,-13.0,30.0,-1029.0
1777586745.022422,response,right,x,1,1777586741.11678,3.905642032623291,4,1,1.5368963235001292,1.3482697917179882,2.495725510293786,2.709672754375287,140,255056.0,68,78.0,0,0,6,0,0,0,2.0,31.0,-1007.0
1777586745.0722291,response,right,x,1,1777586741.11678,3.955449104309082,4,1,1.524732050228875,1.2949248358056882,2.528618483179843,2.7240927883059007,140,255056.0,68,78.0,0,0,6,0,0,0,2.0,31.0,-1007.0
1777586745.1225119,response,right,x,1,1777586741.11678,4.005731821060181,4,1,1.5128531542757857,1.3480326322355416,2.5034560469217317,2.7209134679279097,140,255060.0,68,78.0,0,0,6,0,0,0,-14.0,42.0,-1003.0
1777586745.172392,response,right,x,1,1777586741.11678,4.055611848831177,4,1,1.55747679007785,1.387157755987999,2.488055319103954,2.7130658852023006,140,255060.0,68,78.0,0,0,6,0,0,0,-14.0,42.0,-1003.0
1777586745.2222772,response,right,x,1,1777586741.11678,4.105497121810913,4,1,1.5359076648657009,1.3546136582294444,2.5022736801284253,2.718095381378671,140,255055.00000000003,68,77.5,0,0,6,0,0,0,22.0,-14.0,-984.0
1777586745.272065,response,right,x,1,1777586741.11678,4.155284881591797,4,1,1.5562883827663851,1.3638223982863682,2.508348635180857,2.723535659821664,140,255055.00000000003,68,77.5,0,0,6,0,0,0,22.0,-14.0,-984.0
1777586745.322109,response,right,x,1,1777586741.11678,4.205328941345215,4,1,1.529727569382134,1.3746007617098375,2.4837126307628203,2.7092122906733245,140,255060.0,68,77.5,0,0,6,0,0,0,-4.0,24.0,-973.0
1777586745.372272,response,right,x,1,1777586741.11678,4.2554919719696045,4,1,1.5119308422938376,1.3211817409491398,2.5159217164959045,2.723352600398595,140,255060.0,68,77.5,0,0,6,0,0,0,-4.0,24.0,-973.0
1777586745.422299,response,right,x,1,1777586741.11678,4.305518865585327,4,1,1.534437979694777,1.354633953909977,2.5023535922340425,2.7184273912089494,140,255059.0,68,77.5,0,0,6,0,0,0,-7.0,27.0,-1009.0
1777586745.472961,response,right,x,1,1777586741.11678,4.356180906295776,4,1,1.5516135019672266,1.3847742770514793,2.4887692426307035,2.7138170851081624,140,255059.0,68,77.5,0,0,6,0,0,0,-7.0,27.0,-1009.0
1777586745.523621,response,right,x,1,1777586741.11678,4.406841039657593,4,1,1.535832952824108,1.3530598420522852,2.5033473362072467,2.7185514517685023,140,255061.0,68,77.5,0,0,6,0,0,0,16.0,-4.0,-1015.0
1777586745.572961,response,right,x,1,1777586741.11678,4.456181049346924,4,1,1.527306299451915,1.3782030634438591,2.490274012379093,2.716944096701193,140,255061.0,68,77.5,0,0,6,0,0,0,16.0,-4.0,-1015.0
1777586745.6231139,response,right,x,1,1777586741.11678,4.506333827972412,4,1,1.5269430537517388,1.3731670547070287,2.4839407421254758,2.7093908173520744,140,255052.0,68,77.5,0,0,6,0,0,0,16.0,-9.0,-1056.0
1777586745.6727219,response,right,x,1,1777586741.11678,4.555941820144653,4,1,1.5107123632525306,1.3243172263839806,2.523705670690606,2.731822658728055,140,255052.0,68,77.5,0,0,6,0,0,0,16.0,-9.0,-1056.0
1777586745.7216341,response,right,x,1,1777586741.11678,4.604854106903076,4,1,1.5040513414679428,1.345666033448952,2.5041009728502375,2.722273131217426,140,255052.0,68,77.5,0,0,6,0,0,0,16.0,-9.0,-1056.0
1777586745.771978,response,right,x,1,1777586741.11678,4.655197858810425,4,1,1.521347598857048,1.3771903639250764,2.490858180470397,2.7181581270566717,140,255061.0,68,77.5,0,0,6,0,0,0,22.0,0.0,-1026.0
1777586745.822269,response,right,x,1,1777586741.11678,4.705488920211792,4,1,1.521347598857048,1.3771903639250764,2.490858180470397,2.7181581270566717,140,255061.0,68,77.5,0,0,6,0,0,0,22.0,0.0,-1026.0
1777586745.872171,response,right,x,1,1777586741.11678,4.755390882492065,4,1,1.4999455697508348,1.3447471622781428,2.5047732220300074,2.7233234342697905,140,255067.0,68,77.5,0,0,6,0,0,0,-17.0,31.0,-1029.0
1777586745.921839,response,right,x,1,1777586741.11678,4.80505895614624,4,1,1.5243509244083369,1.3797045460425772,2.4904179332320218,2.718132543275135,140,255067.0,68,77.5,0,0,6,0,0,0,-17.0,31.0,-1029.0
1777586745.971553,response,right,x,1,1777586741.11678,4.854773044586182,4,1,1.5010512317842406,1.347252321196247,2.504180919232296,2.7234461458899473,140,255056.0,68,77.5,0,-1,6,0,0,0,5.0,0.0,-1038.0
1777586746.021854,response,right,x,1,1777586741.11678,4.905073881149292,4,1,1.5229058693270348,1.379716778086585,2.4905219513538635,2.718485491034007,140,255056.0,68,77.5,0,-1,6,0,0,0,5.0,0.0,-1038.0
1777586746.0728068,response,right,x,1,1777586741.11678,4.956026792526245,4,1,1.518358761209757,1.378668193221852,2.491016110476242,2.719362237360023,140,255051.00000000003,68,77.5,0,0,6,0,0,0,-4.0,10.0,-982.0
1777586746.122114,response,right,x,1,1777586741.11678,5.00533390045166,4,1,1.5161121315715778,1.3786111350844008,2.490603927108989,2.719363003472339,140,255051.00000000003,68,77.5,0,0,6,0,0,0,-4.0,10.0,-982.0
1777586746.172051,response,right,x,1,1777586741.11678,5.0552709102630615,4,1,1.4980826295986338,1.3473164261749382,2.5043106656227496,2.724133140645541,140,255056.0,68,77.5,0,0,6,0,0,0,5.0,-3.0,-1069.0
1777586746.2219572,response,right,x,1,1777586741.11678,5.105177164077759,4,1,1.5239333283722853,1.3566975265057524,2.5116269897204817,2.7295017436428366,140,255056.0,68,77.5,0,0,6,0,0,0,5.0,-3.0,-1069.0
1777586746.2727191,response,right,x,1,1777586741.11678,5.155939102172852,4,1,1.515560295843143,1.3771785904168459,2.491314024674676,2.719596549871574,140,255050.0,68,77.5,0,0,6,0,0,0,-22.0,52.0,-978.0
1777586746.322315,response,right,x,1,1777586741.11678,5.205534934997559,4,1,1.5186517059862534,1.3782550755214684,2.490929359869594,2.719082243845118,140,255050.0,68,77.5,0,0,6,0,0,0,-22.0,52.0,-978.0
1777586746.372085,response,right,x,1,1777586741.11678,5.255305051803589,4,1,1.5154607999890657,1.3756239216133452,2.4923942527245164,2.720045842221347,140,255051.00000000003,68,77.5,0,0,6,0,0,0,10.0,-17.0,-971.0
1777586746.422084,response,right,x,1,1777586741.11678,5.305304050445557,4,1,1.4952439919346285,1.3443271671337675,2.504555886915174,2.723845189607227,140,255051.00000000003,68,77.5,0,0,6,0,0,0,10.0,-17.0,-971.0
1777586746.472424,response,right,x,1,1777586741.11678,5.35564398765564,4,1,1.5117396902787987,1.3958691825243816,2.472751287852181,2.7101019335673415,140,255056.0,68,77.5,0,0,6,0,0,0,-10.0,-3.0,-1000.0
1777586746.522157,response,right,x,1,1777586741.11678,5.40537691116333,4,1,1.4893530438543867,1.3648028514458983,2.4855091334369583,2.7146566096612395,140,255056.0,68,77.5,0,0,6,0,0,0,-10.0,-3.0,-1000.0
1777586746.5728672,response,right,x,1,1777586741.11678,5.456087112426758,4,1,1.5226735046013067,1.3500628687562837,2.504450524892541,2.7207962932629743,140,255055.00000000003,68,77.5,0,0,6,0,0,0,-22.0,64.0,-951.0
1777586746.622656,response,right,x,1,1777586741.11678,5.505876064300537,4,1,1.4879978173600836,1.3633387219895385,2.48566872568236,2.7145380347580033,140,255055.00000000003,68,77.5,0,0,6,0,0,0,-22.0,64.0,-951.0
1777586746.672677,response,right,x,1,1777586741.11678,5.555896997451782,4,1,1.4923467774065249,1.342841586020778,2.504790281202567,2.7240845074164914,140,255052.0,68,77.5,0,0,6,0,0,0,-38.0,26.0,-1067.0
1777586746.722529,response,right,x,1,1777586741.11678,5.605748891830444,4,1,1.4836421505875723,1.3606316203037332,2.486164412851084,2.7148576438377723,140,255052.0,68,77.5,0,0,6,0,0,0,-38.0,26.0,-1067.0
1777586746.772507,response,right,x,1,1777586741.11678,5.655726909637451,4,1,1.4953840133653569,1.3168172246633412,2.516733821087258,2.7256449225112056,140,255054.0,68,77.5,0,-1,6,0,0,0,-22.0,26.0,-984.0
1777586746.8230011,response,right,x,1,1777586741.11678,5.706221103668213,4,1,1.509807567194541,1.3675637562674967,2.4857314445152947,2.7120709905668576,140,255054.0,68,77.5,0,-1,6,0,0,0,-22.0,26.0,-984.0
1777586746.8736808,response,right,x,1,1777586741.11678,5.756900787353516,4,1,1.4911278030124349,1.3364747662554028,2.4988243441862505,2.716626401218597,140,255050.0,68,77.5,0,-1,6,0,0,0,3.0,-8.0,-981.0
1777586746.9232562,response,right,x,1,1777586741.11678,5.80647611618042,4,1,1.5182980644493584,1.3484911457662632,2.504953460247364,2.721481957742046,140,255050.0,68,77.5,0,-1,6,0,0,0,3.0,-8.0,-981.0
1777586746.972417,response,right,x,1,1777586741.11678,5.855637073516846,4,1,1.5068862223503428,1.3674951076465593,2.486045207171539,2.7128635706810846,140,255051.00000000003,68,77.5,0,0,6,0,0,0,-16.0,-10.0,-976.0
1777586747.022806,response,right,x,1,1777586741.11678,5.9060258865356445,4,1,1.4867786034578074,1.338130192503994,2.498046477006257,2.7173002523165657,140,255051.00000000003,68,77.5,0,0,6,0,0,0,-16.0,-10.0,-976.0
1777586747.072722,response,right,x,1,1777586741.11678,5.955941915512085,4,1,1.5151506329098954,1.3499606330319045,2.505175323020481,2.7227573362583786,140,255053.00000000003,68,77.5,0,0,6,0,0,0,-2.0,4.0,-1023.0
1777586747.1224551,response,right,x,1,1777586741.11678,6.0056750774383545,4,1,1.4891149989848722,1.3183876886806725,2.5170711994464052,2.7276522604732847,140,255053.00000000003,68,77.5,0,0,6,0,0,0,-2.0,4.0,-1023.0
1777586747.171867,response,right,x,1,1777586741.11678,6.055086851119995,4,1,1.4847428801451183,1.344386508881497,2.5052585309861954,2.726476863059293,140,255061.0,68,77.5,0,0,6,0,0,0,-8.0,-13.0,-1046.0
1777586747.221492,response,right,x,1,1777586741.11678,6.104712009429932,4,1,1.4802691864695778,1.343118950463921,2.505735377700989,2.727325293455014,140,255061.0,68,77.5,0,0,6,0,0,0,-8.0,-13.0,-1046.0
1777586747.2717729,response,right,x,1,1777586741.11678,6.1549928188323975,4,1,1.4790154871281538,1.3663031559719296,2.486232475088513,2.717815036399347,140,255061.0,68,77.5,0,0,6,0,0,0,-24.0,19.0,-975.0
1777586747.322415,response,right,x,1,1777586741.11678,6.205635070800781,4,1,1.50883854823359,1.3518182268369605,2.505686850184613,2.725007174271002,140,255061.0,68,77.5,0,0,6,0,0,0,-24.0,19.0,-975.0
1777586747.371634,response,right,x,1,1777586741.11678,6.254853963851929,4,1,1.5021802012811254,1.3784876325629254,2.4925279511118212,2.7235928818655686,140,255057.00000000003,68,77.5,0,0,6,0,0,0,9.0,1.0,-996.0
1777586747.422633,response,right,x,1,1777586741.11678,6.305852890014648,4,1,1.4724298455659395,1.373090424596271,2.4926042311505605,2.727326730599069,140,255057.00000000003,68,77.5,0,0,6,0,0,0,9.0,1.0,-996.0
1777586747.472715,response,right,x,1,1777586741.11678,6.3559348583221436,4,1,1.4723154067114477,1.3746022777767055,2.492531552397583,2.7278222393585607,140,255055.00000000003,68,77.5,0,0,6,0,0,0,6.0,9.0,-999.0
1777586747.522885,response,right,x,1,1777586741.11678,6.406105041503906,4,1,1.4782939783078157,1.349290735701707,2.505573549166323,2.729693917683977,140,255055.00000000003,68,77.5,0,0,6,0,0,0,6.0,9.0,-999.0
1777586747.57389,response,right,x,1,1777586741.11678,6.4571099281311035,4,1,1.4544827371582767,1.345656102974031,2.50464461552516,2.732233372029105,140,255046.99999999997,68,77.5,0,0,6,0,0,0,-1.0,18.0,-986.0
1777586747.624513,response,right,x,1,1777586741.11678,6.50773286819458,4,1,1.4737894676163839,1.3758506945110622,2.4936278423590563,2.728985510873492,140,255046.99999999997,68,77.5,0,0,6,0,0,0,-1.0,18.0,-986.0
1777586747.674387,response,right,x,1,1777586741.11678,6.557606935501099,4,1,1.47742106380786,1.3789065597028705,2.4924319556794625,2.7282895467441075,140,255048.0,68,77.5,0,0,6,0,0,0,21.0,-7.0,-1004.0
1777586747.724066,response,right,x,1,1777586741.11678,6.607285976409912,4,1,1.4720941827977307,1.377640541060937,2.4923913933582234,2.728824002578411,140,255048.0,68,77.5,0,0,6,0,0,0,21.0,-7.0,-1004.0
1777586747.773571,response,right,x,1,1777586741.11678,6.6567909717559814,4,1,1.4447766323780025,1.3711730797860624,2.492234665032626,2.731791310558869,140,255055.00000000003,68,77.5,0,0,6,0,0,0,5.0,33.0,-985.0
1777586747.823912,response,right,x,1,1777586741.11678,6.707131862640381,4,1,1.4677811573176331,1.4018503649373755,2.4805103927598826,2.727616699395481,140,255055.00000000003,68,77.5,0,0,6,0,0,0,5.0,33.0,-985.0
1777586747.875069,response,right,x,1,1777586741.11678,6.758288860321045,4,1,1.4966917419817203,1.3882602962172992,2.499814459233145,2.734785173694636,140,255050.0,68,77.5,0,0,6,0,0,0,1.0,-4.0,-965.0
1777586747.9254851,response,right,x,1,1777586741.11678,6.80870509147644,4,1,1.5197980419325765,1.3996310804799368,2.5053204115884022,2.7397968140566107,140,255050.0,68,77.5,0,0,6,0,0,0,1.0,-4.0,-965.0
1777586747.975771,response,right,x,1,1777586741.11678,6.858990907669067,4,1,1.4970334915907952,1.3934823128444602,2.506238927482159,2.7424835416357647,140,255050.0,68,77.5,0,0,6,0,0,0,-27.0,29.0,-966.0
1777586748.026491,response,right,x,1,1777586741.11678,6.909710884094238,4,1,1.4970334915907952,1.3934823128444602,2.506238927482159,2.7424835416357647,140,255050.0,68,77.5,0,0,6,0,0,0,-27.0,29.0,-966.0
1777586748.086535,response,right,x,1,1777586741.11678,6.969754934310913,4,1,1.4696225244960917,1.3649574169829513,2.5258933682520506,2.75546373427269,140,255048.0,68,77.5,0,0,6,0,0,0,7.0,20.0,-977.0
1777586748.136794,response,right,x,1,1777586741.11678,7.020014047622681,4,1,1.4985472733296672,1.3935036420168405,2.506087079114349,2.742075267364068,140,255054.0,68,77.5,0,0,6,0,0,0,30.0,-1.0,-997.0
1777586748.1869419,response,right,x,1,1777586741.11678,7.070161819458008,4,1,1.490108222846131,1.4201780286496368,2.501447524284191,2.7491803417193457,140,255054.0,68,77.5,0,0,6,0,0,0,30.0,-1.0,-997.0
1777586748.23725,response,right,x,1,1777586741.11678,7.12047004699707,4,1,1.4426619210144858,1.3799639569047661,2.5061236410253294,2.7480194313770356,140,255054.0,68,77.5,0,0,6,0,0,0,30.0,-1.0,-997.0
1777586748.287301,response,right,x,1,1777586741.11678,7.170521020889282,4,1,1.4765404200207857,1.366242639765674,2.5260053850865662,2.7546938080773486,140,255064.0,68,77.5,0,0,6,0,0,0,15.0,19.0,-1023.0
1777586748.3376188,response,right,x,1,1777586741.11678,7.220838785171509,4,1,1.4731424886972437,1.3682915932225175,2.5337683667295305,2.7631774432636003,140,255064.0,68,77.5,0,0,6,0,0,0,15.0,19.0,-1023.0
1777586748.3873012,response,right,x,1,1777586741.11678,7.27052116394043,4,1,1.493144334007018,1.4230829797715958,2.4997052780303393,2.7481135214288823,140,255059.0,68,77.5,0,0,6,0,0,0,12.0,-3.0,-1028.0
1777586748.437378,response,right,x,1,1777586741.11678,7.320597887039185,4,1,1.4777186498928505,1.37114511677165,2.5332383595141073,2.7628241407322496,140,255059.0,68,77.5,0,0,6,0,0,0,12.0,-3.0,-1028.0
1777586748.487134,response,right,x,1,1777586741.11678,7.370353937149048,4,1,1.4733956758851385,1.391602616633142,2.51368106893616,2.75303112583534,140,255055.00000000003,68,77.5,0,0,6,0,0,0,16.0,15.0,-1013.0
1777586748.537293,response,right,x,1,1777586741.11678,7.420512914657593,4,1,1.4970680393262863,1.401072422675861,2.520083708640596,2.757881152454718,140,255055.00000000003,68,77.5,0,0,6,0,0,0,18.0,6.0,-988.0
