timestamp,elapsed,phase,mission_state,target_x,target_y,target_z,pos_x,pos_y,pos_z,marker_id,err_x_cm,err_y_cm,err_z_cm,err_3d_cm,cmd_lr,cmd_fb,cmd_ud,publish_count,tello_height_cm,tello_baro_cm,tello_battery,tello_temp_c,tello_pitch,tello_roll,tello_yaw,tello_vgx,tello_vgy,tello_vgz
1778194926.673131,1.0967254638671875e-05,wait_slave,2,0.1162810695318089,0.751453937720247,3.7224819787658725,0.14510425598704657,0.7654675422472594,3.7284384441980376,2,-2.8823186455237666,-1.401360452701239,-0.5956465432165103,3.259810837636865,-16,3,-7,1,90,251701.00000000003,83,84.0,0,0,1,0,0,0
1778194926.7450209,0.07190084457397461,wait_slave,2,0.1162810695318089,0.751453937720247,3.7224819787658725,0.14510425598704657,0.7654675422472594,3.7284384441980376,2,-2.8823186455237666,-1.401360452701239,-0.5956465432165103,3.259810837636865,-1,0,0,4,90,251701.00000000003,83,84.0,0,0,1,0,0,0
1778194926.8190038,0.14588379859924316,wait_slave,2,0.1162810695318089,0.751453937720247,3.7224819787658725,0.14510425598704657,0.7654675422472594,3.7284384441980376,2,-2.8823186455237666,-1.401360452701239,-0.5956465432165103,3.259810837636865,-1,0,-1,8,90,251701.00000000003,82,84.0,0,0,1,0,0,0
1778194926.891045,0.2179250717163086,wait_slave,2,0.1162810695318089,0.751453937720247,3.7224819787658725,0.14510425598704657,0.7654675422472594,3.7284384441980376,2,-2.8823186455237666,-1.401360452701239,-0.5956465432165103,3.259810837636865,-1,0,-1,12,90,251701.00000000003,82,84.0,0,0,1,0,0,0
1778194926.964732,0.291611909866333,wait_slave,2,0.1162810695318089,0.751453937720247,3.7224819787658725,0.14510425598704657,0.7654675422472594,3.7284384441980376,2,-2.8823186455237666,-1.401360452701239,-0.5956465432165103,3.259810837636865,-1,0,-1,15,90,251701.00000000003,82,84.0,0,0,1,0,0,0
1778194927.0417762,0.3686561584472656,wait_slave,2,0.1162810695318089,0.751453937720247,3.7224819787658725,0.14510425598704657,0.7654675422472594,3.7284384441980376,2,-2.8823186455237666,-1.401360452701239,-0.5956465432165103,3.259810837636865,-1,0,-1,19,90,251701.00000000003,82,84.0,0,0,1,0,0,0
1778194927.118314,0.4451940059661865,wait_slave,2,0.1162810695318089,0.751453937720247,3.7224819787658725,0.027027638719921532,0.719724545629121,3.6905915551574093,2,8.925343081188737,3.172939209112602,3.189042360846317,9.994962907430923,30,-14,17,23,90,251702.0,82,84.5,0,0,1,0,0,0
1778194927.190372,0.5172519683837891,wait_slave,2,0.1162810695318089,0.751453937720247,3.7224819787658725,0.027027638719921532,0.719724545629121,3.6905915551574093,2,8.925343081188737,3.172939209112602,3.189042360846317,9.994962907430923,5,-1,2,27,90,251702.0,82,84.5,0,0,1,0,0,0
1778194927.259997,0.5868768692016602,wait_slave,2,0.1162810695318089,0.751453937720247,3.7224819787658725,-0.041134494429434065,0.7592277391484112,3.664167315627972,2,15.741556396124295,-0.7773801428164195,5.831466313790035,16.804967034412027,30,-13,-14,30,90,251706.0,82,84.5,0,0,1,0,0,0
1778194927.32982,0.6566998958587646,wait_slave,2,0.1162810695318089,0.751453937720247,3.7224819787658725,0.20231198087771807,0.9441742310294754,3.713748972032246,2,-8.603091134590917,-19.272029330922834,0.8733006733626425,21.123137685204878,-30,17,-30,34,90,251704.0,82,84.5,0,0,1,0,0,0
1778194927.399332,0.7262120246887207,wait_slave,2,0.1162810695318089,0.751453937720247,3.7224819787658725,0.1722482432540906,0.8591930540624139,3.7298108126291933,2,-5.59671737222817,-10.773911634216681,-0.7328833863320838,12.16295750648138,7,6,22,37,90,251704.0,82,84.5,0,0,1,0,0,0
1778194927.471381,0.7982609272003174,wait_slave,2,0.1162810695318089,0.751453937720247,3.7224819787658725,0.1722482432540906,0.8591930540624139,3.7298108126291933,2,-5.59671737222817,-10.773911634216681,-0.7328833863320838,12.16295750648138,-3,0,-7,41,90,251704.0,82,84.5,0,0,1,0,0,0
1778194927.542956,0.8698360919952393,wait_slave,2,0.1162810695318089,0.751453937720247,3.7224819787658725,0.1437130802680171,0.760852551893962,3.7277612412876815,2,-2.7432010736208197,-0.9398614173714903,-0.5279262521808992,2.9474052558003856,8,0,30,44,90,251712.0,82,84.5,0,0,1,0,0,0
1778194927.6146932,0.9415731430053711,wait_slave,2,0.1162810695318089,0.751453937720247,3.7224819787658725,0.17796979966853266,0.8495987296970275,3.715508280195291,2,-6.168873013672376,-9.81447919767805,0.6973698570581721,11.61315292666052,-15,-4,-30,48,90,251712.0,82,84.5,0,0,1,0,0,0
1778194927.685465,1.0123450756072998,wait_slave,2,0.1162810695318089,0.751453937720247,3.7224819787658725,0.2668367567167813,0.8307604743174225,3.7552199736575322,2,-15.055568718497241,-7.930653659717546,-3.273799489165974,17.328680850054553,-30,16,0,51,90,251706.0,82,84.5,0,-1,1,0,0,0
1778194927.754672,1.0815520286560059,wait_slave,2,0.1162810695318089,0.751453937720247,3.7224819787658725,0.2738586885790668,0.8275810657596514,3.7413589166122856,2,-15.757761904725792,-7.612712803940436,-1.8876937846413089,17.601813665241416,-12,-3,-4,55,90,251701.00000000003,82,84.5,0,-2,1,0,0,0
1778194927.82493,1.1518099308013916,wait_slave,2,0.1162810695318089,0.751453937720247,3.7224819787658725,0.035234117946684074,0.721943958669554,3.674743172708173,2,8.104695158512483,2.950997905069308,4.773880605769953,9.858215268814412,30,-26,30,58,90,251701.00000000003,82,84.5,0,-1,1,0,0,0
1778194927.8955991,1.2224791049957275,wait_slave,2,0.1162810695318089,0.751453937720247,3.7224819787658725,0.14789946351710193,0.763085870920237,3.712105363087741,2,-3.161839398529302,-1.1631933199990008,1.0376615678131529,3.52519341470775,-30,12,-15,62,90,251701.00000000003,82,84.5,0,-1,1,0,0,0
1778194927.965867,1.2927470207214355,wait_slave,2,0.1162810695318089,0.751453937720247,3.7224819787658725,0.1883082213718994,0.8554879652465904,3.70109614122864,2,-7.202715184009049,-10.403402752634339,2.1385837537232444,12.832904399517798,-18,-5,-30,65,90,251700.0,82,83.0,0,-1,1,0,0,0
1778194928.037899,1.364778995513916,wait_slave,2,0.1162810695318089,0.751453937720247,3.7224819787658725,0.18454449898356406,0.8540314489007922,3.6999514461629244,2,-6.826342945175516,-10.257751118054514,2.253053260294813,12.525839891952206,-3,-1,-7,69,90,251700.0,82,83.0,0,-1,1,0,0,0
1778194928.110477,1.437356948852539,wait_slave,2,0.1162810695318089,0.751453937720247,3.7224819787658725,-0.0023395350608379495,0.6429762192962192,3.66093852966369,2,11.862060459264685,10.847771842402787,6.154344910218246,17.212164116054865,30,-17,30,73,90,251696.0,82,83.0,0,-1,1,0,0,0
1778194928.182613,1.5094928741455078,wait_slave,2,0.1162810695318089,0.751453937720247,3.7224819787658725,0.15791385955668613,0.7600078265837873,3.699071483216092,2,-4.163279002487723,-0.8553888863540249,2.3410495549780475,4.8523288448245205,-30,11,-30,76,90,251704.0,82,83.0,0,0,1,0,0,0
1778194928.255095,1.581974983215332,wait_slave,2,0.1162810695318089,0.751453937720247,3.7224819787658725,0.16073107404377251,0.7551238903094425,3.6836723963840967,2,-4.4450004511963614,-0.36699525891954465,3.8809582381775787,5.912237425686125,-3,-7,0,80,90,251696.99999999997,82,83.0,0,-1,1,0,0,0
1778194928.325878,1.6527578830718994,wait_slave,2,0.1162810695318089,0.751453937720247,3.7224819787658725,0.08425622982244374,0.7900087742785271,3.6586007576385136,2,3.2024839709365165,-3.855483655828007,6.3881221127358945,8.119652820883879,28,-12,-15,83,90,251702.0,82,83.0,0,-1,1,0,0,0
1778194928.396565,1.723444938659668,wait_slave,2,0.1162810695318089,0.751453937720247,3.7224819787658725,0.05001643986832838,0.7071318613070854,3.649251067926052,2,6.626462966348052,4.432207641316166,7.323091083982058,10.82506993254183,15,-7,30,87,90,251710.0,82,83.0,0,0,1,0,0,0
1778194928.4687989,1.7956788539886475,wait_slave,2,0.1162810695318089,0.751453937720247,3.7224819787658725,0.05067041922947324,0.7110127570658124,3.649473767286777,2,6.561065030233566,4.044118065443469,7.300821147909531,10.61623542937717,3,-4,0,90,90,251710.0,82,83.0,0,0,1,0,0,0
1778194928.539244,1.866123914718628,wait_slave,2,0.1162810695318089,0.751453937720247,3.7224819787658725,0.05067041922947324,0.7110127570658124,3.649473767286777,2,6.561065030233566,4.044118065443469,7.300821147909531,10.61623542937717,3,-4,2,94,90,251700.0,82,83.0,0,0,1,0,0,0
1778194928.611264,1.9381439685821533,wait_slave,2,0.1162810695318089,0.751453937720247,3.7224819787658725,0.08857722082405739,0.7883924087499841,3.6444264728723375,2,2.7703848707751515,-3.693847102973702,7.805550589353505,9.068966796461652,-11,-6,-30,98,90,251703.00000000003,82,83.0,0,0,1,0,0,0
1778194928.682911,2.0097908973693848,wait_slave,2,0.1162810695318089,0.751453937720247,3.7224819787658725,0.20268067814362878,0.8377968080647726,3.6761620517034355,2,-8.639960861181988,-8.634287034452559,4.631992706243704,13.06350614141422,-30,7,-23,101,90,251703.00000000003,82,83.0,0,0,1,0,0,0
1778194928.753991,2.0808708667755127,wait_slave,2,0.1162810695318089,0.751453937720247,3.7224819787658725,0.22719413259811128,0.9250328866988166,3.6577800012731703,2,-11.091306306630237,-17.35789489785695,6.470197749270223,21.591133591991078,-15,-10,-30,105,90,251705.00000000003,82,83.0,0,0,1,0,0,0
1778194928.825399,2.1522789001464844,wait_slave,2,0.1162810695318089,0.751453937720247,3.7224819787658725,0.08643950361908492,0.7881286960756106,3.6425773314255196,2,2.984156591272398,-3.66747583553636,7.990464734035285,9.284562253081145,30,-10,30,108,90,251696.0,81,83.0,0,0,1,0,0,0
1778194928.896947,2.2238268852233887,wait_slave,2,0.1162810695318089,0.751453937720247,3.7224819787658725,0.08643950361908492,0.7881286960756106,3.6425773314255196,2,2.984156591272398,-3.66747583553636,7.990464734035285,9.284562253081145,1,-5,-3,112,90,251696.0,81,83.0,0,0,1,0,0,0
1778194928.969975,2.2968549728393555,wait_slave,2,0.1162810695318089,0.751453937720247,3.7224819787658725,0.08643950361908492,0.7881286960756106,3.6425773314255196,2,2.984156591272398,-3.66747583553636,7.990464734035285,9.284562253081145,1,-5,-3,116,90,251692.99999999997,81,83.5,0,-1,1,0,0,0
1778194929.041755,2.3686349391937256,wait_slave,2,0.1162810695318089,0.751453937720247,3.7224819787658725,0.14478809182688035,0.9466438058563774,3.633090312688814,2,-2.8507022295071445,-19.518986813613036,8.93916660770584,21.657009236541406,-22,-9,-30,119,90,251692.99999999997,81,83.5,0,-1,1,0,0,0
1778194929.114055,2.440934896469116,wait_slave,2,0.1162810695318089,0.751453937720247,3.7224819787658725,0.12660277663954111,0.8670854991007797,3.617295675646488,2,-1.0321707107732212,-11.563156138053266,10.518630311938448,15.665680319999106,5,-12,18,123,90,251703.00000000003,81,83.5,0,-1,1,0,0,0
1778194929.1858041,2.5126841068267822,wait_slave,2,0.1162810695318089,0.751453937720247,3.7224819787658725,0.09856136370162372,0.7832583532855071,3.63170439972455,2,1.7719705830185186,-3.1804415565260036,9.077757904132255,9.780632740656209,10,-1,26,126,90,251703.00000000003,81,83.5,0,-1,1,0,0,0
1778194929.256493,2.5833730697631836,wait_slave,2,0.1162810695318089,0.751453937720247,3.7224819787658725,0.09554785902204799,0.7867684359375519,3.629888652260008,2,2.0733210509760918,-3.5314498217304813,9.25933265058645,10.124477228876419,2,-6,-4,130,90,251704.0,81,83.5,0,0,1,0,0,0
1778194929.328115,2.6549949645996094,wait_slave,2,0.1162810695318089,0.751453937720247,3.7224819787658725,0.17578431784895376,0.7474338905260831,3.657659041025927,2,-5.950324831714486,0.4020047194163934,6.482293773994563,8.808411092229958,-30,5,12,133,90,251700.0,81,83.5,0,-1,1,0,0,0
1778194929.399127,2.7260069847106934,wait_slave,2,0.1162810695318089,0.751453937720247,3.7224819787658725,0.17705561899348976,0.7475980371074863,3.6586209203219475,2,-6.077454946168086,0.3855900612760754,6.386105844392498,8.824198897001462,-4,-4,0,137,90,251700.0,81,83.5,0,-1,1,0,0,0
1778194929.471118,2.7979979515075684,wait_slave,2,0.1162810695318089,0.751453937720247,3.7224819787658725,0.10429302282978659,0.7774977860176243,3.6189829695879636,2,1.1988046702022317,-2.604384829737727,10.349900917790888,10.739664891734535,25,-20,-13,141,90,251702.0,81,83.5,0,-1,1,0,0,0
1778194929.543179,2.870059013366699,wait_slave,2,0.1162810695318089,0.751453937720247,3.7224819787658725,0.10429302282978659,0.7774977860176243,3.6189829695879636,2,1.1988046702022317,-2.604384829737727,10.349900917790888,10.739664891734535,0,-7,-2,144,90,251698.99999999997,81,83.5,0,0,1,0,0,0
1778194929.615869,2.9427490234375,wait_slave,2,0.1162810695318089,0.751453937720247,3.7224819787658725,0.13831454041596802,0.6656205299116631,3.6472007777083744,2,-2.203347088415912,8.583340780858395,7.528120105749814,11.62759948050208,-13,4,30,148,90,251698.99999999997,81,83.5,0,0,1,0,0,0
1778194929.689713,3.0165929794311523,wait_slave,2,0.1162810695318089,0.751453937720247,3.7224819787658725,0.13984070642736002,0.6607054444990875,3.647346435815768,2,-2.3559636895551113,9.074849322115952,7.513554295010438,12.014863847321795,-2,-5,7,152,90,251708.0,81,83.5,0,-1,1,0,0,0
1778194929.761973,3.088852882385254,wait_slave,2,0.1162810695318089,0.751453937720247,3.7224819787658725,0.06999155090872178,0.7014483751113727,3.608592991177975,2,4.628951862308712,5.000556260887434,11.388898758789745,13.271766016617171,26,-21,-11,155,90,251706.0,81,83.5,0,-1,1,0,0,0
1778194929.8332741,3.160154104232788,wait_slave,2,0.1162810695318089,0.751453937720247,3.7224819787658725,0.10429298978850254,0.7761975905630688,3.6193533337686543,2,1.198807974330636,-2.474365284282176,10.312864499721819,10.67308757150442,-11,-3,-29,159,90,251706.0,81,83.5,0,-1,1,0,0,0
1778194929.9043431,3.2312231063842773,wait_slave,2,0.1162810695318089,0.751453937720247,3.7224819787658725,0.13991280787152582,0.666823253558034,3.6471334356976985,2,-2.363173833971692,8.463068416221308,7.534854306817396,11.575065745479623,-14,3,30,162,90,251692.0,81,83.5,0,0,1,0,0,0
1778194929.9779341,3.304814100265503,wait_slave,2,0.1162810695318089,0.751453937720247,3.7224819787658725,0.06904474655174653,0.706936376156132,3.6072939351075433,2,4.723632298006238,4.451756156411502,11.518804365832924,13.221712785461914,27,-21,-11,166,90,251704.0,81,83.0,0,0,1,0,0,0
1778194930.04967,3.3765499591827393,wait_slave,2,0.1162810695318089,0.751453937720247,3.7224819787658725,0.10651117234506136,0.7764021500228547,3.620004636119666,2,0.9769897186747547,-2.4948212302607686,10.247734264620645,10.592199933896456,-12,-3,-26,170,90,251702.0,81,83.0,0,0,1,0,0,0
1778194930.12199,3.4488699436187744,wait_slave,2,0.1162810695318089,0.751453937720247,3.7224819787658725,0.18394245304039425,0.7399109360624275,3.644338035875461,2,-6.766138350858535,1.1543001657819518,7.814394289041138,10.400855501365339,-30,2,12,173,90,251702.0,81,83.0,0,0,1,0,0,0
1778194930.193376,3.5202560424804688,wait_slave,2,0.1162810695318089,0.751453937720247,3.7224819787658725,0.13695250590332242,0.664200543778908,3.6464741972391126,2,-2.0671436371513514,8.725339394133902,7.600778152675991,11.75484831402077,14,-5,30,177,90,251700.0,81,83.0,0,0,1,0,0,0
1778194930.264631,3.5915110111236572,wait_slave,2,0.1162810695318089,0.751453937720247,3.7224819787658725,0.21341040463432492,0.8295397176542734,3.6488629376272037,2,-9.712933510251602,-7.808577993402633,7.3619041138668795,14.474550073677264,-30,-5,-30,180,90,251691.0,81,83.0,0,0,1,0,0,0
1778194930.336108,3.6629879474639893,wait_slave,2,0.1162810695318089,0.751453937720247,3.7224819787658725,0.10175908288412772,0.7839541916344965,3.616168416368637,2,1.4521986647681187,-3.250025391424949,10.631356239723555,11.21147989797824,30,-19,12,184,90,251691.0,81,83.0,0,0,1,0,0,0
1778194930.408128,3.7350080013275146,wait_slave,2,0.1162810695318089,0.751453937720247,3.7224819787658725,0.06799709251823471,0.7039300265310882,3.6060624479551473,2,4.828397701357419,4.752391118915888,11.64195308107252,13.46973337715035,14,-12,29,188,90,251694.99999999997,81,83.0,0,0,1,0,0,0
1778194930.4818912,3.8087711334228516,wait_slave,2,0.1162810695318089,0.751453937720247,3.7224819787658725,0.18264531376663473,0.7440164042670248,3.642299501580544,2,-6.636424423482583,0.7437533453222289,8.018247718532834,10.434921880063651,-30,5,-13,191,90,251694.99999999997,81,83.0,0,0,1,0,0,0
1778194930.555354,3.8822340965270996,wait_slave,2,0.1162810695318089,0.751453937720247,3.7224819787658725,0.10064339708771186,0.7862881527194215,3.6145166891267406,2,1.5637672444097042,-3.4834214999174495,10.796528963913188,11.451839634285498,28,-17,-17,195,90,251696.0,81,83.0,0,-1,1,0,0,0
1778194930.627955,3.9548349380493164,wait_slave,2,0.1162810695318089,0.751453937720247,3.7224819787658725,0.32150949059904577,0.9119234665264631,3.663730901915865,2,-20.522842106723687,-16.0469528806216,5.875107685000769,26.705966284722894,-30,11,-30,198,90,251708.0,81,83.0,0,-1,1,0,0,0
1778194930.700564,4.027443885803223,wait_slave,2,0.1162810695318089,0.751453937720247,3.7224819787658725,0.09954436207183581,0.7873267280017823,3.6132489700839874,2,1.673670745997309,-3.5872790281535227,10.923300868188512,11.618444235301263,30,-25,30,202,90,251704.0,81,83.0,0,0,1,0,0,0
1778194930.7721238,4.099003791809082,wait_slave,2,0.1162810695318089,0.751453937720247,3.7224819787658725,0.06141674980554279,0.710941017094045,3.617516347721422,2,5.486431972626611,4.051292062620204,10.496563104445045,12.517657135922281,16,-6,28,206,90,251704.0,81,83.0,0,0,1,0,0,0
1778194930.843783,4.170662879943848,wait_slave,2,0.1162810695318089,0.751453937720247,3.7224819787658725,0.17075473424318632,0.7521593880279203,3.6525346039846665,2,-5.447366471137742,-0.07054503076732166,6.994737478120605,8.865953443373511,-30,6,-15,209,90,251705.00000000003,80,83.0,0,-1,1,0,0,0
1778194930.91471,4.2415900230407715,wait_slave,2,0.1162810695318089,0.751453937720247,3.7224819787658725,0.29401986804267466,0.8151399870723133,3.6808527681878855,2,-17.773879851086576,-6.368604935206623,4.162921057798696,19.333904042253426,-30,5,-27,213,90,251701.00000000003,80,83.5,0,-1,1,0,0,0
1778194930.984944,4.311824083328247,wait_slave,2,0.1162810695318089,0.751453937720247,3.7224819787658725,0.09769680233489819,0.7825291469954438,3.611716524872474,2,1.858426719691071,-3.1075209275196802,11.076545389339865,11.653338317818662,30,-30,8,216,90,251701.00000000003,80,83.5,0,-1,1,0,0,0
1778194931.057452,4.384331941604614,wait_slave,2,0.1162810695318089,0.751453937720247,3.7224819787658725,0.16952477761750284,0.7532518429775565,3.6513069588469445,2,-5.324370808569394,-0.17979052573094956,7.117501991892805,8.890449018181622,-28,7,8,220,90,251707.00000000003,80,83.5,0,0,1,0,0,0
1778194931.1298401,4.4567201137542725,wait_slave,2,0.1162810695318089,0.751453937720247,3.7224819787658725,0.05850991120937854,0.7130803492922042,3.6142658114011015,2,5.7771158322430365,3.8373588428042837,10.821616736477102,12.853317821434384,30,-21,15,224,90,251707.00000000003,80,83.5,0,0,1,0,0,0
1778194931.2012491,4.5281291007995605,wait_slave,2,0.1162810695318089,0.751453937720247,3.7224819787658725,0.16609393781679416,0.7538753302056964,3.6484002026699733,2,-4.981286828498526,-0.24213924854493696,7.408177609589917,8.930450457770212,-30,5,-15,227,90,251714.0,80,83.5,0,0,1,0,0,0
1778194931.272525,4.59940505027771,wait_slave,2,0.1162810695318089,0.751453937720247,3.7224819787658725,0.16609393781679416,0.7538753302056964,3.6484002026699733,2,-4.981286828498526,-0.24213924854493696,7.408177609589917,8.930450457770212,-3,-6,-1,231,90,251696.0,80,83.5,0,0,1,0,0,0
1778194931.344469,4.671349048614502,wait_slave,2,0.1162810695318089,0.751453937720247,3.7224819787658725,0.09198882567075228,0.7856463177330778,3.6231792419039413,2,2.429224386105662,-3.419238001283076,9.930273686193125,10.779733536139394,26,-16,-14,234,90,251705.00000000003,80,83.5,0,-1,1,0,0,0
1778194931.414612,4.741492033004761,wait_slave,2,0.1162810695318089,0.751453937720247,3.7224819787658725,0.310750335001996,0.912311804929643,3.6725539385117885,2,-19.446926547018712,-16.0857867209396,4.992804025408404,25.72670943966274,-30,12,-30,238,90,251710.0,80,83.5,0,-1,1,0,0,0
1778194931.4871092,4.813989162445068,wait_slave,2,0.1162810695318089,0.751453937720247,3.7224819787658725,0.19298319146271092,0.8458009940490852,3.6491497535746094,2,-7.670212193090202,-9.43470563288381,7.3332225191263145,14.19936540769412,30,-14,15,241,90,251710.0,80,83.5,0,-1,1,0,0,0
1778194931.559218,4.8860979080200195,wait_slave,2,0.1162810695318089,0.751453937720247,3.7224819787658725,0.08730440490677793,0.7895329753444449,3.6198262906062757,2,2.8976664625030972,-3.8079037624197842,10.26556881595968,11.326010114200402,30,-18,15,245,90,251696.99999999997,80,83.5,0,-1,1,0,0,0
1778194931.6310358,4.957915782928467,wait_slave,2,0.1162810695318089,0.751453937720247,3.7224819787658725,0.15898655178490895,0.7591487390388354,3.6599240899586167,2,-4.270548225310004,-0.7694801318588351,6.255788880725577,7.613447073319265,-28,7,8,249,100,251708.0,80,83.5,0,0,1,0,0,0
1778194931.702042,5.028922080993652,wait_slave,2,0.1162810695318089,0.751453937720247,3.7224819787658725,0.15898655178490895,0.7591487390388354,3.6599240899586167,2,-4.270548225310004,-0.7694801318588351,6.255788880725577,7.613447073319265,-3,-6,-1,252,100,251708.0,80,83.5,0,0,1,0,0,0
1778194931.775146,5.102025985717773,wait_slave,2,0.1162810695318089,0.751453937720247,3.7224819787658725,0.15898655178490895,0.7591487390388354,3.6599240899586167,2,-4.270548225310004,-0.7694801318588351,6.255788880725577,7.613447073319265,-3,-6,-1,256,100,251703.00000000003,80,83.5,0,0,1,0,0,0
1778194931.849699,5.176578998565674,wait_slave,2,0.1162810695318089,0.751453937720247,3.7224819787658725,0.08584735808478039,0.7864413982940521,3.6210013141468362,2,3.0433711447028515,-3.4987460573805085,10.148066461903626,11.15735563714175,25,-21,-13,260,100,251708.0,80,83.5,0,0,1,0,0,0
1778194931.92191,5.24879002571106,wait_slave,2,0.1162810695318089,0.751453937720247,3.7224819787658725,0.15496385717619887,0.7663306541884898,3.6571557098396537,2,-3.8682787644389967,-1.4876716468242734,6.5326268926218845,7.736404956204218,-27,6,4,263,100,251708.0,80,83.5,0,0,1,0,0,0
1778194931.992457,5.319336891174316,wait_slave,2,0.1162810695318089,0.751453937720247,3.7224819787658725,0.15890787092019143,0.760305640254058,3.6596202281606214,2,-4.2626801388382525,-0.8851702533810957,6.286175060525112,7.646565584305463,-4,-5,0,267,100,251698.0,80,83.0,0,0,1,0,0,0
1778194932.066048,5.392927885055542,wait_slave,2,0.1162810695318089,0.751453937720247,3.7224819787658725,0.15859459756524785,0.7559369053767773,3.6598392682670386,2,-4.231352803343895,-0.44829676565302234,6.264271049883385,7.572741136660377,-3,-6,0,270,100,251698.0,80,83.0,0,0,1,0,0,0
1778194932.138622,5.465502023696899,wait_slave,2,0.1162810695318089,0.751453937720247,3.7224819787658725,0.24022793997278202,0.7214410819763116,3.7006040997061063,2,-12.394687044097312,3.001285574393542,2.1877879059766236,12.93918072915415,-30,10,12,274,100,251701.00000000003,80,83.0,0,-1,1,0,0,0
1778194932.2095768,5.536456823348999,wait_slave,2,0.1162810695318089,0.751453937720247,3.7224819787658725,0.07746632199796133,0.797690107104664,3.6317757260369725,2,3.8814747533847576,-4.6236169384417,9.070625272889998,10.89586723009229,30,-30,-30,278,100,251700.0,80,83.0,0,0,1,0,0,0
1778194932.281423,5.608303070068359,wait_slave,2,0.1162810695318089,0.751453937720247,3.7224819787658725,0.08093760859912846,0.7925262277879568,3.633995447061945,2,3.534346093268044,-4.107229006770973,8.848653170392762,10.375914193504197,0,-7,-2,281,100,251709.0,80,83.0,0,-1,1,0,0,0
1778194932.352896,5.679775953292847,wait_slave,2,0.1162810695318089,0.751453937720247,3.7224819787658725,0.2999453948531938,0.9151484054341296,3.684980112644477,2,-18.366432532138493,-16.36944677138825,3.750186612139572,24.88671394910906,-30,12,-30,285,100,251709.0,80,83.0,0,-1,1,0,0,0
1778194932.425653,5.752532958984375,wait_slave,2,0.1162810695318089,0.751453937720247,3.7224819787658725,0.18971600684890655,0.8480890947521706,3.6635562796494416,2,-7.343493731709764,-9.66351570319236,5.892569911643086,13.491953753890032,30,-13,14,288,100,251698.99999999997,80,83.0,0,-1,1,0,0,0
1778194932.498038,5.824918031692505,wait_slave,2,0.1162810695318089,0.751453937720247,3.7224819787658725,0.18821006803358242,0.8444739771627499,3.665051580749827,2,-7.192899850177352,-9.30200394425028,5.743039801604555,13.086160315246914,-4,-5,-6,292,100,251705.00000000003,80,83.0,0,-1,1,0,0,0
1778194932.570743,5.897623062133789,wait_slave,2,0.1162810695318089,0.751453937720247,3.7224819787658725,0.04161793364027544,0.7167256574647121,3.6389174148907952,2,7.466313589153346,3.4728280255534982,8.356456387507727,11.731868413128593,30,-16,30,296,100,251708.0,80,83.0,0,0,1,0,0,0
1778194932.644715,5.971595048904419,wait_slave,2,0.1162810695318089,0.751453937720247,3.7224819787658725,0.189216455959474,0.8448531947614426,3.6657927485552597,2,-7.29353864276651,-9.339925704119556,5.668923021061278,13.136460950755346,-30,2,-30,299,100,251708.0,80,83.0,0,0,1,0,0,0
1778194932.717058,6.043937921524048,wait_slave,2,0.1162810695318089,0.751453937720247,3.7224819787658725,0.004807174401034842,0.6456417771606344,3.6242475079085397,2,11.147389513077407,10.581216055961262,9.823447085733283,18.240793261955528,30,-23,30,303,100,251707.00000000003,80,83.0,0,0,1,0,0,0
1778194932.789994,6.1168739795684814,wait_slave,2,0.1162810695318089,0.751453937720247,3.7224819787658725,0.15341165353006592,0.7626031457840765,3.676153846117349,2,-3.713058399825701,-1.1149208063829463,4.6328132648523646,6.040927894952382,-30,12,-30,307,100,251698.99999999997,80,83.0,0,0,1,0,0,0
1778194932.8618329,6.18871283531189,wait_slave,2,0.1162810695318089,0.751453937720247,3.7224819787658725,0.15341165353006592,0.7626031457840765,3.676153846117349,2,-3.713058399825701,-1.1149208063829463,4.6328132648523646,6.040927894952382,-3,-5,-2,310,100,251698.99999999997,80,83.0,0,0,1,0,0,0
1778194932.932151,6.259031057357788,wait_slave,2,0.1162810695318089,0.751453937720247,3.7224819787658725,0.04784941756843786,0.7172635963933881,3.6254433872652068,2,6.843165196337105,3.419034132685894,9.703859150066574,12.356520008042773,30,-26,16,314,100,251709.0,79,83.0,0,0,1,0,0,0
1778194933.0036402,6.330520153045654,wait_slave,2,0.1162810695318089,0.751453937720247,3.7224819787658725,0.1544642648172797,0.7628656151124984,3.6769719305116335,2,-3.81831952854708,-1.1411677392251351,4.551004825423899,6.049253900454486,-30,12,-18,317,100,251706.0,79,82.5,0,0,1,0,0,0
1778194933.077054,6.403934001922607,wait_slave,2,0.1162810695318089,0.751453937720247,3.7224819787658725,0.2794480362039057,0.820882186444156,3.707414984234153,2,-16.31669666720968,-6.942824872390895,1.5066994531719669,17.79627912178863,-30,6,-26,321,100,251707.00000000003,79,82.5,0,0,1,0,0,0
1778194933.148366,6.475245952606201,wait_slave,2,0.1162810695318089,0.751453937720247,3.7224819787658725,0.27880577671414,0.8267150329556278,3.706369563407985,2,-16.25247071823311,-7.5261095235380715,1.6112415357887322,17.98280368279557,-10,-4,-8,324,100,251707.00000000003,79,82.5,0,0,1,0,0,0
1778194933.219532,6.546411991119385,wait_slave,2,0.1162810695318089,0.751453937720247,3.7224819787658725,0.04872346953413442,0.7185094745524299,3.6260343552924446,2,6.755759999767448,3.2944463167817184,9.644762347342795,12.227637157085411,30,-30,30,328,100,251707.00000000003,79,82.5,0,0,1,0,0,0
1778194933.292166,6.619045972824097,wait_slave,2,0.1162810695318089,0.751453937720247,3.7224819787658725,0.1565385777201408,0.7682441571896079,3.6758673679418674,2,-4.025750818833189,-1.6790219469360879,4.661461082400509,6.383964581383865,-30,11,-20,332,100,251702.0,79,82.5,0,-1,1,0,0,0
1778194933.364442,6.691322088241577,wait_slave,2,0.1162810695318089,0.751453937720247,3.7224819787658725,0.278465307632204,0.8280006003979705,3.7059619837356683,2,-16.21842381003951,-7.654666267772347,1.6519995030204182,18.010005244613563,-30,6,-27,335,100,251701.00000000003,79,82.5,0,-2,1,0,0,0
1778194933.436256,6.76313591003418,wait_slave,2,0.1162810695318089,0.751453937720247,3.7224819787658725,0.11378917572078384,0.6816532397510827,3.682048177503538,2,0.24918938110250616,6.980069796916433,4.043380126233442,8.070464209864191,30,-13,30,339,90,251698.0,79,82.5,0,-1,1,0,0,0
1778194933.505902,6.832782030105591,wait_slave,2,0.1162810695318089,0.751453937720247,3.7224819787658725,0.194584984877766,0.851201738313569,3.666935799163514,2,-7.830391534595709,-9.9747800593322,5.554617960235841,13.84431469959037,-30,-11,-30,342,90,251698.0,79,82.5,0,-1,1,0,0,0
1778194933.5803561,6.907236099243164,wait_slave,2,0.1162810695318089,0.751453937720247,3.7224819787658725,0.12179523784147273,0.6766659136753838,3.6692666962812828,2,-0.5514168309663823,7.478802404486329,5.321528248458973,9.195390629330019,22,-5,30,346,90,251701.00000000003,79,82.5,0,-1,1,0,0,0
1778194933.6530051,6.979885101318359,wait_slave,2,0.1162810695318089,0.751453937720247,3.7224819787658725,0.15754840601675724,0.764953072430019,3.679154493423643,2,-4.126733648494834,-1.3499134709771932,4.332748534222963,6.133914479804589,-16,-2,-30,350,90,251692.99999999997,79,82.5,0,0,1,0,0,0
1778194933.723684,7.0505640506744385,wait_slave,2,0.1162810695318089,0.751453937720247,3.7224819787658725,0.15754840601675724,0.764953072430019,3.679154493423643,2,-4.126733648494834,-1.3499134709771932,4.332748534222963,6.133914479804589,-3,-5,-2,353,90,251692.99999999997,79,82.5,0,0,1,0,0,0
1778194933.7960808,7.122960805892944,wait_slave,2,0.1162810695318089,0.751453937720247,3.7224819787658725,0.24997872495446982,0.725060392194733,3.7069241255475855,2,-13.369765542266093,2.6393545525514095,1.5557853218286954,13.716314777550757,-30,5,14,357,90,251692.99999999997,79,82.5,0,0,1,0,0,0
1778194933.8682508,7.195130825042725,wait_slave,2,0.1162810695318089,0.751453937720247,3.7224819787658725,0.15883782504789468,0.7640031597552372,3.6803527924080863,2,-4.255675551608578,-1.2549222034990204,4.2129186357786175,6.118356606890822,27,-15,-16,361,90,251702.0,79,82.5,0,0,1,0,0,0
1778194933.940414,7.267293930053711,wait_slave,2,0.1162810695318089,0.751453937720247,3.7224819787658725,0.15883782504789468,0.7640031597552372,3.6803527924080863,2,-4.255675551608578,-1.2549222034990204,4.2129186357786175,6.118356606890822,-4,-5,-2,364,90,251704.0,79,82.5,0,0,1,0,0,0
1778194934.012801,7.339680910110474,wait_slave,2,0.1162810695318089,0.751453937720247,3.7224819787658725,0.010257699018164534,0.6448153647505717,3.6297644163975615,2,10.602337051364437,10.663857296967539,9.271756236831097,17.666150319637815,30,-26,30,368,90,251703.00000000003,79,82.0,0,-1,1,0,0,0
1778194934.085075,7.411954879760742,wait_slave,2,0.1162810695318089,0.751453937720247,3.7224819787658725,0.1972542434579626,0.8453018524075042,3.6720992587562447,2,-8.09731739261537,-9.384791468725718,5.038272000962785,13.380024089062918,-30,8,-30,371,90,251698.0,79,82.0,0,-1,1,0,0,0
1778194934.1567628,7.483642816543579,wait_slave,2,0.1162810695318089,0.751453937720247,3.7224819787658725,0.19751296358075265,0.8440430761714979,3.6725268138342413,2,-8.123189404894376,-9.258913845125083,4.995516493163121,13.29168449568007,-6,-6,-7,375,90,251698.0,79,82.0,0,-1,1,0,0,0
1778194934.227433,7.5543129444122314,wait_slave,2,0.1162810695318089,0.751453937720247,3.7224819787658725,0.1668146439207433,0.7558449343023133,3.6684883220700075,2,-5.05335743889344,-0.4390996582066209,5.399365669586498,7.408264273699075,6,-8,29,378,90,251701.00000000003,79,82.0,0,-1,1,0,0,0
1778194934.2968268,7.623706817626953,wait_slave,2,0.1162810695318089,0.751453937720247,3.7224819787658725,0.12209818062781086,0.6754848797654602,3.671620989234456,2,-0.5817111096001957,7.596905795478682,5.086098953141649,9.160773332069647,14,-5,30,382,90,251698.99999999997,79,82.0,0,0,1,0,0,0
1778194934.3681338,7.695013761520386,wait_slave,2,0.1162810695318089,0.751453937720247,3.7224819787658725,0.16067983697394106,0.7564572485803303,3.683320917538984,2,-4.439876744213215,-0.500331086008321,3.916106122688845,5.94127291610078,-17,-1,-30,385,90,251696.0,79,82.0,0,-1,1,0,0,0
1778194934.438303,7.765182971954346,wait_slave,2,0.1162810695318089,0.751453937720247,3.7224819787658725,0.0535764294512453,0.7098791055861265,3.632617502401121,2,6.2704640080563605,4.15748321341205,8.986447636475159,11.72005233218876,30,-27,17,389,90,251696.0,79,82.0,0,-1,1,0,0,0
1778194934.509996,7.836875915527344,wait_slave,2,0.1162810695318089,0.751453937720247,3.7224819787658725,0.167133685885413,0.7491419761153983,3.6702516995254943,2,-5.08526163536041,0.23119616048487002,5.223027924037815,7.2933776989794055,-30,6,-15,393,90,251692.99999999997,79,82.0,0,0,1,0,0,0
1778194934.580549,7.907428979873657,wait_slave,2,0.1162810695318089,0.751453937720247,3.7224819787658725,0.052271474177531196,0.7062090802601557,3.6324980879275754,2,6.400959535427771,4.524485746009132,8.998389083829705,11.933744606954228,30,-22,16,396,90,251691.0,79,82.0,0,0,1,0,0,0
1778194934.650771,7.977650880813599,wait_slave,2,0.1162810695318089,0.751453937720247,3.7224819787658725,0.19750546903880317,0.8386102467859127,3.6741713757673784,2,-8.122439950699427,-8.715630906566563,4.83106029984941,12.855947902546799,-30,8,-30,400,90,251691.0,79,82.0,0,0,1,0,0,0
1778194934.7235682,8.050448179244995,wait_slave,2,0.1162810695318089,0.751453937720247,3.7224819787658725,0.05096855657150701,0.7038120780974877,3.632100260167875,2,6.53125129603019,4.764185962275935,9.038171859799737,12.12613961416901,30,-23,30,403,90,251692.99999999997,79,82.0,0,0,1,0,0,0
1778194934.7936,8.120480060577393,wait_slave,2,0.1162810695318089,0.751453937720247,3.7224819787658725,0.15820694417509085,0.7468578447357435,3.683926089360649,2,-4.192587464328194,0.4596092984503586,3.8555889405223365,5.714420043323916,-30,12,-16,407,90,251701.00000000003,79,82.0,0,0,1,0,0,0
1778194934.866505,8.193384885787964,wait_slave,2,0.1162810695318089,0.751453937720247,3.7224819787658725,0.04486941251203325,0.7017255700432299,3.6482779563882244,2,7.141165701977566,4.9728367677017165,7.420402237764812,11.436245995584907,30,-20,17,410,90,251701.00000000003,79,82.0,0,0,1,0,0,0
1778194934.939362,8.266242027282715,wait_slave,2,0.1162810695318089,0.751453937720247,3.7224819787658725,0.1172090243117544,0.6623843694756371,3.6713403100500557,2,-0.09279547799454918,8.906956824460998,5.114166871581682,10.271182680876247,-26,0,18,414,90,251696.0,78,82.0,0,0,1,0,0,0
1778194935.011917,8.338797092437744,wait_slave,2,0.1162810695318089,0.751453937720247,3.7224819787658725,0.04239328893052019,0.6995007512562151,3.646937867320022,2,7.388778060128871,5.195318646403191,7.55441114458506,11.77516474623338,28,-16,-10,418,90,251696.0,78,82.5,0,0,1,0,0,0
1778194935.082586,8.409466028213501,wait_slave,2,0.1162810695318089,0.751453937720247,3.7224819787658725,-0.027014828440336647,0.7433629031170446,3.619594036464855,2,14.329589797214554,0.8091034603202485,10.288794230101761,17.659305730274703,30,-19,-16,421,90,251706.0,78,82.5,0,0,1,0,0,0
1778194935.1528928,8.479772806167603,wait_slave,2,0.1162810695318089,0.751453937720247,3.7224819787658725,0.04113976019289323,0.6984411418117717,3.6462742462608437,2,7.514130933891567,5.30127959084753,7.620773250502877,11.94327902745234,-20,0,18,425,100,251700.0,78,82.5,0,0,1,0,0,0
1778194935.224328,8.551208019256592,wait_slave,2,0.1162810695318089,0.751453937720247,3.7224819787658725,0.10783481229116909,0.8529797187202715,3.647302183885214,2,0.8446257240639812,-10.15257810000244,7.517979488065851,12.661289439602061,-24,-8,-30,428,100,251700.0,78,82.5,0,0,1,0,0,0
1778194935.297117,8.62399697303772,wait_slave,2,0.1162810695318089,0.751453937720247,3.7224819787658725,0.07468436372805076,0.7733014359170869,3.6572743652486714,2,4.159670580375814,-2.1847498196839843,6.520761351720106,8.037183568759636,12,-4,24,432,100,251698.99999999997,78,82.5,0,0,1,0,0,0
1778194935.3693151,8.696195125579834,wait_slave,2,0.1162810695318089,0.751453937720247,3.7224819787658725,0.07468436372805076,0.7733014359170869,3.6572743652486714,2,4.159670580375814,-2.1847498196839843,6.520761351720106,8.037183568759636,1,-8,-3,436,100,251707.00000000003,78,82.5,0,0,1,0,0,0
1778194935.4421818,8.769061803817749,wait_slave,2,0.1162810695318089,0.751453937720247,3.7224819787658725,0.10366557351390993,0.8574610092551433,3.6619189827188023,2,1.2615496017898977,-10.60070715348963,6.056299604707016,12.273763255570675,-10,-6,-30,439,100,251704.0,78,82.5,0,0,1,0,0,0
1778194935.512904,8.839783906936646,wait_slave,2,0.1162810695318089,0.751453937720247,3.7224819787658725,-0.00011220575584158787,0.8074153323588205,3.6296713710566655,2,11.63932752876505,-5.596139463857341,9.281060770920702,15.903735764100604,30,-21,12,443,100,251704.0,78,82.5,0,0,1,0,0,0
1778194935.5850098,8.911889791488647,wait_slave,2,0.1162810695318089,0.751453937720247,3.7224819787658725,0.06995550263682582,0.7782155648430519,3.653358443558938,2,4.632556689498308,-2.676162712280483,6.912353520693459,8.740884368246684,-22,0,6,446,100,251696.99999999997,78,82.5,0,-1,1,0,0,0
1778194935.65671,8.983589887619019,wait_slave,2,0.1162810695318089,0.751453937720247,3.7224819787658725,0.17969727131302016,0.829789202354934,3.7028187115102194,2,-6.341620178121126,-7.833526463468699,1.966326725565315,10.268725535775596,-30,11,-25,450,100,251705.00000000003,78,82.5,0,0,1,0,0,0
1778194935.7286148,9.055494785308838,wait_slave,2,0.1162810695318089,0.751453937720247,3.7224819787658725,0.17969727131302016,0.829789202354934,3.7028187115102194,2,-6.341620178121126,-7.833526463468699,1.966326725565315,10.268725535775596,-5,-5,-7,453,100,251705.00000000003,78,82.5,0,0,1,0,0,0
1778194935.799434,9.126313924789429,wait_slave,2,0.1162810695318089,0.751453937720247,3.7224819787658725,0.10122731448601896,0.8544051095017782,3.6620910280516346,2,1.5053755045789943,-10.295117178153113,6.0390950714237945,12.030222874219119,27,-22,-17,457,100,251707.00000000003,78,82.5,0,0,1,0,0,0
1778194935.871496,9.198375940322876,wait_slave,2,0.1162810695318089,0.751453937720247,3.7224819787658725,-0.03585312416318387,0.7373295452063426,3.634036911902572,2,15.213419369499276,1.4124392513904405,8.844506686330034,17.654133002661464,30,-19,30,461,100,251703.00000000003,78,82.5,0,-1,1,0,0,0
1778194935.943597,9.270477056503296,wait_slave,2,0.1162810695318089,0.751453937720247,3.7224819787658725,0.09577651942439913,0.8586140867902012,3.677123045024134,2,2.0504550107409774,-10.716014906995419,4.535893374173838,11.815738230846812,-30,7,-30,464,100,251703.00000000003,78,82.5,0,-1,1,0,0,0
1778194936.015805,9.342684984207153,wait_slave,2,0.1162810695318089,0.751453937720247,3.7224819787658725,0.06587396431215009,0.779940048763193,3.6707125529282645,2,5.040710521965881,-2.848611104294596,5.176942583760802,7.766857942908702,12,-9,23,468,100,251691.0,78,82.0,0,-1,1,0,0,0
1778194936.087851,9.4147310256958,wait_slave,2,0.1162810695318089,0.751453937720247,3.7224819787658725,0.06422392518916775,0.7778861338630167,3.6890517991144427,2,5.205714434264115,-2.6432196142769704,3.3430179651429803,6.727692161185213,2,0,-3,471,100,251698.0,78,82.0,0,0,1,0,0,0
1778194936.15858,9.485460042953491,wait_slave,2,0.1162810695318089,0.751453937720247,3.7224819787658725,0.06879096325320877,0.7786472763305059,3.673783132274982,2,4.749010627860013,-2.7193338610258855,4.869884649089062,7.325548108277127,0,-12,-4,475,90,251702.0,78,82.0,0,0,1,0,0,0
1778194936.228836,9.555716037750244,wait_slave,2,0.1162810695318089,0.751453937720247,3.7224819787658725,0.09989433444337581,0.8577591402011819,3.6810814429655685,2,1.6386735088433093,-10.63052024809349,4.140053580030401,11.525331026015394,-10,-4,-30,479,90,251702.0,78,82.0,0,0,1,0,0,0
1778194936.300863,9.627743005752563,wait_slave,2,0.1162810695318089,0.751453937720247,3.7224819787658725,0.09989433444337581,0.8577591402011819,3.6810814429655685,2,1.6386735088433093,-10.63052024809349,4.140053580030401,11.525331026015394,0,-7,-9,482,90,251700.0,78,82.0,0,0,1,0,0,0
1778194936.37226,9.699140071868896,wait_slave,2,0.1162810695318089,0.751453937720247,3.7224819787658725,-0.07373775534147708,0.6715346203123909,3.637039126502368,2,19.001882487328597,7.991931740785619,8.544285226350468,22.31473327290409,30,-25,30,486,90,251692.0,78,82.0,0,0,1,0,0,0
1778194936.446145,9.773025035858154,wait_slave,2,0.1162810695318089,0.751453937720247,3.7224819787658725,0.072432145743766,0.7714407456738253,3.67762654898884,2,4.384892378804291,-1.9986807953578212,4.485542977703272,6.583471872822975,-30,6,-30,489,90,251692.0,78,82.0,0,0,1,0,0,0
1778194936.5151622,9.842042207717896,wait_slave,2,0.1162810695318089,0.751453937720247,3.7224819787658725,0.06835009022051475,0.7764762178597553,3.693182415838104,2,4.793097931129416,-2.5022280139508246,2.9299562927768363,6.149762327828609,3,0,-5,493,90,251696.99999999997,78,82.0,0,-1,1,0,0,0
1778194936.5840561,9.910936117172241,wait_slave,2,0.1162810695318089,0.751453937720247,3.7224819787658725,0.06947221794335501,0.7764423918301318,3.694158491544144,2,4.680885158845389,-2.4988454109884706,2.8323487221728616,6.014741352902169,1,-6,-3,496,90,251696.99999999997,78,82.0,0,0,1,0,0,0
1778194936.65601,9.982889890670776,wait_slave,2,0.1162810695318089,0.751453937720247,3.7224819787658725,-0.013143248785291606,0.6305350572227472,3.679101082234076,2,12.94243183171005,12.091888049749988,4.338089653179633,18.23566067257154,30,-12,30,500,90,251696.99999999997,78,82.0,0,0,1,0,0,0
1778194936.7289689,10.055848836898804,wait_slave,2,0.1162810695318089,0.751453937720247,3.7224819787658725,0.07061023762902707,0.7764165555300513,3.6951460564614824,2,4.567083190278183,-2.4962617809804244,2.733592230439008,5.878953837922323,-26,0,-30,504,90,251698.99999999997,78,82.0,0,0,1,0,0,0
1778194936.802909,10.129788875579834,wait_slave,2,0.1162810695318089,0.751453937720247,3.7224819787658725,0.03497629514047895,0.6987333327954073,3.6833046135627945,2,8.130477439132996,5.272060492483977,3.917736520307802,10.452174159820267,16,-11,27,507,90,251701.00000000003,78,82.0,0,0,1,0,0,0
1778194936.876555,10.203434944152832,wait_slave,2,0.1162810695318089,0.751453937720247,3.7224819787658725,0.03534458769655746,0.6933027038136133,3.684384773919164,2,8.093648183525143,5.815123390663379,3.8097204846708532,10.66943162209876,4,-6,3,511,90,251703.00000000003,78,82.0,0,0,1,0,0,0
1778194936.9485152,10.275395154953003,wait_slave,2,0.1162810695318089,0.751453937720247,3.7224819787658725,-0.03601415467706626,0.7331532809698829,3.6582312627816216,2,15.229522420887514,1.8300656750364186,6.425071598425092,16.63036495655314,30,-17,-14,514,90,251703.00000000003,78,82.0,0,0,1,0,0,0
1778194937.0196302,10.346510171890259,wait_slave,2,0.1162810695318089,0.751453937720247,3.7224819787658725,0.06969560417804588,0.7732886048298749,3.6962290541541036,2,4.658546535376303,-2.183466710962789,2.625292461176887,5.775962535098493,-30,6,-17,518,90,251706.0,78,82.0,0,0,1,0,0,0
1778194937.091574,10.418453931808472,wait_slave,2,0.1162810695318089,0.751453937720247,3.7224819787658725,0.18065760967965638,0.8348636916003598,3.7431341846986976,2,-6.437654014784748,-8.340975388011273,-2.065220593282513,10.736870854043191,-30,12,-29,522,90,251703.00000000003,78,82.0,0,0,1,0,0,0
1778194937.1730099,10.499889850616455,wait_slave,2,0.1162810695318089,0.751453937720247,3.7224819787658725,-0.03902199602598033,0.7374611465160956,3.673414085625999,2,15.530306555778923,1.3992791204151422,4.906789313987359,16.347017622342005,30,-29,28,526,90,251703.00000000003,78,82.0,0,0,1,0,0,0
1778194937.244385,10.57126498222351,wait_slave,2,0.1162810695318089,0.751453937720247,3.7224819787658725,0.06184659234732237,0.7859369851762688,3.7080256184500437,2,5.443447718448653,-3.448304745602171,1.4456360315828753,6.6039224872674716,-30,6,-21,529,90,251698.99999999997,78,82.0,0,0,1,0,0,0
1778194937.3146932,10.641573190689087,wait_slave,2,0.1162810695318089,0.751453937720247,3.7224819787658725,-0.04194182035085259,0.7431345703430672,3.6705183714636584,2,15.822288988266148,0.8319367377179865,5.196360730221405,16.674504862284824,30,-21,13,533,90,251702.0,78,82.0,0,0,1,0,0,0
1778194937.38468,10.711560010910034,wait_slave,2,0.1162810695318089,0.751453937720247,3.7224819787658725,0.025936886618249666,0.7040620546717442,3.695478420370917,2,9.034418291355923,4.739188304850284,2.700355839495572,10.55331897139066,-19,2,15,536,90,251709.0,78,82.0,0,-1,1,0,0,0
1778194937.4548259,10.781705856323242,wait_slave,2,0.1162810695318089,0.751453937720247,3.7224819787658725,0.17809749075736514,0.8401812160487425,3.739393135054073,2,-6.1816421225556235,-8.872727832849547,-1.6911156288200502,10.945221358986599,-30,11,-30,540,90,251709.0,78,82.0,0,-1,1,0,0,0
1778194937.525897,10.852777004241943,wait_slave,2,0.1162810695318089,0.751453937720247,3.7224819787658725,0.022086963881996047,0.7103274741954508,3.7108756332757706,2,9.419410564981286,4.11264635247962,1.1606345490101866,10.343414715102602,30,-15,30,543,90,251698.99999999997,78,82.0,0,-1,1,0,0,0
1778194937.598528,10.925407886505127,wait_slave,2,0.1162810695318089,0.751453937720247,3.7224819787658725,0.022086963881996047,0.7103274741954508,3.7108756332757706,2,9.419410564981286,4.11264635247962,1.1606345490101866,10.343414715102602,5,-5,0,547,90,251698.0,78,82.0,0,0,1,0,0,0
1778194937.673186,11.000066041946411,wait_slave,2,0.1162810695318089,0.751453937720247,3.7224819787658725,0.06162364706250223,0.7836471632686841,3.706663370493102,2,5.465742246930668,-3.2193225548437066,1.5818608272770707,6.537634105613575,-10,-7,-29,551,90,251698.0,78,82.0,0,0,1,0,0,0
1778194937.74633,11.073210000991821,wait_slave,2,0.1162810695318089,0.751453937720247,3.7224819787658725,0.06162364706250223,0.7836471632686841,3.706663370493102,2,5.465742246930668,-3.2193225548437066,1.5818608272770707,6.537634105613575,3,-5,-4,554,90,251698.0,78,82.0,0,0,1,0,0,0
1778194937.8207061,11.147586107254028,wait_slave,2,0.1162810695318089,0.751453937720247,3.7224819787658725,-0.08469349891437061,0.6813933040829216,3.6671830468549236,2,20.097456844617952,7.00606336373254,5.529893191094892,21.990279993279618,30,-21,30,558,90,251698.0,78,82.0,0,0,1,0,0,0
1778194937.895293,11.222172975540161,wait_slave,2,0.1162810695318089,0.751453937720247,3.7224819787658725,0.05665541143589847,0.7913037904450033,3.7208025308056016,2,5.962565809591043,-3.9849852724756274,0.16794479602708634,7.173597710358752,-30,13,-30,562,90,251696.0,77,82.0,0,0,1,0,0,0
1778194937.965003,11.291882991790771,wait_slave,2,0.1162810695318089,0.751453937720247,3.7224819787658725,0.13854087240343016,0.7497623351010858,3.74870527881846,2,-2.2259802871621255,0.16916026191612366,-2.622330005258755,3.443866735157778,-30,6,12,565,90,251696.0,77,82.0,0,0,1,0,0,0
1778194938.035121,11.362000942230225,wait_slave,2,0.1162810695318089,0.751453937720247,3.7224819787658725,0.17204533178282522,0.8445829429736926,3.7538182986616158,2,-5.576426225101631,-9.312900525344558,-3.133631989574326,11.298065988701241,-15,-1,-30,569,90,251703.00000000003,77,82.0,0,0,1,0,0,0
1778194938.1060338,11.432913780212402,wait_slave,2,0.1162810695318089,0.751453937720247,3.7224819787658725,0.09024813930603082,0.6685969598223437,3.7496746488413675,2,2.603293022577809,8.285697789790337,-2.7192670075494974,9.100787629842044,30,-4,30,572,90,251703.00000000003,77,82.0,0,0,1,0,0,0
1778194938.1745589,11.501438856124878,wait_slave,2,0.1162810695318089,0.751453937720247,3.7224819787658725,-0.027883889261647532,0.6462387494310698,3.7034521161056446,2,14.416495879345643,10.52151882891772,1.902986266022788,17.948790171906612,30,-23,13,576,90,251702.0,77,82.0,0,0,1,0,0,0
1778194938.2430642,11.569944143295288,wait_slave,2,0.1162810695318089,0.751453937720247,3.7224819787658725,0.010564408197517694,0.7200766852883986,3.719106409574539,2,10.57166613342912,3.1377252431848413,0.3375569191333305,11.032651050951733,-7,0,-26,579,90,251696.0,77,82.0,0,-1,1,0,0,0
1778194938.311455,11.63833498954773,wait_slave,2,0.1162810695318089,0.751453937720247,3.7224819787658725,0.009607821353252666,0.720085577036047,3.718208125858634,2,10.667324817855624,3.1368360684200014,0.42738529072385845,11.127183717208332,6,-5,0,583,90,251698.0,77,82.0,0,-2,1,0,0,0
1778194938.3797388,11.706618785858154,wait_slave,2,0.1162810695318089,0.751453937720247,3.7224819787658725,0.009607821353252666,0.720085577036047,3.718208125858634,2,10.667324817855624,3.1368360684200014,0.42738529072385845,11.127183717208332,6,-5,0,586,90,251698.0,77,82.0,0,-2,1,0,0,0
1778194938.447816,11.774695873260498,wait_slave,2,0.1162810695318089,0.751453937720247,3.7224819787658725,0.15526565262008452,0.8561256598267357,3.7606408050387965,2,-3.898458308827561,-10.467172210648867,-3.8158826272923996,11.803416094432936,-30,12,-30,589,90,251698.0,77,82.0,0,-1,1,0,0,0
1778194938.5166368,11.843516826629639,wait_slave,2,0.1162810695318089,0.751453937720247,3.7224819787658725,0.15931387085863336,0.8508863665657631,3.7632876568950713,2,-4.3032801326824455,-9.943242884551607,-4.0805678129198775,11.577449314825925,-3,-1,-7,593,90,251698.0,77,82.0,0,0,1,0,0,0
1778194938.5884612,11.915341138839722,wait_slave,2,0.1162810695318089,0.751453937720247,3.7224819787658725,0.12513446579007548,0.7552761226409008,3.7574691822638986,2,-0.8853396258266575,-0.38221849206537817,-3.4987203498026087,3.6291819071050306,11,-4,30,596,90,251698.0,77,82.0,0,0,1,0,0,0
1778194938.660196,11.987076044082642,wait_slave,2,0.1162810695318089,0.751453937720247,3.7224819787658725,0.0772012338937661,0.6806548555713925,3.758121482025395,2,3.907983563804281,7.079908214885455,-3.56395032595227,8.837373919441355,18,-2,28,600,90,251705.00000000003,77,82.0,0,0,1,0,0,0
1778194938.734398,12.061277866363525,wait_slave,2,0.1162810695318089,0.751453937720247,3.7224819787658725,0.03942342294981771,0.7987468430710742,3.7271854554548076,2,7.685764658199119,-4.72929053508272,-0.47034766889351154,9.036503431974072,17,-15,-30,604,90,251707.00000000003,77,82.0,0,0,1,0,0,0
1778194938.806119,12.132998943328857,wait_slave,2,0.1162810695318089,0.751453937720247,3.7224819787658725,-0.00016102579935006744,0.713852922297664,3.732459113586719,2,11.644209533115896,3.7601015422583095,-0.9977134820846612,12.276864886913677,21,-2,30,607,90,251705.00000000003,77,82.0,0,0,1,0,0,0
1778194938.877215,12.204094886779785,wait_slave,2,0.1162810695318089,0.751453937720247,3.7224819787658725,0.11752377019434146,0.7591272953937249,3.77044132986746,2,-0.1242700662532556,-0.7673357673477876,-4.795935110158744,4.858522492494109,-30,11,-18,611,100,251702.0,77,82.0,0,0,1,0,0,0
1778194938.947018,12.273897886276245,wait_slave,2,0.1162810695318089,0.751453937720247,3.7224819787658725,0.26638825875715577,0.9248271596964894,3.7983140979000245,2,-15.010718922534688,-17.33732219762424,-7.5832119134152,24.153871873456175,-30,9,-30,614,100,251702.0,77,82.0,0,0,1,0,0,0
1778194939.0185332,12.345413208007812,wait_slave,2,0.1162810695318089,0.751453937720247,3.7224819787658725,-0.008127193743817651,0.7183274114273757,3.745275048920031,2,12.440826327562656,3.3126526292871383,-2.2793070154158546,13.074519785652667,30,-21,30,618,100,251709.0,77,81.5,0,0,1,0,0,0
1778194939.088781,12.415661096572876,wait_slave,2,0.1162810695318089,0.751453937720247,3.7224819787658725,0.03116523917004188,0.7967557697201664,3.740222876076908,2,8.511583036176702,-4.530183199991933,-1.7740897311035564,9.803927783354345,-8,-5,-30,622,100,251709.0,77,81.5,0,0,1,0,0,0
1778194939.160355,12.487235069274902,wait_slave,2,0.1162810695318089,0.751453937720247,3.7224819787658725,0.10567712519760719,0.7644335173429974,3.7829982930268726,2,1.0603944334201711,-1.2979579622750315,-6.051631426100013,6.279440591615061,-24,13,8,625,100,251709.0,77,81.5,0,0,1,0,0,0
1778194939.2321432,12.559023141860962,wait_slave,2,0.1162810695318089,0.751453937720247,3.7224819787658725,0.02944657578519183,0.7967595326374287,3.7386696963020736,2,8.683449374661707,-4.530559491718167,-1.6187717536201074,9.927168999298273,30,-19,-16,629,100,251712.0,77,81.5,0,-1,1,0,0,0
1778194939.303956,12.630836009979248,wait_slave,2,0.1162810695318089,0.751453937720247,3.7224819787658725,0.13982164845555933,0.847918633434045,3.770720717078598,2,-2.354057892375043,-9.6464695713798,-4.823873831272563,11.039280886554426,-30,9,-26,632,100,251712.0,77,81.5,0,-1,1,0,0,0
1778194939.375341,12.702220916748047,wait_slave,2,0.1162810695318089,0.751453937720247,3.7224819787658725,0.27628044569890886,1.0213068656258986,3.7853143852736224,2,-15.999937616709998,-26.98529279056515,-6.2832406507749905,31.99504873893288,-30,4,-30,636,100,251707.00000000003,77,81.5,0,0,1,0,0,0
1778194939.44595,12.77283000946045,wait_slave,2,0.1162810695318089,0.751453937720247,3.7224819787658725,0.27628044569890886,1.0213068656258986,3.7853143852736224,2,-15.999937616709998,-26.98529279056515,-6.2832406507749905,31.99504873893288,-9,0,-21,639,100,251707.00000000003,77,81.5,0,0,1,0,0,0
1778194939.5185862,12.845466136932373,wait_slave,2,0.1162810695318089,0.751453937720247,3.7224819787658725,0.05504767295266222,0.8805438578780158,3.7410531778804046,2,6.123339657914668,-12.908992015776876,-1.8571199114532089,14.40785403157242,30,-18,30,643,100,251707.00000000003,77,81.5,0,0,1,0,0,0
1778194939.59163,12.91850996017456,wait_slave,2,0.1162810695318089,0.751453937720247,3.7224819787658725,0.05504767295266222,0.8805438578780158,3.7410531778804046,2,6.123339657914668,-12.908992015776876,-1.8571199114532089,14.40785403157242,3,-3,-11,647,100,251711.0,77,81.5,0,0,1,0,0,0
1778194939.6652958,12.992175817489624,wait_slave,2,0.1162810695318089,0.751453937720247,3.7224819787658725,0.020810319787914477,0.8084001412183334,3.7505037912007153,2,9.547074974389442,-5.694620349808632,-2.8021812434842808,11.464186025026063,17,0,18,650,100,251713.0,77,81.5,0,-2,1,0,0,0
1778194939.736675,13.063555002212524,wait_slave,2,0.1162810695318089,0.751453937720247,3.7224819787658725,0.10292824214485774,0.7655643077511064,3.7803882013177854,2,1.3352827386951163,-1.4110370030859354,-5.790622255191291,6.107807423179904,-27,9,10,654,100,251713.0,77,81.5,0,-2,1,0,0,0
1778194939.807947,13.134826898574829,wait_slave,2,0.1162810695318089,0.751453937720247,3.7224819787658725,0.10482968963684636,0.7655476990585574,3.7819207513612265,2,1.1451379894962546,-1.4093761338310307,-5.943877259535402,6.215091228455307,0,0,-3,657,100,251706.0,77,81.5,0,-1,1,0,0,0
1778194939.879609,13.206489086151123,wait_slave,2,0.1162810695318089,0.751453937720247,3.7224819787658725,0.10663827847635354,0.7583497806206047,3.784496830345517,2,0.964279105545536,-0.6895842900357607,-6.201485157964459,6.313776908547632,0,0,0,661,100,251707.00000000003,77,81.5,0,0,1,0,0,0
1778194939.949942,13.276822090148926,wait_slave,2,0.1162810695318089,0.751453937720247,3.7224819787658725,-0.00970570184078512,0.7223371421671936,3.7444886863560884,2,12.5986771372594,2.9116795553053465,-2.2006707590215946,13.116687662336805,30,-17,11,665,100,251707.00000000003,77,81.5,0,0,1,0,0,0
1778194940.021684,13.34856390953064,wait_slave,2,0.1162810695318089,0.751453937720247,3.7224819787658725,0.14223888147034291,0.85329299094613,3.7918407091697466,2,-2.595781193853401,-10.183905322588293,-6.935873040387408,12.591915758063903,-30,16,-30,668,100,251698.99999999997,77,82.0,0,-1,1,0,0,0
1778194940.093228,13.420108079910278,wait_slave,2,0.1162810695318089,0.751453937720247,3.7224819787658725,0.10854074774465894,0.7571797832125391,3.7864296514730937,2,0.7740321787149964,-0.5725845492292048,-6.394767270722124,6.466840598499485,12,-2,30,672,100,251698.99999999997,77,82.0,0,-1,1,0,0,0
1778194940.163281,13.490160942077637,wait_slave,2,0.1162810695318089,0.751453937720247,3.7224819787658725,0.10854074774465894,0.7571797832125391,3.7864296514730937,2,0.7740321787149964,-0.5725845492292048,-6.394767270722124,6.466840598499485,0,0,-3,675,100,251698.99999999997,77,82.0,0,-1,1,0,0,0
1778194940.234199,13.561079025268555,wait_slave,2,0.1162810695318089,0.751453937720247,3.7224819787658725,0.14415306941095474,0.8542508211845434,3.7741933380468127,2,-2.7871999879145832,-10.279688346429639,-5.171135928094017,11.839810938489563,-13,-5,-30,679,100,251698.99999999997,77,82.0,0,-1,1,0,0,0
1778194940.30454,13.631419897079468,wait_slave,2,0.1162810695318089,0.751453937720247,3.7224819787658725,-0.006802298139632956,0.7160381175851194,3.7474086136110274,2,12.308336767144185,3.5415820135127674,-2.4926634845154894,13.048039254190932,30,-12,30,682,100,251698.99999999997,77,82.0,0,0,1,0,0,0
1778194940.379798,13.706677913665771,wait_slave,2,0.1162810695318089,0.751453937720247,3.7224819787658725,-0.006802298139632956,0.7160381175851194,3.7474086136110274,2,12.308336767144185,3.5415820135127674,-2.4926634845154894,13.048039254190932,7,-2,0,686,100,251698.99999999997,77,82.0,0,0,1,0,0,0
1778194940.451904,13.778784036636353,wait_slave,2,0.1162810695318089,0.751453937720247,3.7224819787658725,0.03435997419099879,0.7935668158295512,3.74441003590659,2,8.19210953408101,-4.21128781093042,-2.192805714071744,9.468579647684114,-9,-4,-30,690,100,251700.0,77,82.0,0,1,1,0,0,0
1778194940.519616,13.846495866775513,wait_slave,2,0.1162810695318089,0.751453937720247,3.7224819787658725,0.11041523812240972,0.7608064261381131,3.788071239328393,2,0.5865831409399183,-0.9352488417866067,-6.558926056252057,6.651186449700557,-27,15,8,693,100,251694.0,77,82.0,0,0,1,0,0,0
1778194940.58719,13.914069890975952,wait_slave,2,0.1162810695318089,0.751453937720247,3.7224819787658725,0.025902894440224755,0.800587572391647,3.7593150225871743,2,9.037817509158415,-4.913363467139997,-3.6833043821301814,10.926573893974991,30,-12,-20,696,100,251694.0,77,82.0,0,0,1,0,0,0
1778194940.661684,13.988564014434814,wait_slave,2,0.1162810695318089,0.751453937720247,3.7224819787658725,0.11159671609952915,0.7559478557098116,3.7892912204479936,2,0.4684353432279756,-0.44939179895645553,-6.68092416821211,6.712386490746425,-27,9,11,700,100,251692.99999999997,77,82.0,0,0,1,0,0,0
1778194940.7369878,14.063867807388306,wait_slave,2,0.1162810695318089,0.751453937720247,3.7224819787658725,0.1117946754712541,0.7632614162277814,3.7882961093015193,2,0.4486394060554802,-1.1807478507534386,-6.5814130535646775,6.701525243208161,0,0,-6,704,100,251692.99999999997,77,82.0,0,0,1,0,0,0
1778194940.812118,14.138998031616211,wait_slave,2,0.1162810695318089,0.751453937720247,3.7224819787658725,-0.011202376047561247,0.7245577332587692,3.764998949661345,2,12.748344557937013,2.689620446147789,-4.251697089547246,13.705155061271036,30,-9,11,708,100,251706.0,77,82.0,0,0,1,0,0,0
1778194940.8839521,14.210832118988037,wait_slave,2,0.1162810695318089,0.751453937720247,3.7224819787658725,0.02468170144082904,0.806481002222668,3.7761993789360497,2,9.159936809097987,-5.502706450242101,-5.371740017017723,11.959925226966671,-6,3,-30,711,90,251700.0,77,82.0,0,-1,1,0,0,0
1778194940.954549,14.281429052352905,wait_slave,2,0.1162810695318089,0.751453937720247,3.7224819787658725,0.024712264806748707,0.8075830617366153,3.775874699971046,2,9.15688047250602,-5.612912401636827,-5.339272120517347,11.9942099528541,6,0,-7,715,90,251707.00000000003,77,82.0,-1,-2,1,0,0,0
1778194941.027363,14.354243040084839,wait_slave,2,0.1162810695318089,0.751453937720247,3.7224819787658725,-0.0580978361798854,0.6574430523577168,3.7617825589338776,2,17.43789057116943,9.401088536253022,-3.9300580168005084,20.19667916401025,30,-6,30,718,90,251707.00000000003,77,82.0,-1,-2,1,0,0,0
1778194941.099536,14.426415920257568,wait_slave,2,0.1162810695318089,0.751453937720247,3.7224819787658725,0.26305870713057833,0.9402732251909456,3.833502471933191,2,-14.677763759876944,-18.881928747069853,-11.102049316731843,26.367015023155844,-30,27,-30,722,90,251702.0,77,82.0,-1,-2,1,0,0,0
1778194941.170642,14.497521877288818,wait_slave,2,0.1162810695318089,0.751453937720247,3.7224819787658725,0.14457283380344854,0.8625334713641486,3.8123746620738697,2,-2.8291764271639637,-11.107953364390156,-8.989268330799716,14.567011097840405,30,-5,16,726,90,251704.0,77,82.0,0,0,1,0,0,0
1778194941.2411819,14.568061828613281,wait_slave,2,0.1162810695318089,0.751453937720247,3.7224819787658725,0.06692501882860546,0.677270613680391,3.81237774561287,2,4.935605070320344,7.418332403985605,-8.98957668469973,12.65718539155889,30,1,30,729,90,251702.0,77,82.0,0,0,1,0,0,0
