timestamp,elapsed,my_id,peer_age_s,peer_seq,peer_pos_x,peer_pos_y,peer_pos_z,peer_state,pos_x,pos_y,pos_z,marker_id,tx_count,rx_count,crc_errors,target_x,target_z,err_x_cm,err_y_cm,err_z_cm,err_3d_cm,dist_to_peer_cm,dist_to_mid_cm,cmd_lr,cmd_fb,cmd_ud,feedback,tello_height_cm,tello_baro_cm,tello_battery,tello_temp_c,tello_pitch,tello_roll,tello_yaw,tello_vgx,tello_vgy,tello_vgz
1778104838.285045,9.5367431640625e-07,1,0.005774021148681641,532,0.4815737307071686,1.3400192260742188,3.9912619590759277,5,0.06077585046705977,1.223859484252043,3.88665989343197,0,252,533,0,-0.0288252094128858,3.938960926253949,-8.960105987994558,5.892131522066357,5.230103282197884,11.93124861579378,43.360402229632484,10.374848416172307,-30,-29,30,ok,80,250640.0,76,69.5,0,0,9,0,0,0
1778104838.355835,0.07079100608825684,1,-0.003442049026489258,536,0.60308837890625,1.3983098268508911,3.9424893856048584,5,0.06077585046705977,1.223859484252043,3.88665989343197,0,256,537,0,0.0015534526368845558,3.9267677828861816,-5.922239783017521,5.892131522066357,4.010788945421151,9.266960984357059,48.819052224770466,7.152576599538653,7,1,4,ok,80,250641.0,76,69.5,0,0,9,0,0,0
1778104838.426338,0.14129400253295898,1,0.00694584846496582,539,0.665806770324707,1.2867542505264282,3.9469692707061768,5,0.07173630479036565,1.2242555324584745,3.8864061440939976,0,259,540,0,0.027612965718203764,3.9233231746114927,-4.412333907216189,5.8525267014232,3.6917030517495064,8.20666989234597,51.70521550087941,5.75303067357252,2,-1,4,ok,80,250641.0,76,69.5,0,0,9,0,0,0
1778104838.497545,0.21250104904174805,1,-0.002006053924560547,543,0.6695036888122559,1.283846378326416,3.945436954498291,5,-0.02035158332886775,1.2996438089197553,3.8526777847542926,0,263,544,0,-0.007679220570636192,3.904608588612803,1.2672362758231557,-1.6863009447048771,5.1930803858510455,5.605138941077692,63.391108153180674,5.345462718294177,0,0,-27,ok,80,250644.99999999997,76,69.5,0,0,9,0,0,0
1778104838.56795,0.28290605545043945,1,0.008651018142700195,546,0.435505211353302,1.2392359972000122,3.9997808933258057,5,0.06140475603622292,1.3729916412412853,3.8344451311597427,0,266,547,0,0.016250156028479845,3.8998164119009773,-4.515460000774308,-9.021084176857874,6.537128074123455,12.020955960406862,52.61922927712366,7.945025014188801,-3,-9,-30,ok,80,250635.0,76,69.5,0,-1,9,0,0,0
1778104838.6384299,0.35338592529296875,1,-0.0008540153503417969,550,0.4059368669986725,1.4536343812942505,3.9133596420288086,5,0.0616739798224851,1.226077212104621,3.8856243415392275,0,270,551,0,0.002621543836438922,3.921087012872936,-5.905243598604618,5.670358736808545,3.5462671333708506,8.92193256778979,48.70865617624078,6.888244518023959,-8,8,30,ok,80,250635.0,76,69.5,0,-1,9,0,0,0
1778104838.7083972,0.4233531951904297,1,0.009070158004760742,553,0.486423134803772,1.4200059175491333,3.903092384338379,5,0.0616739798224851,1.226077212104621,3.8856243415392275,0,273,554,0,-0.0014603113811768598,3.917268634310917,-6.313429120366195,5.670358736808545,3.1644292771689564,9.056818873765387,47.79402693584712,7.062081839520971,-5,0,4,ok,80,250646.0,76,69.5,0,-1,9,0,0,0
1778104838.780619,0.495574951171875,1,0.0014567375183105469,557,0.6385047435760498,1.1844896078109741,3.95182728767395,5,-0.01170895107464957,1.30701087659041,3.8679721438809858,0,277,558,0,-0.031708067694688646,3.908624683018755,-1.9999116620039077,-2.423007711770353,4.065253913776923,5.1377915888634895,56.58732141810789,4.530555820128235,0,0,-29,ok,80,250652.0,76,69.5,0,-1,9,0,0,0
1778104838.852475,0.5674309730529785,1,0.012839078903198242,560,0.5699238777160645,1.3864868879318237,3.8877251148223877,5,0.13987134942774299,1.3121438672570616,3.8624930580363315,0,280,561,0,0.04960396674456363,3.899414087330582,-9.026738268317935,-2.9363067784355046,3.6921029294250562,10.185063834030245,42.59151707592056,9.752621586331777,-10,-3,-3,ok,80,250639.0,76,69.5,0,0,9,0,0,0
1778104838.9231539,0.6381099224090576,1,0.003822803497314453,564,0.5475618839263916,1.29935622215271,3.9144768714904785,5,0.05942449029553109,1.3735208869735542,3.833485862514861,0,284,565,0,0.00591013124221651,3.883159707437698,-5.351435905331458,-9.074008750084772,4.9673844922836885,11.646905586449398,50.28823403632956,7.301559760972391,9,-7,-28,ok,80,250639.0,76,69.5,0,0,9,0,0,0
1778104838.994293,0.7092490196228027,1,0.014695882797241211,567,0.4465084373950958,1.328863501548767,3.9132132530212402,5,0.06858112040304117,1.2263939145313518,3.884474090429679,0,287,568,0,-0.003217699512129135,3.906544070289798,-7.17988199151703,5.638688494135469,2.206997986011938,9.392356118475652,45.85318423103676,7.511427662060742,-11,8,30,ok,80,250636.0,76,69.5,0,-1,9,0,0,0
1778104839.0659509,0.7809069156646729,1,0.006584882736206055,571,0.5442487597465515,1.3010127544403076,3.9140396118164062,5,-0.01953082415893101,1.3084447032026918,3.8676075098953078,0,291,572,0,-0.05510210485972178,3.896148446104995,-3.557128070079077,-2.5663903729985282,2.8540936209687118,5.233103290669726,53.192906530831884,4.560593218452922,0,0,-30,ok,80,250641.0,76,69.5,0,-1,9,0,0,0
1778104839.1370409,0.851996898651123,1,-0.002212047576904297,575,0.6309386491775513,1.2745894193649292,3.892833709716797,5,-0.014278913919599722,1.3089965733284608,3.8657447036946335,0,295,576,0,-0.04026155987604052,3.8885328440290947,-2.59826459564408,-2.6215773855754243,2.2788140334461193,4.337815152420506,54.99265756696482,3.4560052528907517,0,0,-2,ok,80,250641.0,76,69.5,0,-1,9,0,0,0
1778104839.208063,0.9230189323425293,1,0.00869297981262207,578,0.4412810504436493,1.3322796821594238,3.9121832847595215,5,0.1333576174708453,1.3104143719927048,3.862125948269282,0,298,579,0,0.035765717284493015,3.8866499439870887,-9.759190018635227,-2.7633572519998317,2.4523995717806724,10.435142393934045,40.7776729282771,10.062606694067869,-9,-2,-2,ok,80,250644.0,76,69.5,0,-1,9,0,0,0
1778104839.280715,0.9956710338592529,1,0.0014319419860839844,582,0.5298606753349304,1.2979676723480225,3.8974106311798096,5,0.05856298439215848,1.2337047260629994,3.900812582984129,0,302,583,0,0.0010832470283470008,3.9056381517721013,-5.747973736381148,4.90760734097071,0.48255687879721343,7.5734188467660735,48.51365329605814,5.7681941034783115,0,0,29,ok,80,250646.0,76,69.5,0,-1,9,0,0,0
1778104839.3526552,1.0676112174987793,1,0.013218164443969727,585,0.44004809856414795,1.33457612991333,3.9113035202026367,5,-0.014302313335292968,1.4425926726343943,3.8134833089376725,0,305,586,0,-0.04775294214862258,3.859440779281916,-3.345062881332961,-15.981187316168777,4.595747034424358,16.961977612264604,54.09645325174337,5.684218194658949,8,-6,-30,ok,80,250646.0,76,69.5,0,-1,9,0,0,0
1778104839.424478,1.1394340991973877,1,0.005094051361083984,589,0.3799636960029602,1.4575061798095703,3.8734872341156006,5,0.05633129883918235,1.2344376983470808,3.8998786495711233,0,309,590,0,-0.024308647418453955,3.9017485820544673,-8.06399462576363,4.834310112562568,0.18699324833439945,9.403910360253978,43.87360474150487,8.066162396038612,-21,14,30,ok,80,250641.0,76,69.5,0,-1,9,0,0,0
1778104839.495598,1.2105541229248047,1,-0.0036690235137939453,593,0.437113881111145,1.3408210277557373,3.910942316055298,5,0.06335161401758975,1.0439887060988444,3.9352715470672086,0,313,594,0,-0.027701490005203167,3.919224121087811,-9.105310402279292,23.879209337386207,-1.6047425979397456,25.606610765702882,41.91244455723099,9.245640936543982,-9,6,30,ok,80,250637.0,75,69.5,0,-1,9,0,0,0
1778104839.564918,1.2798740863800049,1,0.00557398796081543,596,0.43117958307266235,1.3452107906341553,3.911147356033325,5,0.04940552281695661,1.2275988814314638,3.8819003732719537,0,316,597,0,-0.03563258900067179,3.892409415628439,-8.50381118176284,5.518191804124273,1.050904235648531,10.191645849159155,43.04372351095143,8.568500704766192,-3,-10,-30,ok,80,250638.0,75,69.5,0,-1,9,0,0,0
1778104839.635514,1.3504700660705566,1,-0.0036859512329101562,600,0.3743765652179718,1.4658353328704834,3.8727176189422607,5,-0.02392104553247902,1.3112800871635761,3.864377005642412,0,320,601,0,-0.08291288533342586,3.881065107259034,-5.899183980094684,-2.8499287690869624,1.6688101616622042,6.760724293708649,48.31704710269417,6.13068503404577,0,0,-30,ok,80,250638.0,75,69.5,0,-1,9,0,0,0
1778104839.707226,1.4221820831298828,1,0.007981061935424805,603,0.37337467074394226,1.468196153640747,3.8726601600646973,5,0.05568896841570406,1.2358124579443022,3.8989267373767476,0,323,604,0,-0.05920562701143489,3.8970791262729456,-11.489459542713895,4.6968341528404345,-0.18476111038019383,12.413785414242371,37.022925043207195,11.490945011249872,-13,1,29,ok,80,250637.0,75,69.5,0,-1,9,0,0,0
1778104839.778877,1.493833065032959,1,-0.0003859996795654297,607,0.292554646730423,1.5147600173950195,3.873809814453125,5,-0.03192952563781219,1.1486323216249446,3.91625754593447,0,327,608,0,-0.11231027427026966,3.903346188657657,-8.038074863245747,13.414847784776196,-1.2911357276812918,15.691903009614641,43.99969032525994,8.141110426375398,6,4,30,ok,80,250641.0,75,69.5,0,-1,9,0,0,0
1778104839.8496718,1.5646278858184814,1,0.010325908660888672,610,0.42477908730506897,1.3589608669281006,3.929882764816284,5,-0.016307357541668576,1.444211280713847,3.8115050370549532,0,330,611,0,-0.11106678947406418,3.8529994425701783,-9.47594319323956,-16.143048124114046,4.14944055152251,19.17314160563116,41.87862293331761,10.344629345323233,-11,-21,-30,ok,80,250641.0,75,69.5,0,-1,9,0,0,0
1778104839.92013,1.6350860595703125,1,0.0007159709930419922,614,0.33897119760513306,1.4089617729187012,3.9337756633758545,5,-0.010738913771851408,1.4436907853212833,3.8118769583537064,0,334,615,0,-0.11459987389909404,3.854589912167881,-10.386096012724263,-16.090998584857672,4.2712953814174615,19.622313576098428,40.147188885768294,11.230091478738942,-10,-3,-11,ok,80,250639.0,75,69.5,0,-1,9,0,0,0
1778104839.991008,1.7059640884399414,1,0.011685848236083984,617,0.3345690369606018,1.5891846418380737,3.845104455947876,5,0.15006913237751957,1.1610686599438846,3.9265684438526214,0,337,618,0,-0.03703301701455591,3.910161731281856,-18.710214939207546,12.171213952882187,-1.6406712570765425,22.380848829568027,22.81675252025928,18.78201121406178,-30,21,30,ok,80,250632.00000000003,75,69.5,0,-1,9,0,0,0
1778104840.062418,1.777374029159546,1,0.003106832504272461,621,0.3743022084236145,1.4869176149368286,3.9067728519439697,5,-0.005089776333093407,1.5486754975563501,3.7449764656463915,0,341,622,0,-0.1185382009128331,3.819105150671783,-11.34484245797397,-26.589469808364363,7.412868502539149,29.84385991325696,40.14800230914348,13.551976602406965,17,-30,-30,ok,80,250632.00000000003,75,69.5,0,-1,9,0,0,0
1778104840.133373,1.8483290672302246,1,0.014069080352783203,624,0.24271047115325928,1.455728530883789,3.9355595111846924,5,-0.031103766850164617,1.3059868221535655,3.845440563039848,0,344,625,0,-0.1433245156663314,3.8708629590654713,-11.222074881616678,-2.320602268085903,2.542239602562324,11.73810639464874,37.898467195835124,11.506430673560251,-7,15,30,ok,80,250642.0,75,70.0,0,-1,9,0,0,0
1778104840.204587,1.9195430278778076,1,0.005249977111816406,628,0.32859399914741516,1.399267315864563,3.936950922012329,5,-0.011872655480131116,1.5584820416024936,3.7583870582269836,0,348,629,0,-0.13657037036072442,3.8313507881009183,-12.469771488059331,-27.57012421297871,7.2963729873934735,31.126259152918735,37.97609618968348,14.447569336590242,-13,-21,-30,ok,80,250636.0,75,70.0,0,-2,9,0,0,0
1778104840.2754922,1.990448236465454,1,-0.0038399696350097656,632,0.33448538184165955,1.400890827178955,3.9354522228240967,5,0.1228199712576485,1.3066632843482817,3.8414101783284234,0,352,633,0,-0.07165463754822729,3.876786852074101,-19.44746088058758,-2.3882484875575205,3.5376673745677767,19.910363030175677,22.259485377682083,19.76660884307335,-30,10,30,ok,80,250641.0,75,70.0,0,-2,9,0,0,0
1778104840.3492339,2.064189910888672,1,0.009824037551879883,635,0.37170496582984924,1.4756147861480713,3.8888885974884033,5,0.11629719097897176,1.4426778078550218,3.805417286323165,0,355,636,0,-0.06996913274385153,3.8597328300111764,-18.62663237228233,-15.989700838231524,5.431554368801139,25.142071300701158,25.207560298962633,19.402402335623258,-9,-10,-30,ok,80,250641.0,75,70.0,0,-2,9,0,0,0
1778104840.421016,2.135972023010254,1,0.0015931129455566406,639,0.2943979501724243,1.516270399093628,3.8901054859161377,5,0.059639783250701815,1.2333020148628597,3.877747236834486,0,359,640,0,-0.10644665767877678,3.8934117253355778,-16.60864409294786,4.947878460984678,1.56644885010917,17.400641421249286,26.96532403138139,16.68235057197337,-4,12,30,ok,80,250638.0,75,70.0,0,-1,9,0,0,0
1778104840.492266,2.2072219848632812,1,0.012924909591674805,642,0.24298818409442902,1.4403777122497559,3.9174399375915527,5,0.05489410775813304,1.4992398781426202,3.7750641485915053,0,362,643,0,-0.11481843376948017,3.841049198352569,-16.971254152761322,-21.645907866991365,6.598504976106367,28.28619915831036,29.20879910380701,18.20889165867376,-13,-22,-30,ok,80,250642.99999999997,75,70.0,0,-2,9,0,0,0
1778104840.5638,2.2787561416625977,1,0.004383087158203125,646,0.3760260343551636,1.4685081243515015,3.8885817527770996,5,0.1861281425786857,1.3975561329438997,3.831745745315874,0,366,647,0,-0.04661035402204372,3.87210732776658,-23.273849660072944,-11.477533347119317,4.036158245070576,26.26207195011781,15.68842525871247,23.621233062203352,-30,5,26,ok,80,250646.0,75,70.0,0,-2,9,0,0,0
1778104840.635999,2.350955009460449,1,-0.003139019012451172,650,0.2852780222892761,1.2994818687438965,3.9643056392669678,5,0.1642697432840039,1.5150107762215037,3.781302164168174,0,370,651,0,-0.06310356530278077,3.850481336400417,-22.73733085867847,-23.22299767487972,6.917917223224324,33.22877389088957,20.060303264276687,23.766442587909445,-13,-14,-30,ok,80,250637.0,75,70.0,0,-2,9,0,0,0
1778104840.707691,2.422646999359131,1,0.008266925811767578,653,0.2852780222892761,1.2994818687438965,3.9643056392669678,5,0.16366298057687773,1.5157435522893254,3.780534220560225,0,373,654,0,-0.06074647471034281,3.851893997601585,-22.440945528722054,-23.29627528166189,7.135977704135987,33.12453254033885,20.790524985547883,23.548210420687944,-14,-5,-17,ok,80,250637.0,75,70.0,0,-2,9,0,0,0
1778104840.7796218,2.4945778846740723,1,0.0003719329833984375,657,0.42111068964004517,1.3415799140930176,3.929762840270996,5,-0.01896897593387155,1.3317585273317936,3.8710625482620507,0,377,658,0,-0.14628015980992806,3.8967089063436644,-12.73111838760565,-4.897772785908705,2.564635808161375,13.879730202353436,34.91656506424393,12.986867683461407,24,13,30,ok,80,250641.0,75,70.0,0,-2,9,0,-1,0
1778104840.8505778,2.5655338764190674,1,0.011227846145629883,660,0.28516027331352234,1.2970541715621948,3.9643290042877197,5,-0.02112822937533381,1.3353543249559459,3.868782371096901,0,380,661,0,-0.15044260581366778,3.897373616602566,-12.931437643833396,-5.257352548323935,2.859124550566472,14.249085182894078,34.612738354657786,13.243740888887977,-10,-3,-5,ok,80,250638.0,75,70.0,0,-2,9,0,-1,0
1778104840.921111,2.6360671520233154,1,0.0018870830535888672,664,0.42117074131965637,1.3404990434646606,3.929739236831665,5,-0.03227918219947162,1.3371831335189537,3.868225854223401,0,384,665,0,-0.15292647125762374,3.8996485231247697,-12.064728905815212,-5.440233404624717,3.142266890136858,13.602487429748212,36.416907635369085,12.467218004818214,-6,-3,-5,ok,80,250638.0,75,70.0,0,-2,9,0,-1,0
1778104840.9914281,2.7063841819763184,1,0.012063026428222656,667,0.4212242662906647,1.3394359350204468,3.929717540740967,5,0.048106851149875285,1.2643722180661898,3.900090062317877,0,387,668,0,-0.10480680982556026,3.9180563805985598,-15.291366097543554,1.8408581406516689,1.7966318280682625,15.506209135334654,29.63591046025878,15.396550362166595,-23,2,26,ok,80,250648.99999999997,75,70.0,0,-1,9,0,-1,0
1778104841.06226,2.7772159576416016,1,0.0030090808868408203,671,0.3726595640182495,1.456987738609314,3.8710176944732666,5,-0.09260468395307307,1.4161037709270348,3.8415843558705483,0,391,672,0,-0.16705811613179566,3.885902137180002,-7.445343217872259,-13.332297145432825,4.431778130945396,15.900438365276557,45.9718696579335,8.664513433184942,20,-12,-30,ok,80,250654.0,75,69.5,0,0,9,0,-1,0
1778104841.133369,2.84832501411438,1,0.014088869094848633,674,0.2472485452890396,1.4249299764633179,3.899590253829956,5,-0.09333273004098028,1.4176925382894106,3.8401702863436893,0,394,675,0,-0.17547073224238202,3.885883133732376,-8.213800220140174,-13.491173881670404,4.571284738868675,16.443081551997913,44.52123740471634,9.400167988934475,-10,-4,-11,ok,80,250654.0,75,69.5,0,0,9,0,-1,0
1778104841.204475,2.91943097114563,1,0.005172014236450195,678,0.2930150032043457,1.503105640411377,3.872688055038452,5,-0.025323070512947028,1.478476710493629,3.8254072139543944,0,398,679,0,-0.14098234117117353,3.8727754985234464,-11.56592706582265,-19.569591102092243,4.7368284569051955,23.220187523471115,38.06586863702006,12.498328397112784,-21,-4,-30,ok,80,250639.0,75,69.5,0,0,9,0,-1,0
1778104841.275466,2.990422010421753,1,0.01597905158996582,681,0.36865296959877014,1.4573332071304321,3.872661590576172,5,-0.026141018538835922,1.4797703048945183,3.8241461692719216,0,402,682,0,-0.1361803809772746,3.8664172231390355,-11.003936243843869,-19.69895054218118,4.227105386711383,22.95656083284788,38.921400703382346,11.787918934610346,-7,-1,-15,ok,80,250653.00000000003,75,69.5,0,0,9,0,-1,0
1778104841.348037,3.062993049621582,1,0.008601903915405273,685,0.42669442296028137,1.3361624479293823,3.910975694656372,5,-0.09640206540851458,1.4216690201120712,3.836160780484231,0,405,686,0,-0.17096192107959918,3.8712503321442764,-7.45598556710846,-13.888822063936468,3.508955166004535,16.14942306887921,45.63092605273103,8.24041789801704,5,0,8,ok,80,250653.00000000003,75,69.5,0,0,9,0,-1,0
1778104841.4201238,3.135079860687256,1,0.0006837844848632812,689,0.3312932252883911,1.3738839626312256,3.900933265686035,5,-0.11983843531642015,1.2851222029392728,3.8873139451118783,0,409,690,0,-0.17979679653512265,3.8928646807954945,-5.9958361218702505,-0.23414034665663053,0.5550735683616193,6.026025154988176,48.021161591715064,6.021474692018375,0,0,30,ok,80,250653.00000000003,75,69.5,0,0,9,0,-1,0
1778104841.4912949,3.2062509059906006,1,0.011885881423950195,692,0.42372021079063416,1.3309246301651,3.8931097984313965,5,-0.11983843531642015,1.2851222029392728,3.8873139451118783,0,412,693,0,-0.17963745469318654,3.8905753408954777,-5.979901937676639,-0.23414034665663053,0.3261395783599408,5.9933643232106375,48.044624171626246,5.988789043604861,0,0,-1,ok,80,250641.0,75,69.5,0,0,9,0,0,0
1778104841.565807,3.2807631492614746,1,0.006516218185424805,696,0.29022732377052307,1.4857758283615112,3.839399814605713,5,-0.12315338244116719,1.287537051212519,3.8847168137182817,0,416,697,0,-0.18948223716306892,3.883631917315226,-6.632885472190172,-0.47562517398125337,-0.10848964030558683,6.65080137993684,46.73473275232606,6.633772658845423,0,0,-2,ok,80,250637.0,74,69.5,0,0,9,0,0,0
1778104841.6388412,3.353797197341919,1,-0.0004878044128417969,700,0.24157723784446716,1.4081319570541382,3.8672943115234375,5,-0.06433767107261484,1.2009417504025262,3.9252599739422145,0,420,701,0,-0.16826702686465414,3.903670785992828,-10.392935579203929,8.183904907018036,-2.1589187949386357,13.403370465809564,39.451129543494005,10.61480288637628,-11,5,30,ok,80,250640.0,74,69.5,0,0,9,0,0,0
1778104841.708642,3.423598051071167,1,0.00869607925415039,703,0.24157723784446716,1.4081319570541382,3.8672943115234375,5,-0.06433767107261484,1.2009417504025262,3.9252599739422145,0,423,704,0,-0.16862148357993992,3.9016522895986707,-10.428381250732507,8.183904907018036,-2.3607684343543767,13.464793449525589,39.42696985908619,10.692257156993247,-9,1,4,ok,80,250640.0,74,69.5,0,0,9,0,0,0
1778104841.7808902,3.4958462715148926,1,0.0016603469848632812,707,0.478859543800354,1.4646940231323242,3.788435697555542,5,-0.18852289394468466,1.3697416763180559,3.840081808093641,0,427,708,0,-0.21909881122872432,3.8537974343317023,-3.057591728403966,-8.696087684534938,1.371562623806133,9.319441626285691,53.954593780488736,3.351126856540396,20,-14,-30,ok,80,250644.0,74,69.5,0,0,9,0,0,0
1778104841.851864,3.5668201446533203,1,0.012603282928466797,710,0.5050947070121765,1.5267746448516846,3.7446978092193604,5,-0.12667607220645186,1.2883150825478773,3.8826358228401565,0,430,711,0,-0.17964779177127,3.867076705370159,-5.297171956481813,-0.5534283075170787,-1.5559117469997386,5.5486191969309235,49.503558446321016,5.5209502896683595,0,0,26,ok,80,250644.99999999997,74,69.5,0,-1,9,0,0,0
1778104841.923319,3.638275146484375,1,0.004098176956176758,714,0.6152253150939941,1.3354554176330566,3.801445484161377,5,-0.11050254642847013,1.4193637664544072,3.813790428346332,0,434,715,0,-0.1597778481239221,3.8258083699673096,-4.9275301695451965,-13.65829669817007,1.2017941620977357,14.569623587281647,50.2025119932108,5.071968333874958,-9,-1,-30,ok,80,250644.99999999997,74,69.5,0,-1,9,0,0,0
1778104841.992534,3.7074899673461914,1,0.013179779052734375,717,0.4510304927825928,1.3873083591461182,3.815803050994873,5,0.028024534994258297,1.2712441770853018,3.8717676937609,0,437,718,0,-0.08303072819417029,3.849476364256396,-11.105526318842859,1.1536622387404716,-2.2291329504504187,11.38563503237263,38.05102728698523,11.327036175862387,-30,12,30,ok,80,250638.0,74,69.5,0,-1,9,0,0,0
1778104842.064218,3.7791740894317627,1,0.004831075668334961,721,0.5103794932365417,1.2736858129501343,3.8475496768951416,5,-0.0953516448840061,1.5369854272647596,3.7627618610885287,0,441,722,0,-0.13930261298043325,3.7921259403241945,-4.395096809642715,-25.42046277920531,2.936407923566575,25.964192561462003,51.54545795241917,5.285770280641804,17,-20,-30,ok,80,250648.0,74,70.0,0,0,9,0,0,0
1778104842.134007,3.8489630222320557,1,0.014481782913208008,724,0.617178738117218,1.3285045623779297,3.7841479778289795,5,-0.19065628427670087,1.3653432364475973,3.82134469140417,0,444,725,0,-0.16652046928011222,3.8179641156834694,2.413581499658865,-8.256243697489074,-0.3380575720700829,8.608438799797412,64.83068867618364,2.4371414767160022,22,11,30,ok,80,250648.0,74,70.0,0,0,9,0,0,0
1778104842.205478,3.92043399810791,1,0.006028890609741211,728,0.5356222987174988,1.3483339548110962,3.785922050476074,5,-0.13265787534154322,1.2867720144374908,3.8614200676251156,0,448,729,0,-0.1191434485079689,3.8329160374784816,1.3514426833574316,-0.3991214964784273,-2.850403014663394,3.1797000866990084,62.96150429187182,3.1545514217401025,0,0,25,ok,80,250637.0,74,70.0,0,0,9,0,0,0
1778104842.2776089,3.9925649166107178,1,-0.0017001628875732422,732,0.4382697641849518,1.5494838953018188,3.718564033508301,5,-0.13580336129319495,1.2881831248793263,3.8623029716713395,0,452,733,0,-0.10842290858751447,3.824061847125648,2.7380452705680485,-0.5402325406619779,-3.824112454569173,4.734192557011303,65.92126953276777,4.703267796848392,0,0,-2,ok,80,250633.0,74,70.0,0,-1,9,0,0,0
1778104842.349576,4.064532041549683,1,0.01028585433959961,735,0.4181867837905884,1.2964186668395996,3.8102216720581055,5,-0.04800403239285406,1.3469400232168285,3.8343734255218873,0,455,736,0,-0.06831529163795438,3.811458697457332,-2.031125924510033,-6.415922374412197,-2.291472806455541,7.10917576505357,56.125173128404334,3.0620777494933025,0,0,-26,ok,80,250633.0,74,70.0,0,-1,9,0,0,0
1778104842.421338,4.13629412651062,1,0.0017430782318115234,739,0.3281472623348236,1.3387677669525146,3.8179566860198975,5,-0.13367625838894243,1.289842851141661,3.8615982416230903,0,459,740,0,-0.12221061992833313,3.829649785307967,1.1465638460609302,-0.7062051668954572,-3.194845631512333,3.4670409573636864,62.619980134967875,3.3943552056741897,0,0,17,ok,80,250635.0,74,70.0,0,0,9,0,0,0
1778104842.4921532,4.207109212875366,1,0.012799978256225586,742,0.36774903535842896,1.412044644355774,3.7740745544433594,5,-0.04889765328907705,1.3478134771709274,3.833669415662472,0,462,743,0,-0.09528858486187325,3.8139746892202817,-4.6390931572796195,-6.503267769822085,-1.969472644219028,8.227545168776189,50.87452873025826,5.039842042985641,-10,1,-27,ok,80,250638.0,74,70.0,0,0,9,0,0,0
1778104842.5631769,4.278132915496826,1,0.0038068294525146484,746,0.36292749643325806,1.4147461652755737,3.774378776550293,5,-0.18583803019818973,1.3759285866044344,3.835636183287321,0,466,747,0,-0.16926521058826302,3.8123690558799197,1.657281960992671,-9.314778713172789,-2.3267127407401222,9.742960440827574,63.485339830096656,2.8566021207291232,19,1,-18,ok,80,250638.0,74,70.0,0,0,9,0,0,0
1778104842.635346,4.35030198097229,1,-0.00391697883605957,750,0.5033361911773682,1.2651931047439575,3.7975406646728516,5,-0.22919267867148538,1.2400397077607805,3.880185446814371,0,470,751,0,-0.1913827412036092,3.831518124379552,3.780993746787617,4.274109171192597,-4.866732243481886,7.499933709724771,68.25952303525862,6.162872418198619,0,0,30,ok,80,250650.0,74,70.0,0,0,9,0,0,0
1778104842.707375,4.422331094741821,1,0.007972955703735352,753,0.5033361911773682,1.2651931047439575,3.7975406646728516,5,-0.2755040303449949,1.3322878774499616,3.85404779959239,0,473,754,0,-0.22165357622410456,3.8192863436963034,5.385045412089032,-4.9507077977255065,-3.47614558960867,8.098877079501644,71.1107594383792,6.409547741488235,6,3,-30,ok,80,250650.0,74,70.0,0,0,9,0,0,0
1778104842.777156,4.492112159729004,1,-0.002191781997680664,757,0.4140290915966034,1.2942163944244385,3.794624090194702,5,-0.16897986754634187,1.1412419523003083,3.924721680777828,0,477,758,0,-0.17599107026983402,3.8551671617714365,-0.7011202723492149,14.153884717239817,-6.955451900639131,15.786143714261517,60.226328609253635,6.990699591486073,-25,15,30,ok,80,250650.0,74,70.0,0,0,9,0,0,0
1778104842.847637,4.56259298324585,1,0.008404016494750977,760,0.5039037466049194,1.2637968063354492,3.7800846099853516,5,-0.16897986754634187,1.1412419523003083,3.924721680777828,0,480,761,0,-0.17188894636858604,3.859012197801252,-0.2909078822244171,14.153884717239817,-6.570948297657564,15.607512342309517,60.854170473122515,6.577384657022055,-1,1,8,ok,80,250650.0,74,70.0,0,0,9,0,0,0
1778104842.921271,4.636227130889893,1,0.0017871856689453125,764,0.5038585066795349,1.2649856805801392,3.780113935470581,5,-0.23470882902876536,1.4578864933354931,3.807652005400928,0,484,765,0,-0.1993989444292386,3.7985956265760823,3.530988459952675,-17.51056938627866,-0.905637882484589,17.88597494435765,67.08643281843716,3.6452790673019995,12,-19,-30,ok,80,250657.00000000003,74,70.0,0,0,9,0,0,0
1778104842.990939,4.705894947052002,1,0.011648893356323242,767,0.40582382678985596,1.290306568145752,3.7799222469329834,5,-0.2283381664700477,1.2432191266045862,3.881291808324416,0,487,768,0,-0.19135882787144026,3.833038375594894,3.6979338598607443,3.956167286812029,-4.825343272952187,7.253269065391904,68.08332201428993,6.079362839453614,0,0,30,ok,80,250657.00000000003,74,70.0,0,0,9,0,0,0
1778104843.061255,4.7762110233306885,1,0.0019559860229492188,771,0.3588164746761322,1.4084887504577637,3.742264747619629,5,-0.16805602261166028,1.1434050828923166,3.9259195834388976,0,491,772,0,-0.16177604098489012,3.8533641502256515,0.6279981626770154,13.937571658038994,-7.255543321324609,15.725558632459313,62.951320251145326,7.282670566484787,-8,15,30,ok,80,250654.0,74,70.0,0,-1,9,0,0,0
1778104843.131843,4.84679913520813,1,0.012284278869628906,774,0.3589383363723755,1.4096096754074097,3.742236614227295,5,-0.16805602261166028,1.1434050828923166,3.9259195834388976,0,494,775,0,-0.16202536348869528,3.851355265080464,0.6030659122964993,13.937571658038994,-7.456431835843347,15.818279550574522,62.99669892795789,7.48077965302763,-2,4,7,ok,80,250646.99999999997,74,70.5,0,-1,9,0,0,0
1778104843.204573,4.919528961181641,1,0.0051920413970947266,778,0.5754176378250122,1.152069330215454,3.784388542175293,5,-0.2734008708555858,1.3308226865479855,3.835456591518755,0,498,779,0,-0.21019269719518027,3.805301761464295,6.3208173660405516,-4.804188707527901,-3.0154830054459847,8.492708582573169,72.891560880349,7.003275657217369,20,-14,-30,ok,80,250641.0,74,70.5,0,-1,9,0,0,0
1778104843.276782,4.9917380809783936,1,-0.002626180648803711,782,0.39226335287094116,1.475220799446106,3.6997058391571045,5,-0.2962835274602975,1.0879213890742263,3.9200432693410217,0,502,783,0,-0.22857607789168782,3.8414804237806948,6.770744956860969,19.485941039848022,-7.856284556032689,22.074104568581017,75.20130030013775,10.371315938501535,2,20,30,ok,80,250641.0,74,70.5,0,-1,9,0,0,0
1778104843.348625,5.0635809898376465,1,0.009165763854980469,785,0.4073238670825958,1.2905703783035278,3.7623813152313232,5,-0.19069721978387358,1.3821509353527102,3.833337069372038,0,505,786,0,-0.17620200058560131,3.7961121503609916,1.4495219198272262,-9.937013588000365,-3.722491901104652,10.709915909938472,63.338120431205816,3.994754028704312,-20,-12,-30,ok,80,250638.0,74,70.5,0,-1,9,0,0,0
1778104843.420236,5.135192155838013,1,0.000759124755859375,789,0.355423241853714,1.4048417806625366,3.726198196411133,5,-0.22822196387356808,1.244832177337492,3.879302460537972,0,509,790,0,-0.20424440417739892,3.8157269450955695,2.3977559696169157,3.794862213521455,-6.357551544240225,7.782587908088015,66.03129723107125,6.794681399999917,0,0,30,ok,80,250636.0,73,70.5,0,-1,9,0,0,0
1778104843.490147,5.205103158950806,1,0.01076507568359375,792,0.35678631067276,1.4067332744598389,3.7254135608673096,5,-0.13353000609334512,1.2976693819477796,3.8594212382716186,0,512,793,0,-0.16609043753771086,3.8023675605496887,-3.256043144436574,-1.4888582475073076,-5.705367772192993,6.735706143796757,54.69151487052507,6.569097226743629,0,0,-21,ok,80,250636.0,73,70.5,0,-1,9,0,0,0
1778104843.560551,5.275506973266602,1,0.0009911060333251953,796,0.353315532207489,1.4084912538528442,3.725614070892334,5,-0.1852473718868229,1.3818590074751131,3.8341614782240883,0,516,797,0,-0.1952308888458477,3.7863434195233827,-0.9983516959024802,-9.907820800240664,-4.781805870070555,11.04659614982978,58.78643624965212,4.884912843414155,-6,3,-30,ok,80,250646.0,73,70.5,0,0,9,0,0,0
1778104843.631487,5.346442937850952,1,0.012098073959350586,799,0.34867116808891296,1.4008256196975708,3.7106595039367676,5,-0.29051399980635606,1.082642388346855,3.904238197939706,0,519,800,0,-0.24849828446731548,3.819406451651013,4.201571533904058,20.01384111258515,-8.483174628869294,22.139812357339625,70.47586103546797,9.466649625839366,17,17,30,ok,80,250641.0,73,70.5,0,-1,9,0,0,0
1778104843.704154,5.419110059738159,1,0.004773139953613281,803,0.3513900339603424,1.399438500404358,3.71026611328125,5,-0.23550235506329553,1.45475571250585,3.7905931783863345,0,523,804,0,-0.22146423099653728,3.7605857855651994,1.403812406675825,-17.197491303314337,-3.000739282113507,17.513675589091182,63.09370396205648,3.3128726978796,-11,-17,-30,ok,80,250641.0,73,70.5,0,-1,9,0,0,0
1778104843.7754261,5.490382194519043,1,-0.0037276744842529297,807,0.31578528881073,1.5039623975753784,3.669618844985962,5,-0.18759747472753352,1.3770974235057811,3.8174864308538985,0,527,808,0,-0.21373881264204891,3.7668593057246484,-2.6141337914515397,-9.431662403307461,-5.062712512925005,11.019120162612788,55.699792673978386,5.69778496155622,-18,10,18,ok,80,250644.99999999997,73,70.5,0,-1,9,0,0,0
1778104843.8479,5.562855958938599,1,0.008543014526367188,810,0.3077738583087921,1.4984110593795776,3.655139923095703,5,-0.2364316087943735,1.2424198077208772,3.861173014449698,0,530,811,0,-0.24343647308560323,3.78591722776871,-0.7004864291229734,4.036099175182928,-7.525578668098776,8.568261905371537,60.501101800868064,7.558109256098962,3,12,30,ok,80,250648.0,73,70.5,0,-1,9,0,0,0
1778104843.918421,5.6333770751953125,1,-0.0010280609130859375,814,0.4215463697910309,1.3681403398513794,3.7042555809020996,5,-0.23597451062492417,1.4550801878885422,3.7902971410945074,0,534,815,0,-0.24231901758160135,3.7468464326955386,-0.6344506956677182,-17.229938841583568,-4.345070839896881,17.780690672008937,59.37053567381356,4.391146580217454,-3,-8,-30,ok,80,250648.0,73,70.5,0,0,9,0,0,0
1778104843.9879282,5.702884197235107,1,0.008744955062866211,817,0.346444696187973,1.3982486724853516,3.694502592086792,5,-0.18813873996056069,1.3774509506333072,3.8171979511821297,0,537,818,0,-0.21896229135352843,3.7583158624690784,-3.0823551392967747,-9.467015116060074,-5.888208871305123,11.567034716148108,55.108279180502784,6.646195672478022,-13,8,19,ok,80,250648.0,73,70.5,0,0,9,0,0,0
1778104844.059233,5.774188995361328,1,-0.0002040863037109375,821,0.34530341625213623,1.3981815576553345,3.694570779800415,5,-0.22454904529546385,1.2400977949273013,3.863127697017743,0,541,822,0,-0.237885124922269,3.7793530615702045,-1.3336079626805137,4.268300454540519,-8.37746354475386,9.496251597974624,59.730860629358894,8.482947933460679,2,13,30,ok,80,250648.0,73,70.5,0,-1,9,0,0,0
1778104844.132048,5.847003936767578,1,0.012490034103393555,824,0.34041813015937805,1.3993563652038574,3.6948750019073486,5,-0.2229678261853512,1.2365268394577864,3.8450217063360603,0,544,825,0,-0.2379006029952196,3.7683788744178015,-1.4932776809868402,4.62539600149201,-7.6642831918258825,9.075538730436692,59.03810478725847,7.808400289242233,-4,2,2,ok,80,250637.0,73,69.5,0,-1,9,0,0,0
1778104844.2036061,5.918562173843384,1,0.004187345504760742,828,0.30865123867988586,1.5013288259506226,3.6540169715881348,5,-0.2746418216297259,1.3288583029840106,3.817861124605587,0,548,829,0,-0.2662388463054711,3.751258425280775,0.8402975324254769,-4.607750351130413,-6.660269932481189,8.142276021780138,63.10255612768921,6.71306900877038,5,0,-30,ok,80,250639.0,73,69.5,0,-1,9,0,0,0
1778104844.275296,5.9902520179748535,1,0.015833139419555664,831,0.335872083902359,1.3917882442474365,3.6802470684051514,5,-0.2722666106628486,1.3262692283073478,3.819114431553937,0,552,832,0,-0.2660211127006564,3.7500088884501936,0.6245497962192148,-4.348842883464132,-6.910554310374328,8.188910657080543,62.78913317120227,6.938719141497995,-3,5,-4,ok,80,250639.0,73,69.5,0,-1,9,0,0,0
1778104844.347353,6.06230902671814,1,0.008052825927734375,835,0.4139517843723297,1.361209750175476,3.6898865699768066,5,-0.274739387267417,1.3298333902573174,3.8176626719674025,0,555,836,0,-0.2611220950303407,3.7505497414688547,1.3617292237076306,-4.705259078461088,-6.711293049854783,8.308743820528406,64.14357377952015,6.848047961260822,0,3,-6,ok,80,250646.99999999997,73,69.5,0,-1,9,0,0,0
1778104844.419625,6.134581089019775,1,0.00017309188842773438,839,0.33896833658218384,1.3952958583831787,3.679015874862671,5,-0.22631767931081737,1.2388584401653384,3.8444362026399443,0,559,840,0,-0.23496158615995388,3.7654287537905606,-0.8643906849136518,4.39223593073681,-7.900744884938371,9.080786169947004,60.37567390591101,7.947889090384019,-11,8,30,ok,80,250639.0,73,69.5,0,-1,9,0,0,0
1778104844.490091,6.205047130584717,1,0.010612964630126953,842,0.3050975501537323,1.494728684425354,3.639716386795044,5,-0.2707981663710314,1.3320366866324962,3.8160159187116407,0,562,843,0,-0.26447988091739205,3.747184912194718,0.6318285453639327,-4.925588715978968,-6.883100651692287,8.4875029361434,62.79127310745973,6.912038909906649,2,0,-30,ok,80,250627.0,73,69.5,0,0,9,0,0,0
1778104844.5597491,6.274705171585083,1,0.0002269744873046875,846,0.1952301263809204,1.4759968519210815,3.660236358642578,5,-0.29337600777697515,1.0870760697935395,3.8840278322529973,0,566,847,0,-0.2852197122333047,3.7790492293751328,0.8156295543670422,19.570472967916697,-10.497860287786454,22.223270109950043,65.1093878163161,10.529497717927521,-1,19,30,ok,80,250627.0,73,69.5,0,0,9,0,0,0
1778104844.631053,6.346009016036987,1,0.01169896125793457,849,0.3321124017238617,1.394989013671875,3.680687427520752,5,-0.2765660334194826,1.3272711532060697,3.799136877953904,0,569,850,0,-0.2776391634625756,3.7357360427081074,-0.10731300430930069,-4.449035373336319,-6.340083524579665,7.746101660366861,61.115281065245284,6.340991655848508,0,0,-30,ok,80,250641.0,73,69.5,0,0,9,0,0,0
1778104844.700942,6.415898084640503,1,0.0017151832580566406,853,0.30168595910072327,1.4966791868209839,3.6396291255950928,5,-0.270992857002609,1.3262048019234163,3.800758434590519,0,573,854,0,-0.27727333594530473,3.733093953756899,-0.6280478942695733,-4.342400245070976,-6.76644808336202,8.064471694458508,60.28254772871351,6.79553263713228,-6,-2,-4,ok,80,250635.0,73,69.5,0,0,9,0,0,0
1778104844.771999,6.486954927444458,1,0.012590646743774414,856,0.33080554008483887,1.3960498571395874,3.6808712482452393,5,-0.22697796464424472,1.2417960662350613,3.845521897354619,0,576,857,0,-0.253881245928313,3.757154077430018,-2.6903281284068297,4.098473323764518,-8.836781992460097,10.105645204853246,57.40755677491784,9.237238841816533,-12,12,30,ok,80,250635.0,73,69.5,0,0,9,0,0,0
1778104844.842452,6.557408094406128,1,0.0026750564575195312,860,0.29638832807540894,1.4987889528274536,3.6403791904449463,5,-0.36266111944261276,1.2909110736473977,3.812027032091045,0,580,861,0,-0.3241905580666814,3.737914902425718,3.8470561375931354,-0.8130274174691143,-7.411212966532688,8.38969201715127,69.29788703320422,8.350204701748051,22,0,-19,ok,80,250636.0,73,69.5,0,0,9,0,0,0
1778104844.9144168,6.629372835159302,1,0.014932870864868164,863,0.29638832807540894,1.4987889528274536,3.6403791904449463,5,-0.18997751617687383,1.3770950063917948,3.798785874804096,0,583,864,0,-0.24519647245236953,3.7282001125615025,-5.521895627549569,-9.431420691908832,-7.058576224259339,13.010246957802005,50.95099967546296,8.96185414047954,-30,3,-30,ok,80,250638.0,73,69.5,0,0,9,0,0,0
1778104844.985924,6.70088005065918,1,0.006773948669433594,867,0.377402663230896,1.2867915630340576,3.717275381088257,5,-0.2742110874990435,1.327354541013459,3.8002672624055718,0,587,868,0,-0.2849111126979098,3.7313320255013394,-1.0700025198866314,-4.457374154075255,-6.893523690423242,8.278511859773369,59.479926801225716,6.976071549446022,11,4,12,ok,80,250635.0,73,69.5,0,-1,9,0,0,0
1778104845.0571818,6.772137880325317,1,-0.002160310745239258,871,0.2573384642601013,1.4320948123931885,3.665684700012207,5,-0.27665576654465907,1.3300151802860793,3.798869204458267,0,591,872,0,-0.28911839508906956,3.7322560161037597,-1.2462628544410492,-4.723438081337283,-6.661318835450736,8.2605815193676,59.0305198507832,6.776897500323456,-4,3,-6,ok,80,250635.0,73,69.5,0,-1,9,0,0,0
1778104845.128084,6.8430399894714355,1,0.008620977401733398,874,0.2328265756368637,1.5331038236618042,3.6219255924224854,5,-0.27148634439324687,1.3283336838570245,3.800398202412506,0,594,875,0,-0.284183905934867,3.7306260921921233,-1.2697561541620106,-4.555288438431804,-6.977211022038254,8.428784437532785,59.1306480629923,7.091808960842388,-4,5,-4,ok,80,250639.0,73,69.5,0,-1,9,0,0,0
1778104845.200062,6.915018081665039,1,0.0006730556488037109,878,0.3688296973705292,1.2805513143539429,3.703051805496216,5,-0.27731772992289455,1.330354171992337,3.7986150145852284,0,598,879,0,-0.2848047677217741,3.7311322719019513,-0.7487037798879548,-4.757337251963056,-6.748274268327714,8.29047771117611,60.03923837482669,6.7896806221347745,-1,3,-6,ok,80,250640.0,73,69.5,0,-1,9,0,0,0
1778104845.270611,6.985567092895508,1,0.011096954345703125,881,0.2521740794181824,1.434024691581726,3.6661226749420166,5,-0.2670004916893599,1.3261629213480337,3.8013294611378847,0,601,882,0,-0.2827406410851656,3.7341453420124617,-1.5740149395805703,-4.3382121875327195,-6.718411912542299,8.150746385495657,58.418274034133475,6.900331996115339,-7,4,-3,ok,80,250640.0,73,69.5,0,-1,9,0,0,0
1778104845.342036,7.056992053985596,1,0.002619028091430664,885,0.2983255088329315,1.49336576461792,3.6248183250427246,5,-0.2731950022787625,1.328289627426011,3.7998225512532238,0,605,886,0,-0.2878678983331111,3.729888579369974,-1.4672896054348628,-4.5508827953304465,-6.993397188324968,8.471781231637383,58.75451188440925,7.145666030531288,-3,5,-6,ok,80,250642.99999999997,73,69.5,0,0,9,0,0,0
1778104845.414308,7.1292641162872314,1,0.014858007431030273,888,0.3278867304325104,1.3919298648834229,3.66580867767334,5,-0.22502212654994047,1.2361169111205568,3.8280058814082802,0,608,889,0,-0.26181281032138126,3.7455695873992774,-3.679068377144079,4.666388835214974,-8.243629400900288,10.162094005888164,55.16335258826985,9.027345668749435,-13,9,30,ok,80,250642.0,72,69.5,0,0,9,0,0,0
1778104845.485983,7.200938940048218,1,0.006569862365722656,892,0.22949209809303284,1.535124659538269,3.6222281455993652,5,-0.13727060749550168,1.293672770217861,3.823898424618441,0,612,893,0,-0.22211806516806037,3.742381418701509,-8.48474576725587,-1.0891970745154467,-8.151700591693212,11.816407387133825,46.01549248834466,11.766101022495848,-25,5,-23,ok,80,250648.99999999997,72,69.5,0,0,9,0,0,0
1778104845.556798,7.271754026412964,1,-0.002513885498046875,896,0.2277105748653412,1.529999852180481,3.6073665618896484,5,-0.274522274484541,1.3271956272925771,3.7994507378158073,0,616,897,0,-0.30009965418542717,3.7232882741002786,-2.5577379700886196,-4.441482781987061,-7.6162463715528705,9.180196164489777,56.95910652777159,8.034253687544682,16,3,-17,ok,80,250648.99999999997,72,69.5,0,0,9,0,0,0
1778104845.62781,7.342766046524048,1,0.00824594497680664,899,0.2855823040008545,1.4947431087493896,3.6271631717681885,5,-0.33301623912953915,1.1887335956186718,3.822664869109172,0,619,900,0,-0.3275813965241292,3.73248774423171,0.543484260540994,9.404720385403476,-9.017712487746188,13.040831230436694,63.69375383145726,9.034075140993092,7,11,30,ok,80,250631.0,72,69.5,0,0,9,0,0,0
1778104845.6978,7.412755966186523,1,-0.002171039581298828,903,0.28295716643333435,1.4971001148223877,3.6266117095947266,5,-0.3147397199957021,1.4042540205039349,3.7552187157882035,0,623,904,0,-0.3153099750324313,3.6990575498944906,-0.057025503672919475,-12.147322103122837,-5.616116589371289,13.382879052374985,60.93020555465426,5.6164060976286745,-5,-7,-30,ok,80,250630.00000000003,72,69.5,0,-1,9,0,0,0
1778104845.767607,7.482563018798828,1,0.008099079132080078,906,0.318767249584198,1.3938785791397095,3.6677820682525635,5,-0.23279278544933163,1.238581913216818,3.826231088739482,0,626,907,0,-0.2774654107458917,3.7323593777924016,-4.467262529656008,4.419888625588841,-9.387171094708036,11.296496409630743,54.40734008902952,10.395932650329678,-21,20,30,ok,80,250630.00000000003,72,69.5,0,-1,9,0,0,0
1778104845.839126,7.554082155227661,1,-0.00024580955505371094,910,0.266891747713089,1.31846284866333,3.695495128631592,5,-0.2805132389025262,1.3224115416648565,3.7826609581491306,0,630,911,0,-0.30040578320405736,3.7124100908528246,-1.9892544301531145,-3.9630742192150015,-7.025086729630603,8.307522736274779,57.756513431388115,7.301299661479168,4,-3,-30,ok,80,250635.0,72,69.5,0,-2,9,0,0,0
1778104845.910496,7.625452041625977,1,0.007231950759887695,913,0.266891747713089,1.31846284866333,3.695495128631592,5,-0.31304552678074193,1.4035291359673887,3.7560248264136638,0,633,914,0,-0.3186365372131554,3.7035093252093954,-0.5591010432413446,-12.07483364946822,-5.25155012042684,13.179263268720248,59.811213331596214,5.281228327189493,1,-2,-30,ok,80,250638.0,72,69.5,0,-1,9,0,0,0
1778104845.981759,7.6967151165008545,1,0.002405881881713867,917,0.2737334668636322,1.48798668384552,3.6146113872528076,5,-0.3159171320825711,1.404733398944603,3.7548248409758003,0,637,918,0,-0.32345691883712485,3.6997095018391803,-0.7539786754553746,-12.19525994718964,-5.511533913661992,13.404098444282464,59.5216521745546,5.562867059753246,-4,5,-11,ok,80,250638.0,72,69.5,0,-1,9,0,0,0
1778104846.05313,7.768085956573486,1,0.013749837875366211,920,0.23720262944698334,1.4298073053359985,3.6538074016571045,5,-0.31653844275079157,1.4030243865140313,3.755760096733238,0,640,921,0,-0.3232856659616132,3.702150833221508,-0.6747223210821607,-12.024358704132476,-5.360926351173001,13.182563627721052,59.62252736301399,5.403219554420083,-3,3,-10,ok,80,250640.0,72,69.5,0,0,9,0,0,0
1778104846.122489,7.837445020675659,1,0.0031020641326904297,924,0.18195702135562897,1.3620892763137817,3.678436040878296,5,-0.2350825659749401,1.2394299199551344,3.8256906085636344,0,644,925,0,-0.2854173246680445,3.741557931573497,-5.033475869310439,4.3350879517572105,-8.41326769901376,10.71969870153398,52.69195006995179,9.804027371554955,-22,17,30,ok,80,250640.0,72,70.0,0,0,9,0,0,0
1778104846.192938,7.907894134521484,1,0.013689279556274414,927,0.18027694523334503,1.3631203174591064,3.6787893772125244,5,-0.317391342053626,1.4025949123652928,3.7555243926802757,0,647,928,0,-0.3331532976303567,3.709701461472088,-1.5761955576730713,-11.981411289258626,-4.58229312081877,12.924241531459607,57.58159668577269,4.845802583796759,7,-9,-30,ok,80,250640.0,72,70.0,0,0,9,0,0,0
1778104846.262422,7.9773781299591064,1,0.003049135208129883,931,0.22676637768745422,1.432701826095581,3.65517258644104,5,-0.31754884449946075,1.4038869302142158,3.7543644597729506,0,651,932,0,-0.33674397314989163,3.7109065498213205,-1.9195128650430882,-12.110613074150933,-4.3457909951630125,13.009126721056314,56.829557700553,4.750834559601698,-5,2,-11,ok,80,250644.0,72,70.0,0,-1,9,0,0,0
1778104846.3330839,8.04803991317749,1,0.013648748397827148,934,0.22596867382526398,1.431475043296814,3.655932664871216,5,-0.2784271919790575,1.3213839389388804,3.7824280250102587,0,654,935,0,-0.3229830578746234,3.72419774472864,-4.455586589556587,-3.8603139466173886,-5.823028028161881,8.286249515929631,52.399416481499095,7.332114788640133,-15,9,23,ok,80,250642.99999999997,72,70.0,0,-1,9,0,0,0
1778104846.404719,8.119675159454346,1,0.005277156829833984,938,0.15790477395057678,1.4819265604019165,3.6494312286376953,5,-0.36544162922193746,1.2794555634395426,3.776735910332541,0,658,939,0,-0.3733019623562204,3.7184726936401624,-0.7860333134282915,0.3325236033163925,-5.826321669237844,5.888501041013072,59.57858251947764,5.879104741646428,0,0,12,ok,80,250642.0,72,70.0,0,-1,9,0,0,0
1778104846.476491,8.191447019577026,1,-0.002866983413696289,942,0.25278428196907043,1.3248605728149414,3.6991477012634277,5,-0.2784271919790575,1.3213839389388804,3.7824280250102587,0,662,943,0,-0.33067646034378156,3.721547036768511,-5.224926836472404,-3.8603139466173886,-6.088098824174759,8.903192208744924,51.024276478988426,8.022768084608181,-7,5,-19,ok,80,250642.0,72,70.0,0,-1,9,0,0,0
1778104846.549294,8.264250040054321,1,0.009901046752929688,945,0.2069147229194641,1.5449182987213135,3.6266541481018066,5,-0.23269397350918875,1.2305539221594797,3.8087673075316384,0,665,946,0,-0.3119860226053577,3.735469350582264,-7.929204909616894,5.222687731322684,-7.329795694937458,11.994776470077499,46.51218768672155,10.798064429712221,-17,9,30,ok,80,250642.0,72,70.0,0,-1,9,0,0,0
1778104846.62016,8.335116147994995,1,0.0006971359252929688,949,0.22218957543373108,1.446940302848816,3.67222261428833,5,-0.33432911737440296,1.1900376520994569,3.8200185592245006,0,669,950,0,-0.36374191041379306,3.7422459272181463,-2.9412793039390097,9.274314737324962,-7.777263200635431,12.455916693792593,56.30844301166202,8.314863007635063,12,7,18,ok,80,250626.00000000003,72,70.0,0,-1,9,0,0,0
1778104846.690804,8.405760049819946,1,0.011368036270141602,952,0.22799324989318848,1.4507309198379517,3.670991897583008,5,-0.369086732511875,1.2792836847335702,3.776204019036006,0,672,953,0,-0.37824345369893164,3.7198733981679437,-0.9156721187056627,0.34971147391362756,-5.633062086806229,5.717704261132741,59.24962503781603,5.706999553424607,0,0,-30,ok,80,250626.00000000003,72,70.0,0,-1,9,0,0,0
1778104846.7612858,8.476241827011108,1,0.00196075439453125,956,0.22176848351955414,1.4566360712051392,3.6879076957702637,5,-0.30047452893346827,1.0815169595636633,3.847031400074463,0,676,957,0,-0.34134413076684017,3.755856983597031,-4.08696018333719,20.126383990904316,-9.117441647743219,22.47003155960213,54.94045412043679,9.991545713261093,-8,9,30,ok,80,250638.0,72,70.0,0,-1,9,0,0,0
1778104846.832473,8.547429084777832,1,0.01299595832824707,959,0.15391035377979279,1.5017685890197754,3.665339946746826,5,-0.36728115144710144,1.2802090028251825,3.7762346056710867,0,679,960,0,-0.37930094351788557,3.7210940464144544,-1.201979207078413,0.25717966475240495,-5.51405592566323,5.649398918960564,58.64233332127521,5.643542040739188,0,0,-30,ok,80,250636.0,72,70.0,0,-1,9,0,0,0
1778104846.9030871,8.618043184280396,1,0.003771066665649414,963,0.22383053600788116,1.4630411863327026,3.6880500316619873,5,-0.3408917190665841,1.1871988783785619,3.802506778163749,0,683,964,0,-0.36623986094121336,3.736237468085209,-2.534814187462925,9.558192109414465,-6.626931007854031,11.903803339617701,56.506730441604745,7.095174243654667,-2,1,30,ok,80,250636.0,72,70.0,0,-1,9,0,0,0
1778104846.973717,8.68867301940918,1,0.014303922653198242,966,0.22383053600788116,1.4630411863327026,3.6880500316619873,5,-0.2808566010025712,1.3227948634113051,3.7819698155517267,0,686,967,0,-0.33210194178062535,3.7283826619682157,-5.124534077805415,-4.001406393859863,-5.358715358351107,8.425433694192817,50.89222475538251,7.414626073270117,-15,0,-30,ok,80,250628.00000000003,72,70.0,0,-1,9,0,0,0
1778104847.044271,8.75922703742981,1,0.004965066909790039,970,0.1994745433330536,1.5654890537261963,3.6436660289764404,5,-0.3705277431104125,1.2813852365930563,3.7758667632043825,0,690,971,0,-0.38026937149929707,3.7218635312766066,-0.9741628388884593,0.13955628796502584,-5.40032319277759,5.489258582052164,59.04786917374123,5.487484289100312,0,0,12,ok,80,250627.0,72,70.0,0,-1,9,0,0,0
1778104847.11651,8.83146595954895,1,-0.0028989315032958984,974,0.21045957505702972,1.4594682455062866,3.675140142440796,5,-0.32188322073945363,1.3983310400185571,3.738894460267291,0,694,975,0,-0.3557255570552198,3.706407754454248,-3.3842336315766164,-11.555024054585061,-3.2486705813043137,12.470985475132498,53.62659340007826,4.691151012163898,-2,0,-30,ok,80,250627.0,72,70.0,0,-1,9,0,0,0
1778104847.1889951,8.903951168060303,1,0.009675025939941406,977,0.2094542235136032,1.461986780166626,3.6749842166900635,5,-0.2816631672858493,1.3260957910026514,3.7819059613635675,0,697,978,0,-0.3364114898234256,3.7280861051524945,-5.474832253757633,-4.331499152994489,-5.381985621107299,8.814842162227443,50.217511774564564,7.677210263669389,-14,12,19,ok,80,250641.0,72,70.0,0,-1,9,0,0,0
1778104847.259691,8.974647045135498,1,-0.0001201629638671875,981,0.21419280767440796,1.4644979238510132,3.674537420272827,5,-0.3764563501958537,1.2919662863803274,3.7918839773657935,0,701,982,0,-0.3846706089171016,3.7332967083217214,-0.8214258721247869,-0.9185486907620888,-5.858726904407208,5.9869151573345,59.521890731942776,5.916030882595258,0,0,8,ok,80,250642.0,72,70.0,0,-1,9,0,0,0
1778104847.330623,9.045578956604004,1,0.011178970336914062,984,0.13356629014015198,1.606292963027954,3.621345281600952,5,-0.2821390892151328,1.3278603446265085,3.781875770322703,0,704,985,0,-0.3430246155129538,3.724132453914594,-6.088552629782101,-4.507954515380197,-5.7743316408108925,9.525493842128768,49.197569908960766,8.391268022396636,-8,5,-18,ok,80,250638.0,72,70.0,0,-1,9,0,0,0
1778104847.4004622,9.115418195724487,1,0.0011582374572753906,988,0.13877815008163452,1.5123482942581177,3.668832778930664,5,-0.46433957495327605,1.2598800003985176,3.7792667379610005,0,708,989,0,-0.4350706211131603,3.7230462397452326,2.926895384011574,2.290079907418896,-5.622049821576791,6.739334297065522,66.80682252063585,6.338308984677213,0,0,23,ok,80,250638.0,72,70.0,0,-1,9,0,0,0
1778104847.472034,9.186990022659302,1,0.012582063674926758,991,0.2086516171693802,1.4662086963653564,3.6762118339538574,5,-0.28280219052562705,1.328842333753946,3.7818167616535168,0,711,992,0,-0.3452506113267421,3.7235813642347324,-6.244842080111507,-4.606153428123938,-5.823539741878436,9.701974908965024,48.91711941331289,8.538832925568283,-7,5,-29,ok,80,250637.0,71,70.0,0,-1,9,0,0,0
1778104847.543181,9.258136987686157,1,0.003837108612060547,995,0.27105459570884705,1.4255460500717163,3.6975643634796143,5,-0.34150958366588874,1.1979861673157353,3.8207007943359406,0,715,996,0,-0.37165280416556257,3.743618026314546,-3.014322049967383,8.479463215697125,-7.7082768021394354,11.849260107942655,56.13000430006318,8.27669430867907,5,13,30,ok,80,250637.0,71,70.0,0,-1,9,0,0,0
1778104847.6150541,9.330010175704956,1,0.01563119888305664,998,0.18039989471435547,1.564386248588562,3.633362293243408,5,-0.37739093404970653,1.2948969533587398,3.7917890566781627,0,719,999,0,-0.3907856448961401,3.7285181740023425,-1.3394710846433566,-1.2116153886033265,-6.327088267582015,6.579835908460789,58.701208289225804,6.467320057981485,0,0,-30,ok,80,250637.0,71,70.0,0,-1,9,0,0,0
1778104847.685905,9.400861024856567,1,0.006487846374511719,1002,0.2673428952693939,1.42587411403656,3.6989660263061523,5,-0.33804517666708467,1.2008547510355572,3.819471446492514,0,722,1003,0,-0.36755755869155643,3.7438484866511033,-2.9512382024471764,8.192604843714935,-7.5622959841410875,11.533295348884527,56.17201564240006,8.117766163135032,-5,6,30,ok,80,250642.0,71,70.0,0,-1,9,0,0,0
1778104847.756395,9.471351146697998,1,0.016957998275756836,1005,0.12778504192829132,1.5082801580429077,3.656362533569336,5,-0.4456556684068583,1.172941793863806,3.8212775789257627,0,726,1006,0,-0.42646712841052525,3.743587697672682,1.918853999633302,10.983900560890048,-7.768988125308063,13.589895095055263,65.70145864868098,8.002448198088283,14,7,15,ok,80,250656.0,71,70.0,0,-1,9,0,0,0
1778104847.826004,9.54096007347107,1,0.0063800811767578125,1009,0.12508858740329742,1.5188759565353394,3.6724562644958496,5,-0.2896848143458511,1.3317129808049097,3.7810814821622256,0,729,1010,0,-0.35405071514696607,3.723359577054852,-6.436590080111499,-4.893218133220323,-5.772190510737341,9.934357495626585,48.520200755765465,8.645685348868298,-30,-1,-30,ok,80,250656.0,71,70.0,0,-1,9,0,0,0
1778104847.896401,9.611356973648071,1,-0.002927064895629883,1013,0.1747453212738037,1.5694500207901,3.6356663703918457,5,-0.3786780850570109,1.2970822021585078,3.7916427626347615,0,733,1014,0,-0.39597366105669274,3.7295352853405515,-1.7295575999681845,-1.4301402685801268,-6.210747729421007,6.603791186729811,57.88924946316112,6.447073510525213,0,0,8,ok,80,250648.0,71,70.0,0,-1,9,0,0,0
1778104847.967869,9.682825088500977,1,0.008423089981079102,1016,0.16829203069210052,1.5704705715179443,3.6364712715148926,5,-0.37847836284613195,1.2980025661672325,3.791698340630926,0,736,1017,0,-0.39402918241309914,3.727540480125148,-1.555081956696719,-1.5221766694526018,-6.415786050577799,6.774777660695455,58.31897369251381,6.601559705011565,0,0,-3,ok,80,250642.99999999997,71,70.0,0,-1,9,0,0,0
1778104848.03949,9.754446029663086,1,-5.316734313964844e-05,1020,0.1662570834159851,1.5715409517288208,3.637117624282837,5,-0.3212070826846131,1.4128892794266963,3.7545579671065323,0,740,1021,0,-0.36804320069192686,3.706526905258512,-4.6836118007313745,-13.010847995398978,-4.803106184802042,14.638586478270756,51.53598123558146,6.7086547475953635,-4,3,-30,ok,80,250642.99999999997,71,70.0,0,-1,9,0,0,0
1778104848.1094,9.824356079101562,1,0.00991201400756836,1023,0.11274459213018417,1.608738899230957,3.61224365234375,5,-0.3260631326416272,1.413139080505629,3.7556910867722775,0,743,1024,0,-0.3803656008941003,3.701760920645393,-5.430246825247314,-13.035828103292246,-5.3930166126884505,15.116382606510928,50.30933906355768,7.653248249458667,-9,7,-11,ok,80,250642.99999999997,71,70.0,0,-1,9,0,0,0
1778104848.1796749,9.894630908966064,1,0.0004780292510986328,1027,0.12139551341533661,1.515756368637085,3.658599853515625,5,-0.3218123946758759,1.4147617978644673,3.7545382804702645,0,747,1028,0,-0.38192800574241337,3.7027618650114,-6.011561106653746,-13.19809983917608,-5.177641545886447,15.399242782733866,49.08169404238188,7.933904392965761,-9,4,-12,ok,90,250642.99999999997,71,70.0,0,-2,9,0,0,0
1778104848.252699,9.967654943466187,1,0.013286828994750977,1030,0.16128388047218323,1.5716136693954468,3.6389729976654053,5,-0.24599428562931994,1.2524039158062776,3.8246032470057005,0,750,1031,0,-0.35064763964396106,3.734044783989072,-10.465335401464113,3.0376883666428878,-9.055846301662873,14.16895013461889,43.063277776622286,13.839494113025921,-25,20,30,ok,90,250644.0,71,70.0,0,-2,9,0,0,0
1778104848.3233778,10.038333892822266,1,0.003999948501586914,1034,0.16128388047218323,1.5716136693954468,3.6389729976654053,5,-0.17707646973180843,1.4871312954349638,3.719804054539593,0,754,1035,0,-0.3140950542862121,3.6805583417620222,-13.701858455440366,-20.43504959622573,-3.924571277757094,24.91454267786836,33.52799889767933,14.252830766101118,-23,-13,-30,ok,90,250644.0,71,70.0,0,-2,9,0,0,0
1778104848.393454,10.108410120010376,1,0.014185905456542969,1037,0.15982767939567566,1.5710978507995605,3.6395883560180664,5,-0.2501425250529723,1.4498776593939162,3.7377260510195973,0,757,1038,0,-0.3484568886972704,3.687465095722163,-9.831436364429807,-16.70968599212097,-5.026095529743424,20.02828957293217,41.57078759880074,11.041683624427012,3,9,-1,ok,90,250648.99999999997,71,70.0,0,-1,9,0,0,0
1778104848.465923,10.18087911605835,1,0.006597042083740234,1041,0.1746804416179657,1.4706684350967407,3.6865551471710205,5,-0.3433737818363623,1.2052772075337854,3.8189355580996454,0,761,1042,0,-0.3950765720674553,3.7312503978108853,-5.170279023109297,7.750359193892109,-8.768516028876006,12.79401133967793,52.66505168093549,10.179325052549382,8,20,30,ok,90,250639.0,71,70.0,0,-1,9,0,0,0
1778104848.537639,10.252594947814941,1,-0.0016140937805175781,1045,0.09689705818891525,1.6083972454071045,3.6163170337677,5,-0.2982949018458272,1.3293022613203873,3.7624114893822926,0,765,1046,0,-0.3769993178536368,3.7017287235930096,-7.870441600780959,-4.65214618476808,-6.0682765789283,10.973162522906762,45.89297704803278,9.938200623335861,-18,-3,-30,ok,90,250644.0,71,70.0,0,-1,9,0,0,0
1778104848.6090071,10.323963165283203,1,0.009808063507080078,1048,0.14071005582809448,1.6575186252593994,3.5971169471740723,5,-0.28867566210076545,1.330121687447829,3.782753378844183,0,768,1049,0,-0.37378638720534907,3.709399626004657,-8.511072510458362,-4.734088797512248,-7.335375283952628,12.192525684920005,45.41284995272599,11.235928347702432,-11,11,-6,ok,90,250642.0,71,70.0,0,-2,9,0,0,0
1778104848.6802702,10.395226240158081,1,0.0010142326354980469,1052,0.16785769164562225,1.4687831401824951,3.6892716884613037,5,-0.15871839410753155,1.2898571585182523,3.790656141576733,0,772,1053,0,-0.3053631844890172,3.718165259628279,-14.664479038148567,-0.7076359045545821,-7.249088194845399,16.37366708133399,33.92506346806334,16.358368656957996,-30,6,10,ok,90,250642.0,71,70.0,0,-2,9,0,0,0
1778104848.7603872,10.475343227386475,1,0.0008530616760253906,1056,0.048747703433036804,1.5622584819793701,3.651630401611328,5,-0.4351657806942423,1.4526667101929047,3.7195676294408333,0,776,1057,0,-0.44812736590626634,3.6821854128163105,-1.2961585212024063,-16.988591072019823,-3.738221662452279,17.443238080185246,57.892480231462486,3.9565550810917687,30,-6,-30,ok,90,250634.0,71,70.0,0,-1,9,0,0,0
1778104848.8303192,10.545275211334229,1,0.010779142379760742,1059,0.09106747061014175,1.6064629554748535,3.6187589168548584,5,-0.35521248135436495,1.2030965885284959,3.8198244097717846,0,779,1060,0,-0.4125392418527053,3.731050422931127,-5.732676049834034,7.968421094421063,-8.87739868406574,13.235086581742014,51.68021745690129,10.567487028058888,-23,26,30,ok,90,250648.99999999997,71,70.0,0,-1,9,0,0,0
1778104848.901663,10.616619110107422,1,0.002331972122192383,1063,0.09841607511043549,1.5114985704421997,3.6659204959869385,5,-0.4126324980371665,1.3686633989022008,3.732179626405852,0,783,1064,0,-0.4451784880292153,3.6889122498932565,-3.2545989992048776,-8.588259942949428,-4.326737651259549,10.152402779446946,54.18623933790422,5.414154906211346,2,-10,-30,ok,90,250641.0,71,70.0,0,-1,9,0,0,0
1778104848.97246,10.687416076660156,1,0.012907028198242188,1066,0.1044853925704956,1.5186214447021484,3.680809736251831,5,-0.3847593438455854,1.291049318892005,3.7752535801153213,0,786,1067,0,-0.4347008038599985,3.7130255630126014,-4.994146001441307,-0.8268519419298404,-6.222801710271986,8.021747910708072,51.5370156420644,7.979019702261435,-13,12,23,ok,90,250641.0,71,70.0,0,-1,9,0,0,0
1778104849.043957,10.758913040161133,1,0.004450082778930664,1070,0.04328534007072449,1.5621421337127686,3.652799367904663,5,-0.48502385613231,1.260141243119994,3.7603841185474214,0,790,1071,0,-0.49304525385006337,3.703481096024504,-0.8021397717753342,2.263955635271242,-5.690302252291746,6.1764442079870445,59.49435541727903,5.746561401038042,0,0,9,ok,90,250646.0,71,70.0,0,-1,9,0,0,0
