timestamp,elapsed,my_id,peer_age_s,peer_seq,peer_pos_x,peer_pos_y,peer_pos_z,peer_state,pos_x,pos_y,pos_z,marker_id,tx_count,rx_count,crc_errors,target_x,target_z,err_x_cm,err_y_cm,err_z_cm,err_3d_cm,dist_to_peer_cm,dist_to_mid_cm,cmd_lr,cmd_fb,cmd_ud,feedback,tello_height_cm,tello_baro_cm,tello_battery,tello_temp_c,tello_pitch,tello_roll,tello_yaw,tello_vgx,tello_vgy,tello_vgz
1778105202.8508449,9.5367431640625e-07,1,0.0018398761749267578,60,1.4140480756759644,1.284537672996521,3.891470193862915,5,0.44800753775218366,1.2775613803111816,3.8166816205362672,0,252,61,0,0.631027806714074,3.854075907199591,18.302026896189034,11.14858844816846,3.7394286663323673,21.754046511995195,96.89311903392846,18.68013691757678,30,-20,30,ok,140,250573.99999999997,70,78.5,0,0,0,0,0,0
1778105202.922246,0.07140207290649414,1,0.013190984725952148,63,1.4551445245742798,1.470814824104309,3.8383352756500244,5,0.40198467232870777,1.3996095542580793,3.7791916977534044,0,255,64,0,0.618290486226915,3.822047216254937,21.63058138982072,-1.0562289465213093,4.285551850153269,22.07631367573581,103.61627071674127,22.051031856174223,24,-4,-30,ok,140,250565.0,70,78.5,0,0,0,0,0,0
1778105202.99334,0.14249610900878906,1,0.004330158233642578,67,1.3950461149215698,1.368211030960083,3.8665478229522705,5,0.5483191533340147,1.2549011903611156,3.8141401604302794,0,259,68,0,0.684866029195643,3.839795628959341,13.654687586162828,13.414607443175065,2.5655468529061753,19.31279929437092,87.46002009832688,13.893614494801776,-19,4,30,ok,140,250565.0,70,78.5,0,0,0,0,0,0
1778105203.0646038,0.2137598991394043,1,0.015607595443725586,70,1.3993855714797974,1.3652037382125854,3.84879469871521,5,0.3620670684954909,1.5032600232964355,3.7396368031460145,0,262,71,0,0.588986570079197,3.8004619004705598,22.691950158370606,-11.421275850356928,6.082509732454522,26.122156662215428,106.0837129089591,23.493010165480705,30,-16,-30,ok,140,250569.0,70,78.5,0,0,0,0,0,0
1778105203.1368499,0.28600597381591797,1,0.007845878601074219,74,1.2278141975402832,1.2547138929367065,3.852855920791626,5,0.39588211511341737,1.397577936185698,3.7804850527618745,0,266,75,0,0.587084905975898,3.820042917578142,19.120279086248065,-0.8530671392831701,3.955786481626733,19.543823642480014,98.55861330597384,19.52519702907594,0,4,30,ok,140,250563.0,70,78.5,0,0,0,0,0,0
1778105203.207951,0.35710716247558594,1,-0.0011069774627685547,78,1.3202760219573975,1.2611037492752075,3.867530584335327,5,0.35601069300685845,1.3149999789148432,3.808804610052071,0,269,79,0,0.5623148886825369,3.83486351305165,20.63041956756784,7.404728587802301,2.6058902999579026,22.0733975918597,101.39487264834194,20.79434720757785,18,3,30,ok,140,250563.0,70,78.5,0,0,0,0,0,0
1778105203.27776,0.42691612243652344,1,0.00881505012512207,81,1.4508860111236572,1.4721416234970093,3.8389320373535156,5,0.5487252957742323,1.2561528976466407,3.8139964588216797,0,273,82,0,0.6645483991208982,3.8358886961009033,11.582310334666591,13.28943671462255,2.1892237279223625,17.763776102264423,83.27979907034884,11.787392129704635,-24,0,30,ok,140,250560.0,70,78.0,0,0,0,0,0,0
1778105203.347612,0.4967679977416992,1,-0.0013821125030517578,85,1.4036035537719727,1.2850656509399414,3.8920395374298096,5,0.5444627331265518,1.2533686155633508,3.8158871846000135,0,276,86,0,0.6638691210035834,3.8389752217431754,11.940638787703161,13.567864922951545,2.3088037143161877,18.22076803587325,84.00827950891107,12.161802056012975,9,-1,10,ok,140,250567.99999999997,70,78.0,0,0,0,0,0,0
1778105203.418161,0.567317008972168,1,0.008744955062866211,88,1.3094521760940552,1.2714033126831055,3.8833627700805664,5,0.3998418458651861,1.39989001835534,3.7808562728535904,0,280,89,0,0.5850214336490314,3.820953051883567,18.517958778384525,-1.0842753562473773,4.009677902997666,18.978091770562752,97.36672616262308,18.94709250000475,30,-8,-30,ok,140,250567.99999999997,70,78.0,0,0,0,0,0,0
1778105203.488999,0.6381549835205078,1,-5.7220458984375e-05,92,1.4005587100982666,1.287765383720398,3.891874074935913,5,0.4365866120916491,1.4759536821315087,3.752744155477864,0,284,93,0,0.599982203357512,3.810243168151072,16.339559126586284,-8.690641733864247,5.749901267320778,19.37962359751936,93.38985179622729,17.32173654790842,3,-9,-30,ok,140,250569.0,70,78.0,0,0,0,0,0,0
1778105203.559016,0.708172082901001,1,0.009966850280761719,95,1.474084734916687,1.3994102478027344,3.867156505584717,5,0.4096304452815688,1.407978693380449,3.796449581982731,0,287,96,0,0.5914440337021667,3.8321339240680334,18.18135884205979,-1.8931428587582788,3.568434208530258,18.624701928568474,96.62664358380543,18.528236074822523,18,5,23,ok,140,250569.0,70,78.0,0,0,0,0,0,0
1778105203.630346,0.7795021533966064,1,0.0006909370422363281,99,1.3819866180419922,1.38185453414917,3.8652400970458984,5,0.3268972940321564,1.4439017157616671,3.7854299438669976,0,291,100,0,0.5489900234875977,3.8276519424058346,22.209272945544136,-5.485445096880093,4.222199853883701,23.26303686724285,104.75944163861244,22.607051474613275,28,-5,-16,ok,140,250569.0,70,78.0,0,0,0,0,0,0
1778105203.701924,0.8510801792144775,1,0.012882232666015625,102,1.4600286483764648,1.4106525182724,3.8831100463867188,5,0.3351697342299546,1.2437389403374413,3.870839602195565,0,294,103,0,0.5676396467637581,3.8722476544198114,23.24699125338035,14.530832445542497,0.14080522242463367,27.415096571156468,106.49435484847496,23.24741767262344,18,13,30,ok,140,250571.99999999997,70,78.0,0,0,0,0,0,0
1778105203.773538,0.922694206237793,1,0.004537105560302734,106,1.4551620483398438,1.4125632047653198,3.883635997772217,5,0.41218638866463136,1.408127413199094,3.7992766383476413,0,298,107,0,0.6145783506299993,3.8374727608356554,20.239196196536795,-1.9080148406227737,3.8196122488014073,20.68465665765666,100.76837345527241,20.596468153863253,3,-15,-30,ok,140,250571.99999999997,70,78.0,0,0,0,0,0,0
1778105203.845115,0.9942710399627686,1,0.014863014221191406,109,1.3847554922103882,1.3093911409378052,3.9077701568603516,5,0.4217729103887685,1.4104326175431696,3.7979676316124307,0,301,110,0,0.6152384540599887,3.8411206399372273,19.346554367122014,-2.13853527503034,4.315300832479663,19.937008809682478,99.06975823493521,19.82198242242202,10,-4,-2,ok,140,250567.99999999997,70,78.0,0,0,0,0,1,0
1778105203.9159381,1.065094232559204,1,0.006827116012573242,113,1.3648638725280762,1.3934699296951294,3.8820903301239014,5,0.3899421652206987,1.3363214726120283,3.8441187060716966,0,305,114,0,0.5969018513982103,3.863574351710241,20.69596861775116,5.272579218083795,1.9455645638544627,21.445475749211912,101.4665749015731,20.78721574668111,18,6,30,ok,140,250569.0,70,78.0,0,0,0,0,1,0
1778105203.986384,1.1355400085449219,1,-0.002724170684814453,117,1.3683475255966187,1.3979642391204834,3.8816959857940674,5,0.42978794533503045,1.4102410273075368,3.8000294320994734,0,308,118,0,0.6205057007992862,3.841425540706223,19.071775546425577,-2.1193762514670533,4.139610860674958,19.630607638744586,98.49214249586798,19.51586535542441,7,-10,-27,ok,140,250569.0,70,78.0,0,0,0,0,1,0
1778105204.057745,1.2069010734558105,1,0.00855398178100586,120,1.3759651184082031,1.3171740770339966,3.925230026245117,5,0.4332575408824288,1.4104007947323423,3.800857736534527,0,312,121,0,0.6207033990923565,3.843924439880575,18.74458582099277,-2.1353529939476035,4.306670334604812,19.351140518850286,97.86893391124877,19.232964071393894,11,-3,-1,ok,140,250569.0,70,78.0,0,0,0,0,1,0
1778105204.12935,1.2785060405731201,1,0.0003647804260253906,124,1.3671330213546753,1.4013272523880005,3.8810970783233643,5,0.46488992865129064,1.4846625346087539,3.7748232722670743,0,316,125,0,0.6298351108791618,3.8317784935430144,16.494518222787114,-9.561526981588763,5.69552212759401,19.89801251199273,93.68413306585049,17.450160563953823,4,-8,-30,ok,140,250569.0,70,78.0,0,0,0,0,1,0
1778105204.201045,1.35020112991333,1,0.01186680793762207,127,1.2826176881790161,1.3039451837539673,3.916273355484009,5,0.5246534662297738,1.3790897504608393,3.8085064583907093,0,319,128,0,0.6535063215519672,3.851809665257214,12.885285532219337,0.9957514332026962,4.330320686650468,13.629885597934384,86.20671418002695,13.593463888797952,-2,1,30,ok,140,250561.0,70,77.5,0,0,0,0,1,0
1778105204.271528,1.4206840991973877,1,0.002447843551635742,131,1.3619354963302612,1.4059922695159912,3.898883819580078,5,0.3643591667466968,1.4483692843139644,3.8106859980760426,0,323,132,0,0.567228349807541,3.8538852959244654,20.286918306084416,-5.932201952109817,4.31992978484228,21.57340649281717,100.94426077927912,20.741765780755276,30,-2,-28,ok,140,250561.0,70,77.5,0,0,0,0,1,0
1778105204.342704,1.4918601512908936,1,0.01361393928527832,134,1.3478103876113892,1.4786099195480347,3.8542251586914062,5,0.5576403809042548,1.4554974637589577,3.7842792394483826,0,326,135,0,0.6571594780907917,3.8388437391680847,9.951909718653685,-6.64501989660915,5.456449971970212,13.15179237865238,80.64559346831216,11.349597056497089,-28,-7,-7,ok,140,250573.0,70,77.5,0,0,0,0,1,0
1778105204.4112298,1.5603859424591064,1,0.0023317337036132812,138,1.4285008907318115,1.5096718072891235,3.8703908920288086,5,0.48301831987399874,1.4833439904609356,3.780387229670762,0,330,139,0,0.6225825349832526,3.834561530227303,13.956421510925383,-9.429672566806936,5.417430055654071,17.6931900604644,88.57800043925236,14.970980255097688,24,-3,-16,ok,140,250578.00000000003,70,77.5,0,0,0,0,1,0
1778105204.480852,1.6300079822540283,1,0.011868953704833984,141,1.3456007242202759,1.4886181354522705,3.86957049369812,5,0.5381319569344952,1.3745937197313816,3.815555012281324,0,333,142,0,0.6489354067442632,3.8513629317559728,11.080344980976797,1.4453545061484663,3.5807919474648564,11.733932227387822,82.47222113480625,11.644574525008927,-1,4,30,ok,140,250578.00000000003,70,77.5,0,0,0,0,1,0
1778105204.549322,1.6984779834747314,1,0.00032401084899902344,145,1.4301272630691528,1.5102040767669678,3.8698174953460693,5,0.5703149189884568,1.45574532686443,3.7872968758016325,0,337,146,0,0.6688881213632774,3.836491457863127,9.857320237482059,-6.669806207156381,4.919458206149452,12.87843725563573,80.3195379856047,11.016706917510538,3,-8,-30,ok,140,250585.0,70,77.5,0,0,0,0,1,0
1778105204.616374,1.7655301094055176,1,0.007402896881103516,148,1.2790178060531616,1.3881770372390747,3.891580104827881,5,0.6372538363971982,1.3563178242013327,3.8128457693298508,0,340,149,0,0.6962983730454582,3.847162784538659,5.904453664825993,3.2729440591533487,3.4317015208808144,7.573064850035288,72.13615926282884,6.829286083368656,0,0,30,ok,140,250573.99999999997,70,77.5,0,-1,0,0,1,0
1778105204.6840582,1.833214282989502,1,-0.004873991012573242,152,1.3509246110916138,1.4879627227783203,3.8695573806762695,5,0.5524740769166387,1.3758899952995933,3.817570115086228,0,343,153,0,0.6528954676637371,3.8488037263139043,10.042139074709834,1.3157269493272894,3.1233611227676317,10.598635728442432,80.3275366579013,10.516650697775901,8,0,-6,ok,140,250573.99999999997,70,77.5,0,-1,0,0,1,0
1778105204.756601,1.905757188796997,1,0.007451057434082031,155,1.3683947324752808,1.404072642326355,3.898113489151001,5,0.5813583526738154,1.4550191602490528,3.790237484767253,0,347,156,0,0.6726986708108418,3.8340024195086038,9.134031813702636,-6.597189545618654,4.37649347413509,12.087478736432134,78.75598113476939,10.128387448299899,4,-7,-30,ok,140,250577.0,70,77.5,0,-1,0,0,1,0
1778105204.828162,1.9773180484771729,1,-0.0006852149963378906,159,1.366079568862915,1.4067806005477905,3.895458459854126,5,0.5846153611429827,1.4537202786605792,3.7914731826760093,0,350,160,0,0.6745861795787165,3.8344061834801098,8.997081843573373,-6.467301386771296,4.293300080410045,11.88300864712891,78.46540174866394,9.968947150045814,7,-2,-4,ok,140,250567.0,70,77.5,0,-1,0,0,1,0
1778105204.899827,2.048983097076416,1,0.010765790939331055,162,1.366079568862915,1.4067806005477905,3.895458459854126,5,0.5927760640013099,1.5109191017052073,3.7914113496737607,2,354,163,0,0.6798083548361002,3.836952348301655,8.703229083479036,-12.187183691234104,4.554099862789451,15.652906067681387,77.94048414138874,9.822729866985767,6,-4,-28,ok,140,250567.0,70,77.5,0,-1,0,0,1,0
1778105204.9705448,2.1197009086608887,1,0.001676797866821289,166,1.439162254333496,1.5062981843948364,3.8687472343444824,5,0.5464339417756119,1.4149559824591673,3.842757873559165,2,358,167,0,0.6573036289483567,3.8625228816390873,11.08696871727448,-2.5908717666301095,1.9765008079922097,11.555952894198636,82.26896264857811,11.261768545917503,17,7,30,ok,140,250563.0,70,77.5,0,-1,0,0,0,0
1778105205.0418031,2.1909592151641846,1,0.012597084045410156,169,1.439162254333496,1.5062981843948364,3.8687472343444824,5,0.6327907986076418,1.4481788559851076,3.832279331698923,2,361,170,0,0.7063296529964478,3.857232156999364,7.353885438880603,-5.913159119224143,2.495282530044074,9.76071292079564,74.87427307922955,7.765698033848813,-5,-4,-16,ok,140,250571.99999999997,70,77.5,-1,-1,0,0,0,0
1778105205.11306,2.262216091156006,1,0.004077911376953125,173,1.3745635747909546,1.4127309322357178,3.9129650592803955,5,0.5187080335489603,1.4865919513383994,3.7939021978721947,2,365,174,0,0.6458155399497196,3.840740312831895,12.71075064007593,-9.754468654553317,4.683811495970014,16.692840701828874,85.93360949869448,13.546264133109599,29,-11,-20,ok,140,250584.0,70,77.5,0,-1,0,0,0,0
1778105205.1842408,2.3333969116210938,1,0.015320777893066406,176,1.3941024541854858,1.3232300281524658,3.9409873485565186,5,0.5574639877675207,1.415855715030959,3.8393570499185596,2,368,177,0,0.6723863075672702,3.8665556915881174,11.492231979974953,-2.680845023809275,2.7198641669557766,12.11016048654732,83.16256311025401,11.809701815382516,5,4,22,ok,140,250584.0,70,77.5,0,-1,0,0,0,0
1778105205.2534668,2.402622938156128,1,0.0045168399810791016,180,1.3796833753585815,1.4035604000091553,3.896096706390381,5,0.5889307706236271,1.3330720277654553,3.8661414973830417,2,372,181,0,0.6899171217620088,3.8816066231774906,10.098635113838172,5.597523702741092,1.546512579444892,11.6493091607861,80.25689351454159,10.216365905782085,4,2,30,ok,140,250564.0,70,77.5,0,0,0,0,0,0
1778105205.324599,2.473755121231079,1,0.01565694808959961,183,1.3928359746932983,1.3268659114837646,3.9389350414276123,5,0.646875384892083,1.4491775500093755,3.8274354617968056,2,375,184,0,0.720417006534863,3.8648049524016606,7.354162164278,-6.013028521650932,3.736949060485495,10.208085100612607,75.0812418457724,8.249150830186188,-2,-10,-30,ok,140,250575.0,70,77.5,0,0,0,0,0,0
1778105205.394998,2.544154167175293,1,0.006059169769287109,187,1.3801383972167969,1.4066716432571411,3.8948111534118652,5,0.5676128672307268,1.4115457719169835,3.8193407434323365,2,379,188,0,0.6816644244763024,3.8607171365667847,11.40515572455756,-2.2498507124117273,4.137639313444819,12.339346190852728,83.22276082089624,12.132503294438958,24,-4,11,ok,140,250575.0,70,77.5,0,0,0,0,0,0
1778105205.466967,2.6161231994628906,1,-0.0020248889923095703,191,1.3767104148864746,1.407835841178894,3.8932347297668457,5,0.652049618858553,1.449951934570016,3.825428178953348,2,382,192,0,0.7245472281666878,3.8636218711968358,7.249760930813487,-6.090466977714981,3.8193692243487565,10.209818942199158,74.89011338420212,8.194303803609678,-6,-1,-17,ok,140,250571.99999999997,70,77.5,0,0,0,0,0,0
1778105205.538364,2.6875200271606445,1,0.00928807258605957,194,1.3076332807540894,1.3055814504623413,3.913694381713867,5,0.7285224388448106,1.4868682809784017,3.80792397849905,2,386,195,0,0.7545630773111038,3.8576789676802727,2.604063846629323,-9.78210161855355,4.975498918122279,11.279461426737798,65.96303718899904,5.615758007745515,-11,-7,-20,ok,140,250569.0,70,77.5,0,0,0,0,0,0
1778105205.608138,2.757294178009033,1,-0.0007879734039306641,198,1.4361445903778076,1.5156441926956177,3.8822553157806396,5,0.5753736154483027,1.4160127092065626,3.81517535526912,2,389,199,0,0.6778000616156195,3.8621489111550678,10.242644616731678,-2.6965444413696416,4.697355588594787,11.586555579405237,81.03173687572703,11.268403536897544,30,-2,23,ok,140,250569.0,70,77.5,0,0,0,0,0,0
1778105205.678463,2.8276190757751465,1,0.009386062622070312,201,1.4452686309814453,1.5083054304122925,3.8665902614593506,5,0.6943200865562531,1.3779003089217596,3.847355912030514,2,393,202,0,0.7416923631815002,3.8753407646719493,4.737227662524712,1.114695587110659,2.7984852641435243,5.613857136776975,69.69954104444881,5.502076489855243,0,0,13,ok,140,250575.0,70,77.5,0,-1,0,0,0,0
1778105205.7484522,2.8976082801818848,1,-0.0007476806640625,205,1.3772422075271606,1.4062626361846924,3.893486976623535,5,0.5753719074932153,1.416203822207334,3.812956101321303,2,396,206,0,0.681164508233836,3.8551720860715326,10.57926007406207,-2.7156557414467875,4.221598475022947,11.709714919886512,81.59652546138676,11.39046256299365,10,-2,-15,ok,140,250575.0,70,77.5,0,-1,0,0,0,0
1778105205.8181708,2.9673268795013428,1,0.009227752685546875,208,1.4458986520767212,1.5068755149841309,3.8668601512908936,5,0.6210026877653148,1.523832223876966,3.772791692098377,2,400,209,0,0.7081183531647695,3.8332625967663514,8.71156653994547,-13.478495908409972,6.0470904667974335,17.15017628616552,78.36204915876712,10.604654388216991,1,-11,-30,ok,140,250575.0,70,77.5,0,-1,0,0,0,0
1778105205.888593,3.0377490520477295,1,-0.0003161430358886719,212,1.3826711177825928,1.399854302406311,3.896013021469116,5,0.6226424746572639,1.5248530800435027,3.7716853624910227,2,403,213,0,0.7083029430538248,3.8300268057152684,8.566046839656094,-13.58058152506365,5.834144322424573,17.08351816789976,78.0096714212649,10.364091780472664,8,-3,-10,ok,140,250577.0,70,77.5,0,-1,0,0,0,0
1778105205.959722,3.1088781356811523,1,0.010587930679321289,215,1.3087975978851318,1.3005248308181763,3.9143168926239014,5,0.7035352238715425,1.3850922322247228,3.841826196662644,2,407,216,0,0.7442905177027352,3.8663163315018316,4.075529383119269,0.3955032568143446,2.4490134839187494,4.771166484543914,68.3268430350544,4.7547457131884965,0,0,30,ok,140,250567.0,70,77.5,0,0,0,0,0,0
1778105206.030524,3.179680109024048,1,0.0007319450378417969,219,1.474062204360962,1.4217016696929932,3.8969576358795166,5,0.6196967557418065,1.3510818707512287,3.8528143758592273,2,411,220,0,0.7084557704800225,3.8720431027321647,8.875901473821601,3.796539404163757,1.9228726872937418,9.843412913816875,77.84685362360706,9.081798629375612,9,4,14,ok,140,250571.0,70,77.5,0,0,0,0,0,0
1778105206.101644,3.250800132751465,1,0.012636899948120117,222,1.4499419927597046,1.5017940998077393,3.8674228191375732,5,0.6652221446136108,1.4561007175384866,3.7964771064009515,2,414,223,0,0.7401127594162757,3.8409824953420086,7.48906148026649,-6.705345274562036,4.450538894105716,10.993406822011567,75.50462309340134,8.711678271329758,3,-12,-30,ok,140,250571.0,70,77.5,0,0,0,0,0,0
1778105206.1741471,3.32330322265625,1,0.00511622428894043,226,1.4071921110153198,1.3084615468978882,3.9229466915130615,5,0.747086017671359,1.5045305213090376,3.793694327366186,2,418,227,0,0.7792351659849943,3.8421343168079023,3.2149148313635356,-11.54832565161714,4.843998944171624,12.929185144465041,67.13255225375747,5.813777011896572,-9,-5,-25,ok,140,250575.0,70,77.5,0,0,0,0,0,0
1778105206.24452,3.3936760425567627,1,0.014909982681274414,229,1.4071921110153198,1.3084615468978882,3.9229466915130615,5,0.6234776510502454,1.3509594981206605,3.850141567984152,2,421,230,0,0.7150512001765548,3.873880213995242,9.157354912630932,3.8087766672205703,2.3738646011090214,10.197997932979208,78.45849034739683,9.460041339248173,30,6,30,ok,140,250573.99999999997,70,78.0,0,0,0,0,0,0
1778105206.313868,3.463024139404297,1,0.004829883575439453,233,1.4774680137634277,1.4144411087036133,3.896944046020508,5,0.625439492119893,1.3521099549414073,3.849174692168887,2,425,234,0,0.7222962336011451,3.8736128429249206,9.685674148125212,3.6937309851458933,2.4438150756033394,10.650265931798794,79.52169426552533,9.989219980929802,11,-2,1,ok,140,250573.99999999997,70,78.0,0,0,0,0,0,0
1778105206.3809721,3.530128240585327,1,0.012104034423828125,236,1.4111816883087158,1.3025802373886108,3.923631429672241,5,0.6328751544786431,1.3477162036733823,3.832131671986764,2,428,237,0,0.7238442545450199,3.868639537732693,9.096910006637682,4.1331061119483925,3.6507865745929013,10.637884207619376,78.5339828273176,9.80214335143557,6,-7,3,ok,140,250578.00000000003,70,78.0,0,0,0,0,0,0
1778105206.449164,3.5983200073242188,1,0.00011110305786132812,240,1.3978971242904663,1.3829395771026611,3.8798372745513916,5,0.7487049150675047,1.5053791713683822,3.7901170140638882,2,432,241,0,0.7827107602461927,3.8466212245888975,3.400584517868799,-11.633190657551594,5.650421052500931,13.372447719421467,67.75031525257558,6.59478833122904,-14,-11,-30,ok,140,250569.0,70,78.0,0,-1,0,0,0,0
1778105206.5168629,3.6660189628601074,1,0.007861852645874023,243,1.4856209754943848,1.4091793298721313,3.8981521129608154,5,0.6372890380095946,1.3475192697637008,3.8315086365600535,2,435,244,0,0.738054282817816,3.8663067371080375,10.076524480822147,4.152799502916538,3.4798100547984046,11.44076777762349,80.45463050637703,10.660460760684039,30,4,30,ok,140,250569.0,70,78.0,0,-1,0,0,0,0
1778105206.587927,3.7370831966400146,1,-0.0010790824890136719,247,1.324878454208374,1.2733464241027832,3.89953875541687,5,0.7218785032062697,1.3957746139692135,3.832674155198395,2,438,248,0,0.7710250310316169,3.867050816398293,4.9146527825347235,-0.6727349176347319,3.4376661199897907,6.035224320172944,70.16695881331853,5.997612885590564,0,0,-18,ok,140,250561.0,70,78.0,0,0,0,0,0,0
1778105206.660015,3.809171199798584,1,0.011103153228759766,250,1.325219988822937,1.272281527519226,3.8997116088867188,5,0.6798536883943262,1.463181851146866,3.7882515373185925,2,442,251,0,0.742217498379597,3.846857556817713,6.23638099852708,-7.413458635399972,5.860601949912025,11.322476412556075,73.41449347603587,8.557984761268406,0,-8,-29,ok,140,250575.0,70,78.0,0,0,0,0,0,0
1778105206.728842,3.877998113632202,1,-9.894371032714844e-05,254,1.4040244817733765,1.3803191184997559,3.879336357116699,5,0.7162173965056547,1.577380125432688,3.759356900199031,2,446,255,0,0.76020137560764,3.8296845923581593,4.3983979101985256,-18.83328606398218,7.0327692159128485,20.579077019840213,70.2199294113186,8.294922966533818,0,-9,-30,ok,140,250575.0,70,78.0,0,0,0,0,0,0
1778105206.800488,3.949644088745117,1,0.01134181022644043,257,1.5193365812301636,1.3220791816711426,3.925361156463623,5,0.7285546290116967,1.3976060611597787,3.829783786256525,2,449,258,0,0.7733790212490887,3.865048939446317,4.48243922373921,-0.855879636691248,3.5265153189791842,5.767243851443545,69.324596648343,5.703382477925764,0,0,30,ok,140,250560.0,70,78.0,0,0,0,0,0,0
1778105206.872619,4.021775007247925,1,0.0036420822143554688,261,1.4912550449371338,1.4083116054534912,3.8970794677734375,5,0.7587486718472418,1.5167545576435204,3.7997196076864954,2,453,262,0,0.7893377321152177,3.85002531402086,3.058906026797592,-12.770729285065418,5.03057063343646,14.062541500425855,66.87893266452832,5.8875756452696155,3,0,-30,ok,140,250569.99999999997,70,78.0,0,0,0,0,0,0
1778105206.9440598,4.0932159423828125,1,0.015042781829833984,264,1.3256895542144775,1.282691240310669,3.9152395725250244,5,0.6877256812502477,1.2689001952415344,3.869617001547887,2,456,265,0,0.7484829784358309,3.8844495198798548,6.07572971855832,12.014706955133182,1.4832518331967748,13.545025316749317,72.21241751186992,6.254160824095776,18,10,30,ok,140,250569.99999999997,70,78.0,0,0,0,0,0,0
1778105207.0143511,4.1635072231292725,1,0.005418062210083008,268,1.4889010190963745,1.4124692678451538,3.8948631286621094,5,0.7716161088715594,1.5104644102082272,3.7811627834053296,2,460,269,0,0.7961159356718561,3.841161526690496,2.449982680029672,-12.141714541536096,5.999874328516652,13.763071572094205,65.99999599673376,6.48081068157669,-7,-21,-30,ok,140,250563.0,70,78.0,0,-1,0,0,0,0
1778105207.084883,4.234039068222046,1,0.01594400405883789,271,1.4213162660598755,1.3039220571517944,3.9215612411499023,5,0.7742997099229239,1.5101519192989987,3.780297762320313,2,463,272,0,0.7934386918578815,3.8421920866598054,1.9138981934957666,-12.110465450613251,6.189432433949227,13.73446226031388,65.0171045728502,6.478586277073804,3,-5,-9,ok,140,250569.99999999997,70,78.0,0,-1,0,0,0,0
1778105207.156269,4.30542516708374,1,0.00722813606262207,275,1.467367172241211,1.4958125352859497,3.865997314453125,5,0.7467717973928456,1.3934365603091994,3.82585495335347,2,467,276,0,0.7885802804698947,3.86287434211615,4.18084830770491,-0.4389295516333158,3.7019388762680183,5.6014733032444735,68.76146427986994,5.58424963765621,0,0,30,ok,140,250571.0,70,78.0,0,-1,0,0,0,0
1778105207.226876,4.376032114028931,1,-0.002131938934326172,279,1.3341933488845825,1.192464828491211,3.938507318496704,5,0.7750866969216088,1.5064092157111717,3.7795592945816496,2,470,280,0,0.803298565238129,3.842151244580864,2.8211868316520228,-11.736195091830549,6.259194999921425,13.59687068481699,66.82537922332352,6.865611202662741,7,-5,-30,ok,140,250571.0,70,78.0,0,-1,0,0,0,0
1778105207.2980711,4.447227239608765,1,0.00900411605834961,282,1.4622007608413696,1.4999419450759888,3.8648428916931152,5,0.7075286538975204,1.2553102963374196,3.8514856243321063,2,474,283,0,0.7731555611678345,3.877208567867118,6.562690727031406,13.373696845544657,2.572294353501192,15.117584963751627,73.30612665914363,7.048801871220252,21,9,30,ok,140,250571.0,70,78.0,-1,0,0,0,0,0
1778105207.370075,4.519231081008911,1,0.0011868476867675781,286,1.4149885177612305,1.312306523323059,3.9208452701568604,5,0.7501732966719968,1.3917110899071754,3.8238839450354476,2,478,287,0,0.7879561285882644,3.863125485324616,3.7782831916267523,-0.2663825114309182,3.9241540289168597,5.453931459157688,68.01092265853768,5.447422208604145,0,0,-30,ok,140,250575.0,70,78.0,-1,0,0,0,0,0
1778105207.442983,4.592139005661011,1,0.013911724090576172,289,1.4149885177612305,1.312306523323059,3.9208452701568604,5,0.7583320260713201,1.3933529981202397,3.822280355997274,2,481,290,0,0.7872688353394319,3.863809053454493,2.893680926811182,-0.43057333273734955,4.15286974572191,5.0798730127816905,66.30959423913842,5.061592282189784,0,0,-1,ok,140,250571.99999999997,70,78.0,-1,0,0,0,0,0
1778105207.513781,4.662937164306641,1,0.004851102828979492,293,1.4106433391571045,1.3146909475326538,3.9210779666900635,5,0.7572694717398682,1.3929658407840044,3.8214907797774895,2,485,294,0,0.7920471697326203,3.863779164979916,3.47776979927521,-0.3918575991138207,4.22883852024265,5.4892176478093875,67.48760318646828,5.475213055858081,0,0,-1,ok,140,250573.99999999997,70,78.0,0,-1,0,0,0,0
1778105207.584866,4.73402214050293,1,0.015888214111328125,296,1.476534366607666,1.4242823123931885,3.8956668376922607,5,0.7573237228596844,1.3922152419075258,3.8213698471562076,2,488,297,0,0.7913013795119841,3.8637689304836593,3.397765665229968,-0.3167977114659548,4.239908332745168,5.442609206611074,67.33164409398292,5.433381468836654,0,0,-1,ok,140,250573.99999999997,70,78.0,0,-1,0,0,0,0
1778105207.655189,4.80434513092041,1,0.0061151981353759766,300,1.3173301219940186,1.3060575723648071,3.9128735065460205,5,0.761474020275851,1.3937991783660708,3.8197383251524433,2,492,301,0,0.7868773942159513,3.8624101860690345,2.5403373940100282,-0.47519135732045914,4.267186091659125,4.988787231615195,65.63786818161775,4.966104229298328,0,0,-1,ok,140,250575.0,70,78.0,-1,-1,0,0,0,0
1778105207.725545,4.874701023101807,1,0.01656198501586914,303,1.3939077854156494,1.402715802192688,3.876704454421997,5,0.7640578109698593,1.3952043177547542,3.8195619115751764,2,495,304,0,0.7835780778863579,3.862991175528456,1.9520266916498663,-0.6157052961887954,4.34292639532794,4.801094759729763,64.4916434704262,4.7614512367711646,0,0,-2,ok,140,250566.0,70,78.0,-1,-1,0,0,0,0
1778105207.795677,4.944833040237427,1,0.006682872772216797,307,1.4011602401733398,1.3214269876480103,3.92130184173584,5,0.7615236246771635,1.393025606675376,3.8196370690692243,2,499,308,0,0.7864964154455574,3.8619534119779257,2.497279076839387,-0.3978341882509673,4.231634290870145,4.929645382847449,65.54326437307347,4.913566073564887,0,0,0,ok,140,250566.0,70,78.0,-1,-1,0,0,0,0
1778105207.8663812,5.015537261962891,1,-0.0026907920837402344,311,1.4691156148910522,1.42885422706604,3.896122455596924,5,0.8414311155867119,1.4409922510658193,3.7964451839725024,2,502,312,0,0.8268823392784366,3.852312442173553,-1.4548776308275335,-5.1944986272953075,5.586725820105043,7.766015084886427,58.173379357230374,5.773055890056037,0,0,-21,ok,140,250566.0,70,78.0,-1,-1,0,0,0,0
1778105207.938116,5.0872721672058105,1,0.007789134979248047,314,1.4677209854125977,1.4273802042007446,3.8966190814971924,5,0.8414311155867119,1.4409922510658193,3.7964451839725024,2,506,315,0,0.830178118506647,3.8507983053823236,-1.1252997080064886,-5.1944986272953075,5.435312140982118,7.602087443046149,58.76362599507823,5.550578123290141,0,0,-4,ok,140,250559.0,70,78.0,0,-1,0,0,0,0
1778105208.012956,5.16211199760437,1,0.0018398761749267578,318,1.440950632095337,1.510241985321045,3.867098093032837,5,0.7703908701815616,1.3890950163668192,3.801883764564563,2,510,319,0,0.7962806279499535,3.8501583971081024,2.5889757768391863,-0.004775157395298102,4.8274632543539475,5.477884614276374,65.88917190724284,5.477882532986417,0,0,16,ok,140,250559.0,70,78.0,0,-1,0,0,0,0
1778105208.0823731,5.231529235839844,1,0.013476133346557617,321,1.3071539402008057,1.3114664554595947,3.9133381843566895,5,0.7643371356211971,1.390594039454958,3.800844295473527,2,513,322,0,0.7867856732350027,3.8491549261667486,2.244853761380561,-0.15467746620918543,4.83106306932215,5.3293962048533885,65.20950128539818,5.3271510950744405,0,0,-1,ok,140,250573.0,70,78.0,0,-1,0,0,0,0
1778105208.153325,5.302481174468994,1,0.004290103912353516,325,1.3798307180404663,1.4028589725494385,3.878347635269165,5,0.8426723373264959,1.4420909303778204,3.7953876727891407,2,517,326,0,0.8199092960522021,3.845344164673112,-2.276304127429385,-5.304366558495421,4.995649188397122,7.633765511264374,56.3403877746088,5.489815233146274,0,0,-22,ok,140,250573.0,70,78.0,0,-1,0,0,0,0
1778105208.224425,5.373581171035767,1,-0.004712820053100586,329,1.3760349750518799,1.4041926860809326,3.8775851726531982,5,0.8426723373264959,1.4420909303778204,3.7953876727891407,2,520,330,0,0.8235783493683184,3.8431386438048105,-1.9093987958177516,-5.304366558495421,4.775097101566983,7.388075573364708,56.9871363850404,5.142699300062533,0,0,-4,ok,140,250573.0,70,78.0,0,-1,0,0,0,0
1778105208.2971761,5.446332216262817,1,0.008104085922241211,332,1.3775886297225952,1.404064416885376,3.878497362136841,5,0.8180237480349606,1.309795274577592,3.8270161044986892,2,524,333,0,0.8102341074917347,3.8590649163917625,-0.778964054322584,7.925199021527418,3.2048811893073292,8.584103212702058,58.792523510261006,3.298188659780189,1,-3,30,ok,140,250569.99999999997,70,77.0,0,0,0,0,0,0
1778105208.3676212,5.516777276992798,1,-0.001332998275756836,336,1.4376134872436523,1.5019631385803223,3.8520126342773438,5,0.8194874045385611,1.3083296228347905,3.8272211463787387,2,527,337,0,0.8132442636854296,3.854836861865631,-0.624314085313149,8.071764195807575,2.7615715486892345,8.553912714563513,59.01041265325509,2.831262173598597,4,-1,5,ok,140,250567.99999999997,70,77.0,0,0,0,0,0,0
1778105208.437475,5.5866310596466064,1,0.00843191146850586,339,1.4376134872436523,1.5019631385803223,3.8520126342773438,5,0.8194874045385611,1.3083296228347905,3.8272211463787387,2,531,340,0,0.8112753807074671,3.8520799980331573,-0.8212023831093984,8.071764195807575,2.485885165441859,8.485715977011576,58.568997103355805,2.6180142111509737,2,-2,4,ok,140,250567.99999999997,70,77.0,0,0,0,0,0,0
1778105208.509397,5.658553123474121,1,0.00042700767517089844,343,1.4373397827148438,1.5029082298278809,3.8517589569091797,5,0.7651473869579044,1.3819458705168821,3.785795028724953,2,534,344,0,0.7822065467485293,3.828563181419514,1.705915979062489,0.7101394275984108,4.2768152694561135,4.658926505462765,63.98613152614941,4.604486744108804,0,0,-26,ok,140,250567.0,70,77.0,0,-1,0,0,0,0
1778105208.579741,5.7288970947265625,1,0.010895013809204102,346,1.3587998151779175,1.4763013124465942,3.834467649459839,5,0.8439926844821186,1.4333283780804944,3.78034106107813,2,538,347,0,0.8164947694532976,3.82379679487279,-2.749791502882104,-4.428111328762818,4.3455733794659945,6.786275211451693,55.18905221627638,5.142505353001212,0,0,-22,ok,140,250571.99999999997,70,77.0,0,0,0,0,0,0
1778105208.6503448,5.799500942230225,1,0.0013058185577392578,350,1.441083550453186,1.4958233833312988,3.8352413177490234,5,0.7624405993171524,1.3822634238553038,3.786516471975418,2,542,351,0,0.7840893275115881,3.8220034461584547,2.164872819443575,0.6783840937562458,3.548697418303659,4.2119036871350835,64.7200833391817,4.156913240740132,0,0,17,ok,140,250571.99999999997,70,77.0,0,0,0,0,0,0
1778105208.721977,5.871133089065552,1,0.012933015823364258,353,1.3781416416168213,1.3921245336532593,3.863417387008667,5,0.7940665222807188,1.4967757780009463,3.7410446363350762,2,545,354,0,0.7997967217168938,3.7983343878220026,0.5730199436174921,-10.772851320808009,5.728975148692639,12.214902115463557,62.210311194436905,5.7575609514898956,5,-8,-30,ok,140,250566.0,70,77.0,0,0,0,0,0,0
1778105208.792756,5.9419121742248535,1,0.0035800933837890625,357,1.4417425394058228,1.4943203926086426,3.835528612136841,5,0.7940665222807188,1.4967757780009463,3.7410446363350762,2,549,358,0,0.8039034444890152,3.7957058527897303,0.983692220829635,-10.772851320808009,5.466121645465405,12.12025007203156,62.924325009589865,5.553929800451763,6,-4,-8,ok,140,250566.0,70,77.0,0,0,0,0,0,0
1778105208.865577,6.014733076095581,1,-0.003403902053833008,361,1.378334403038025,1.3914225101470947,3.8635151386260986,5,0.7940665222807188,1.4967757780009463,3.7410446363350762,2,552,362,0,0.8039500553212295,3.794769463820309,0.9883533040510706,-10.772851320808009,5.372482748523266,12.078689445343132,62.90124359278989,5.46263792840133,4,-4,-8,ok,140,250566.0,70,77.0,0,0,0,0,0,0
1778105208.939789,6.088945150375366,1,0.01076507568359375,364,1.378711462020874,1.3904876708984375,3.8636903762817383,5,0.7932968596373653,1.489476477340233,3.725908447491613,2,556,365,0,0.7998838474231291,3.787931228273852,0.6586987785763831,-10.042921254736669,6.202278078223911,11.822115071735533,62.559541691259135,6.237157801476158,3,-8,-5,ok,140,250569.99999999997,70,77.0,0,0,0,0,0,0
1778105209.011362,6.160518169403076,1,0.002162933349609375,368,1.442408800125122,1.4928293228149414,3.8358187675476074,5,0.7628639314647641,1.3769916164157965,3.772421628851837,2,560,369,0,0.7849670903919204,3.8101757022833556,2.210315892715631,1.2055648377069739,3.775407343151871,4.537905191851391,64.86164199325373,4.374836791506211,0,0,30,ok,140,250569.99999999997,70,77.0,0,0,0,0,0,0
1778105209.0817652,6.230921268463135,1,0.012758016586303711,371,1.4658054113388062,1.412803292274475,3.864997148513794,5,0.7548682779757612,1.370398094700359,3.7572910157326067,2,563,372,0,0.7827483654364165,3.803437782699029,2.788008746065529,1.8649170092507328,4.614676696642217,5.704923245238564,66.22231522822507,5.391496432593701,0,0,2,ok,140,250575.0,70,77.0,0,0,0,0,0,0
1778105209.15155,6.300706148147583,1,0.0024640560150146484,375,1.3907275199890137,1.30391526222229,3.8898284435272217,5,0.7534567371323071,1.3725760313415032,3.757172270182372,2,567,376,0,0.7840380765653829,3.806838459553123,3.058133943307584,1.6471233451363032,4.966618937075085,6.060734460064707,66.85828365968656,5.832622641772982,0,0,0,ok,140,250575.0,70,77.0,0,0,0,0,0,0
1778105209.2224388,6.3715949058532715,1,0.013441801071166992,378,1.4125511646270752,1.2096821069717407,3.916236639022827,5,0.8276921468955556,1.4167779321187353,3.73737549345197,2,570,379,0,0.8193725073328753,3.8020022787675347,-0.8319639562680337,-2.773066732586904,6.462678531556465,7.081544812408532,59.75083398416087,6.516009348272145,0,0,-18,ok,140,250576.00000000003,70,77.0,0,0,0,0,0,0
1778105209.293879,6.443035125732422,1,0.005001068115234375,382,1.3193358182907104,1.0982871055603027,3.9253532886505127,5,0.7510869507078428,1.369987485580194,3.742688684177613,2,574,383,0,0.777394545281137,3.8085298679829718,2.6307594573294235,1.9059779212672323,6.584118380535875,7.3419521932246825,66.57678507140467,7.090240487546143,0,0,16,ok,140,250567.99999999997,70,77.5,0,0,0,0,0,0
1778105209.364071,6.5132269859313965,1,0.014935016632080078,385,1.4177367687225342,1.212668538093567,3.9154417514801025,5,0.7016798833092339,1.2472003877727205,3.783797762709963,2,577,386,0,0.7511906509141271,3.8340789784581,4.951076760489315,14.184687702014575,5.028121574813715,15.842996334754611,70.62180324202217,7.056569113908297,9,-4,30,ok,140,250571.0,70,77.5,0,0,0,0,0,0
1778105209.4348958,6.584051847457886,1,0.00590968132019043,389,1.4931674003601074,1.3240396976470947,3.893781900405884,5,0.7694157850523811,1.4818892188346338,3.699415218688374,2,581,390,0,0.7922356641183306,3.7937793790585426,2.281987906594951,-9.284195404176753,9.436416037016837,13.433156767210413,67.26582165781407,9.708419872951218,-3,-23,-30,ok,140,250571.0,70,77.5,0,0,0,0,0,0
1778105209.505845,6.655001163482666,1,0.016368865966796875,392,1.323828101158142,1.097975492477417,3.925844192504883,5,0.7003717497739663,1.4396954480062485,3.7028372526694695,2,584,393,0,0.7542834364252025,3.799375009563037,5.3911686651236135,-5.064818321338227,9.653775689356747,12.161927037455431,73.36839113797286,11.057128227357502,18,-8,10,ok,140,250573.99999999997,70,77.5,0,0,0,0,0,0
1778105209.5760472,6.725203275680542,1,0.007015228271484375,396,1.4935423135757446,1.328187108039856,3.8927090167999268,5,0.7345112439698478,1.3680817252232216,3.728632598625323,2,588,397,0,0.7745490281138072,3.8158283231192334,4.003778414395942,2.0965539569644642,8.719572449391055,9.821238403899264,70.20791665205624,9.59485202031602,1,-4,25,ok,140,250571.0,70,77.5,0,0,0,0,0,0
1778105209.646187,6.7953431606292725,1,-0.0027909278869628906,400,1.4946781396865845,1.3298488855361938,3.892874240875244,5,0.8359895837700788,1.2114255335417217,3.795521192098337,2,591,401,0,0.827092743535659,3.851014938128331,-0.8896840234419834,17.762173125114455,5.549374602999402,18.63013393061147,59.26908316279115,5.620239865520215,-13,5,30,ok,140,250571.0,70,77.5,0,0,0,0,0,0
1778105209.7157571,6.86491322517395,1,0.006726264953613281,403,1.3861873149871826,1.3954057693481445,3.843705654144287,5,0.6948461423695269,1.4409451035324001,3.704147636922323,2,595,404,0,0.7562372600227685,3.802445486203891,6.139111765324157,-5.189783873953391,9.829784928156782,12.698315701671085,74.90420738304114,11.589364305299911,30,-23,-30,ok,140,250569.0,70,77.5,0,0,0,0,0,0
1778105209.785661,6.93481707572937,1,0.01663494110107422,406,1.4692741632461548,1.4230973720550537,3.8615851402282715,5,0.6891262007742028,1.434720299293673,3.6887209174425766,2,598,407,0,0.756922476638799,3.791316407789358,6.779627586459613,-4.567303450080673,10.25954903467814,13.118001273485536,76.36751539217774,12.297223125813785,10,-10,-2,ok,140,250577.0,70,77.5,0,0,0,0,0,0
1778105209.856981,7.006137132644653,1,0.007877111434936523,410,1.3874082565307617,1.397450566291809,3.84309458732605,5,0.6865547268333874,1.4346560363003764,3.6891369199325563,2,602,411,0,0.7598912670583944,3.7863832402015687,7.333654022500702,-4.560877150751019,9.724632026901237,13.005865975190453,77.1588022387703,12.179940450608697,10,-6,-4,ok,140,250578.00000000003,70,77.5,0,0,0,0,0,0
1778105209.9283571,7.077513217926025,1,-0.0005750656127929688,414,1.452932596206665,1.499422311782837,3.8150405883789062,5,0.7208742097963685,1.5357285701715786,3.6482337365734736,2,605,415,0,0.7792507477576431,3.7596565758282026,5.837653796127462,-14.668130537871239,11.142283925472896,19.32311430373799,75.05965416085904,12.578898716473278,2,-14,-30,ok,140,250578.00000000003,70,77.5,0,0,0,0,0,0
1778105209.998344,7.147500038146973,1,0.008868932723999023,417,1.452932596206665,1.499422311782837,3.8150405883789062,5,0.6851393520200688,1.4369705414262146,3.689090152512588,2,609,418,0,0.758868643609903,3.7751634517960735,7.372929158983421,-4.792327663334839,8.60732992834854,12.304983434023665,76.70259350029409,11.333411352228968,14,1,29,ok,140,250576.00000000003,70,77.5,0,0,0,0,0,0
1778105210.070039,7.219195127487183,1,0.0011892318725585938,421,1.3881851434707642,1.401151180267334,3.84228515625,5,0.7227838647482827,1.3734169851183324,3.7301582249925094,2,613,422,0,0.7817132151185489,3.790475048270104,5.892935037026614,1.5630279674533787,6.03168232775948,8.576183969613952,72.79241656313437,8.432548550326993,2,2,21,ok,140,250583.0,70,77.5,0,0,0,0,0,0
1778105210.140453,7.28960919380188,1,0.011401176452636719,424,1.3881851434707642,1.401151180267334,3.84228515625,5,0.7227838647482827,1.3734169851183324,3.7301582249925094,2,616,425,0,0.7751283919869876,3.7873235569857338,5.234452723870486,1.5630279674533787,5.716533199322438,7.907041391344313,71.39034698247715,7.751015877766656,0,0,0,ok,140,250583.0,70,77.5,0,0,0,0,0,0
1778105210.2103329,7.3594889640808105,1,0.0012507438659667969,428,1.5225704908370972,1.5251508951187134,3.8093795776367188,5,0.6839768923337635,1.4385896891759753,3.688805479240327,2,620,429,0,0.7574681777266352,3.7614287676572347,7.349128539287175,-4.954242438310907,7.262328841690779,11.458430460991584,76.09727519035222,10.332042900211894,11,-9,-28,ok,140,250571.0,70,77.5,0,0,0,0,0,0
1778105210.280892,7.430047988891602,1,0.011879920959472656,431,1.3859891891479492,1.4024782180786133,3.8424155712127686,5,0.7762066140683743,1.304189144447178,3.7707663179563875,2,623,432,0,0.8035706557289883,3.802328556832045,2.7364041660614014,8.485812034568818,3.1562238875657567,9.458258976921275,65.77640631570453,4.1772786582270145,-10,9,30,ok,140,250573.99999999997,70,77.0,0,0,0,0,0,0
1778105210.3510022,7.500158309936523,1,0.002004384994506836,435,1.368823528289795,1.473435640335083,3.798671007156372,5,0.6845102487642547,1.4411420053948074,3.6875994574616424,2,627,436,0,0.7514443083921563,3.756812993267679,6.693405962790155,-5.209474060194119,6.92135358060364,10.947394153600436,74.68095276676266,9.628438023399728,22,-20,-30,ok,140,250573.99999999997,70,77.0,0,0,0,0,0,0
1778105210.422761,7.5719170570373535,1,0.013779878616333008,438,1.3632020950317383,1.476406455039978,3.7966365814208984,5,0.7595673502849314,1.4859029915303963,3.685494100555231,2,630,439,0,0.7874599740588055,3.752856689445401,2.7892623773874137,-9.685572673753008,6.7362588890170105,12.123014742559729,66.94812651816375,7.290896270676848,-7,-6,-23,ok,140,250573.99999999997,70,77.0,0,0,0,0,0,0
1778105210.491837,7.640993118286133,1,0.0022840499877929688,442,1.4413288831710815,1.489553451538086,3.800035238265991,5,0.6861920985834926,1.4420539095243154,3.686685793763823,2,634,443,0,0.7500471161433622,3.75251470166764,6.385501755986955,-5.300664473144923,6.5828907903817235,10.592739385572825,73.95239520645757,9.171100470161964,21,-6,10,ok,140,250573.99999999997,70,77.0,0,0,0,0,0,0
1778105210.562496,7.711652040481567,1,0.013509035110473633,445,1.4688560962677002,1.4141459465026855,3.8286280632019043,5,0.7800435130981769,1.3066671763568922,3.7687533106024227,2,637,446,0,0.797968042154519,3.794397677263377,1.792452905634212,8.238008843597399,2.5644366660954265,8.812151413844415,63.79142253223028,3.128773375195327,-10,9,30,ok,140,250576.00000000003,70,77.0,0,0,0,0,0,0
1778105210.632376,7.781532049179077,1,0.0033020973205566406,449,1.3867897987365723,1.3888871669769287,3.81058406829834,5,0.7296702951285604,1.3782266346864325,3.726533126562828,2,641,450,0,0.7726942241238237,3.771306267246601,4.30239289952633,1.0820630106433748,4.4773140683772805,6.302998198301052,69.18671837572192,6.209422350652571,0,0,-25,ok,140,250576.00000000003,70,77.0,0,0,0,0,0,0
1778105210.706018,7.8551740646362305,1,-0.003075838088989258,453,1.3707529306411743,1.4573876857757568,3.7679338455200195,5,0.7625550882170075,1.493442351303358,3.6987255989210697,2,644,454,0,0.7880471073661979,3.752755546505098,2.5492019149190415,-10.439508651049167,5.402994758402846,12.028055688168639,65.98917782962593,5.974176325013811,7,-11,-30,ok,140,250577.0,70,77.0,0,0,0,0,0,0
1778105210.779142,7.928297996520996,1,0.010230779647827148,456,1.3850126266479492,1.3885010480880737,3.8109583854675293,5,0.7339158889431177,1.3758475869365445,3.7261112610165843,2,648,457,0,0.7651301412174314,3.766547053042281,3.1214252274313736,1.31996778563217,4.043579202569658,5.275996889025388,66.73467889677094,5.108211841525258,0,0,30,ok,140,250579.0,70,77.0,0,0,0,0,0,0
1778105210.8502579,7.999413967132568,1,0.0012478828430175781,460,1.4429670572280884,1.4827407598495483,3.7856109142303467,5,0.6974686448541486,1.44683440468022,3.7008467555311646,2,652,461,0,0.7504676359279554,3.75036450923817,5.2998991073806785,-5.778713988735373,4.951775370700551,9.273755724295144,71.29103607924722,7.253206868019904,12,-5,-30,ok,140,250579.0,70,77.0,0,0,0,0,0,0
1778105210.9230652,8.072221279144287,1,0.014049053192138672,463,1.5191850662231445,1.5073211193084717,3.781717300415039,5,0.7235475112343756,1.5445766540292065,3.658267400663681,2,655,464,0,0.7729046652389033,3.7280152251330945,4.935715400452779,-15.55293892363403,6.974782446941363,17.745500439793705,71.25031370383137,8.544523198893433,6,-14,-30,ok,140,250585.0,70,77.0,0,0,0,0,0,0
1778105210.9938061,8.142962217330933,1,0.004653215408325195,467,1.4396319389343262,1.4817867279052734,3.786635637283325,5,0.7648385170217152,1.4899770909253802,3.697303012046237,2,659,468,0,0.7983270333764849,3.7469079718157747,3.348851635476968,-10.092982613251401,4.96049597695376,11.734122278432514,67.43151861681386,5.98509211406234,1,1,10,ok,140,250584.0,70,77.0,0,0,0,0,0,0
1778105211.066633,8.215789079666138,1,-0.002299070358276367,471,1.3618537187576294,1.457059621810913,3.7697534561157227,5,0.7660266858538592,1.4885249373585037,3.697521801021611,2,662,472,0,0.793953920016716,3.7451247549190696,2.7927234162856807,-9.947767256563743,4.760295389745872,11.376193988688305,66.27286386612992,5.51903218667061,4,-5,-8,ok,140,250584.0,70,77.0,0,0,0,0,0,0
1778105211.139827,8.28898310661316,1,0.010788917541503906,474,1.3618537187576294,1.457059621810913,3.7697534561157227,5,0.7686797677449257,1.4880285777395161,3.696743243357032,2,666,475,0,0.78859281236787,3.741055813143894,1.9913044622944298,-9.898131294664992,4.431256978686182,11.02607523097567,64.5934857275987,4.858120199491641,3,-4,-8,ok,140,250583.0,70,77.0,0,0,0,0,0,0
1778105211.211205,8.360361099243164,1,0.0021049976348876953,478,1.4356788396835327,1.4759035110473633,3.771012306213379,5,0.7907952167704273,1.3005761809068503,3.7655785863519773,2,670,479,0,0.8027061019398058,3.7730002495110564,1.191088516937855,8.847108388601587,0.7421663159079106,8.957724573535074,62.39983377259656,1.4033897162404816,2,9,30,ok,140,250578.00000000003,70,77.0,0,0,0,0,0,0
1778105211.2803571,8.429513216018677,1,0.011269092559814453,481,1.4396352767944336,1.4737656116485596,3.7729294300079346,5,0.776761208465696,1.4869209588685721,3.6963057727720416,2,673,482,0,0.7999942444220187,3.7386760667515833,2.3233035956322756,-9.78736940757059,4.237029397954162,10.915253438965783,65.1996433565259,4.832200090704613,10,-18,-30,ok,140,250578.00000000003,70,77.0,0,0,0,0,0,0
1778105211.351352,8.500508069992065,1,0.0020949840545654297,485,1.3646239042282104,1.4496039152145386,3.7558557987213135,5,0.8221292794634307,1.4177963475229718,3.7206960240156426,2,677,486,0,0.8214039847696524,3.7474272807017455,-0.07252946937783555,-2.874908273010557,2.6731256686102878,3.926316205087916,60.093230673727035,2.6741094525302116,0,0,20,ok,140,250584.0,70,77.5,0,0,0,0,0,0
1778105211.422842,8.571998119354248,1,0.013772010803222656,488,1.4336962699890137,1.474914789199829,3.7728757858276367,5,0.746652688725028,1.368498120034614,3.724665924870754,2,680,489,0,0.7830862651980091,3.7486162856041316,3.6433576472981066,2.0549144758252202,2.395036073337753,4.820054589075808,67.45699998003471,4.360074854714621,0,0,16,ok,140,250584.0,70,77.5,0,0,0,0,0,0
1778105211.494604,8.643760204315186,1,0.005494117736816406,492,1.2783223390579224,1.4293230772018433,3.752224922180176,5,0.7748613755116617,1.4833889100163344,3.696600925943213,2,684,493,0,0.7821366881434995,3.732740512500682,0.7275312631837783,-9.434164522346823,3.6139586557469183,10.128842931898257,61.87865139756633,3.6864615696298606,3,-4,-30,ok,140,250579.0,70,77.5,0,0,0,0,0,0
1778105211.565012,8.714168071746826,1,0.01589512825012207,495,1.3533178567886353,1.4450222253799438,3.757902145385742,5,0.7479024462331877,1.366920144277187,3.7249139647193816,2,687,496,0,0.7632625933701567,3.7451011886451675,1.5360147136968982,2.212712051567922,2.018722392578587,3.366106938608086,63.201122272339624,2.5366476497518486,0,0,30,ok,140,250575.0,70,77.5,0,0,0,0,0,0
1778105211.635087,8.784243106842041,1,0.005961179733276367,499,1.2860296964645386,1.3586502075195312,3.775766611099243,5,0.7491606330811851,1.36535887929266,3.7251619052546756,2,691,500,0,0.7591526854008372,3.7456009810992845,0.9992052319652167,2.3688385500206133,2.043907584460891,3.284412487107425,62.133027714004626,2.2750756711378672,0,0,0,ok,140,250575.0,70,77.5,0,0,0,0,0,0
1778105211.704891,8.854047060012817,1,0.015668153762817383,502,1.2851746082305908,1.3580387830734253,3.7768704891204834,5,0.7996955291148552,1.2932695983059723,3.765744017694752,2,694,503,0,0.7796276890097324,3.7663368518821203,-2.0067840105122747,9.57776664868939,0.05928341873682186,9.785924103799887,55.98655752795838,2.007659480236839,0,0,30,ok,140,250573.99999999997,70,77.5,0,0,0,0,0,0
1778105211.775371,8.924527168273926,1,0.00649714469909668,506,1.3459635972976685,1.4439623355865479,3.759549140930176,5,0.7527964840848458,1.3662081822119587,3.7252847313271493,2,698,507,0,0.7505709638456113,3.7453907608681187,-0.2225520239234502,2.28390825809075,2.0106029540969406,3.050949126706457,59.69049948549495,2.0228825082974464,0,0,-26,ok,140,250571.0,70,77.5,0,0,0,0,0,0
1778105211.846638,8.99579405784607,1,-0.002624034881591797,510,1.3414711952209473,1.446758508682251,3.7586379051208496,5,0.7548683107561015,1.3596481537417517,3.710134395999624,2,701,511,0,0.7454716220828961,3.7369223728989134,-0.9396688673205422,2.939911105111448,2.678797689928958,4.086809507395446,58.367072998551095,2.838826279253486,0,0,2,ok,140,250573.99999999997,70,77.5,0,0,0,0,0,0
1778105211.918211,9.06736707687378,1,0.008814096450805664,513,1.3417067527770996,1.4447145462036133,3.760232925415039,5,0.7452445447392381,1.3577750072926251,3.7099875446811166,2,705,514,0,0.73922741710877,3.737122517658017,-0.6017127630468022,3.1272257500241096,2.7134972976900595,4.183857875860332,59.04650235368651,2.7794110588008882,0,0,0,ok,140,250573.99999999997,70,77.5,0,0,0,0,0,0
1778105211.989492,9.13864803314209,1,-6.508827209472656e-05,517,1.3450133800506592,1.4502204656600952,3.7597575187683105,5,0.7066203579789563,1.42973593428131,3.6850708859725554,2,709,518,0,0.7143726431074819,3.723844296612529,0.775228512852566,-4.068866948844385,3.8773410639973527,5.6736611831424995,62.037036155666044,3.9540805471942178,0,0,-29,ok,140,250577.0,70,77.5,0,0,0,0,0,0
1778105212.061824,9.21098017692566,1,0.012687921524047852,520,1.2679401636123657,1.428637146949768,3.7378463745117188,5,0.7077505563525909,1.2368324669206974,3.750915949072523,2,712,521,0,0.714288856328952,3.755868168933234,0.6538299976361128,15.221479787216886,0.495221986071126,15.243562096634411,61.31565993576075,0.8202063650673954,7,-3,30,ok,140,250571.0,70,77.5,0,0,0,0,0,0
1778105212.134625,9.283781051635742,1,0.005394935607910156,524,1.3241980075836182,1.5152846574783325,3.7172136306762695,5,0.7520044372987883,1.3601578496643052,3.7108296852158853,2,716,525,0,0.734595806226737,3.7332820048355733,-1.7408631072051262,2.8889415128561025,2.2452319619687966,4.051870430526802,56.69638028970693,2.841068623084303,0,0,-30,ok,140,250571.0,70,77.5,0,0,0,0,0,0
1778105212.20629,9.355446100234985,1,-0.0027208328247070312,528,1.263723373413086,1.42959725856781,3.7383787631988525,5,0.7513481320902864,1.3595394211015521,3.711630515442857,2,719,529,0,0.7328735084317703,3.7313456794552846,-1.8474623658516043,2.9507843691314095,1.9715164012427788,4.000890214279509,56.44297129537074,2.7018501278951956,0,0,0,ok,140,250581.0,70,77.5,0,0,0,0,0,0
1778105212.276236,9.425392150878906,1,0.007285118103027344,531,1.3218114376068115,1.5164916515350342,3.7174136638641357,5,0.7808887434989351,1.4671199668283972,3.668787448572633,2,723,532,0,0.7499336159721086,3.706208094441651,-3.09551275268265,-7.807270203553096,3.7420645869018276,9.194493711230308,54.32695395155543,4.85646441092341,-1,-9,-30,ok,140,250575.0,70,77.0,0,0,0,0,0,0
1778105212.344675,9.493831157684326,1,0.015707015991210938,534,1.3218114376068115,1.5164916515350342,3.7174136638641357,5,0.7467397890517309,1.358174880348612,3.7115178579724106,2,726,535,0,0.7313496287678278,3.724939831824912,-1.5390160283903054,3.087238444425422,1.3421973852501434,3.7015004213633276,56.985229751338075,2.042073494420461,0,0,30,ok,140,250575.0,70,77.0,0,0,0,0,0,0
1778105212.412364,9.561520099639893,1,0.0034601688385009766,538,1.3975049257278442,1.5317121744155884,3.7206244468688965,5,0.794624222744945,1.2808457285716304,3.7364978197616545,2,730,539,0,0.7587939537711159,3.735053971578787,-3.5830268973829127,10.820153622123584,-0.14438481828675798,11.398888240941538,52.83473535015186,3.5859348464690655,1,3,30,ok,140,250580.00000000003,70,77.0,0,0,0,0,0,0
1778105212.480583,9.629739046096802,1,0.011595964431762695,541,1.3351761102676392,1.4431238174438477,3.745028495788574,5,0.7093780983448209,1.4224169881556898,3.672044117215357,2,733,542,0,0.7157627264142126,3.7018768434539844,0.6384628069391662,-3.3369723362823622,2.9832726238627316,4.521386366729482,61.566722138521676,3.0508278063721437,0,0,-30,ok,140,250571.0,70,77.0,0,0,0,0,0,0
1778105212.54897,9.698126077651978,1,-0.0002601146697998047,545,1.3351761102676392,1.4431238174438477,3.745028495788574,5,0.787504747195256,1.2720020997687183,3.7218872904599416,2,737,546,0,0.7542112214779915,3.725877866140043,-3.3293525717264516,11.704516502414798,0.3990575680101305,12.17536619756252,53.34726539142791,3.353182889352696,3,-4,30,ok,140,250571.0,70,77.0,0,0,0,0,0,0
1778105212.616879,9.766035079956055,1,0.007916927337646484,548,1.2589848041534424,1.4289209842681885,3.7383360862731934,5,0.7463022014800262,1.348253395697161,3.6978852631476813,2,740,549,0,0.7330502386541939,3.713907459469005,-1.3251962825832297,4.079386909570526,1.6022196321323623,4.578717123271336,57.439062526540894,2.0792433568398803,0,0,-26,ok,140,250573.99999999997,70,77.0,0,0,0,0,0,0
1778105212.6880372,9.837193250656128,1,-0.0009028911590576172,552,1.3241926431655884,1.5113343000411987,3.7204701900482178,5,0.7496902978789974,1.3402379500490142,3.6830869276306957,2,744,553,0,0.7347439515775525,3.706711826671259,-1.494634630144498,4.880931474385197,2.3624899040563196,5.624836289354498,57.20619593770333,2.795584236683849,0,0,4,ok,140,250571.99999999997,70,77.0,0,0,0,0,0,0
1778105212.760014,9.909170150756836,1,0.010957956314086914,555,1.335821270942688,1.441336750984192,3.745373010635376,5,0.6681377556126628,1.299703979972866,3.6978233125439823,2,747,556,0,0.6984737990399854,3.714517159592685,3.0336043427322656,8.93432848200002,1.6693847048702803,9.581848779091418,66.15151883864904,3.4626002658549684,14,-5,18,ok,140,250571.99999999997,70,77.0,0,0,0,0,0,0
1778105212.832562,9.981718063354492,1,0.003371000289916992,559,1.325437307357788,1.503023624420166,3.7045369148254395,5,0.6701935442620544,1.3027395074852062,3.697794213101081,2,751,560,0,0.6997283102241172,3.713697813056316,2.9534765962062837,8.630775730766004,1.5903599955235048,9.259727784037674,65.98366054386729,3.3544401797766166,6,-4,3,ok,140,250571.99999999997,70,77.0,0,0,0,0,0,0
1778105212.905608,10.054764032363892,1,0.01656818389892578,562,1.3388376235961914,1.4417117834091187,3.7455475330352783,5,0.745157074493983,1.33954924564215,3.6847827331064944,2,754,563,0,0.7382742119644179,3.7089504398822193,-0.6882862529565159,4.949801915071617,2.4167706775724884,5.551131188544344,58.82235436623024,2.5128705645104574,0,0,-10,ok,140,250571.0,70,77.0,0,0,0,0,0,0
1778105212.975936,10.125092029571533,1,0.0068967342376708984,566,1.2623937129974365,1.427419900894165,3.7391157150268555,5,0.7436658583073492,1.333987713530119,3.6699117517772915,2,758,567,0,0.7290841530754504,3.7026706534774902,-1.4581705231898834,5.50595512627472,3.2758901700198795,6.57063615894866,57.458419271307484,3.585765982427288,0,0,4,ok,140,250569.0,70,77.0,0,0,0,0,0,0
1778105213.046459,10.19561505317688,1,-0.0025360584259033203,570,1.1944235563278198,1.4136779308319092,3.712996006011963,5,0.7888912946793041,1.2626062395669697,3.7102930611027545,2,761,571,0,0.7428998366401891,3.7208592775291836,-4.599145803911497,12.644102522589652,1.0566216426429076,13.495996444245831,50.84564261317378,4.718960841259242,-6,-3,30,ok,140,250569.0,70,77.0,0,0,0,0,0,0
1778105213.1173198,10.266475915908813,1,0.008284807205200195,573,1.2593286037445068,1.4937100410461426,3.6984012126922607,5,0.7448627091045101,1.3403282289860565,3.6865577856027856,2,765,574,0,0.7161450746950964,3.706077434585679,-2.8717634409413773,4.87190358068097,1.951964898289349,5.9826947711155425,54.39674202627944,3.4723467892595643,0,0,-25,ok,140,250575.0,70,77.0,0,0,0,0,0,0
1778105213.188203,10.337359189987183,1,-0.0017189979553222656,577,1.2623937129974365,1.427419900894165,3.7391157150268555,5,0.700175311993456,1.3982844771815333,3.631607887728473,2,768,578,0,0.694014432942319,3.6786512124456268,-0.6160879051136936,-0.9237212388667038,4.704332471715356,4.833587615673924,59.516217420277684,4.744502957240399,0,0,-22,ok,140,250566.0,70,77.0,0,0,0,0,0,0
1778105213.2602031,10.409359216690063,1,0.011083126068115234,580,1.3507682085037231,1.3745225667953491,3.78608775138855,5,0.7376670047603118,1.3349639878364679,3.671321172700843,2,772,581,0,0.7144212521593802,3.7026089525155825,-2.3245752600931535,5.408327695639836,3.1287779814739736,6.666551601886721,55.703442844822604,3.897807306318965,0,0,24,ok,140,250566.0,70,77.0,0,0,0,0,0,0
1778105213.33968,10.48883605003357,1,0.010068893432617188,584,1.3395692110061646,1.442338466644287,3.744328022003174,5,0.696178474594064,1.400323629496497,3.631984292023561,2,776,585,0,0.6939112333302238,3.682875200387429,-0.22672412638402584,-1.1276364703630692,5.0890908363868,5.217452767373517,60.410158145379455,5.0941387270549185,0,0,-22,ok,140,250573.99999999997,70,77.5,0,0,0,0,0,0
1778105213.4098802,10.559036254882812,1,0.0007441043853759766,588,1.3402068614959717,1.4405754804611206,3.7446658611297607,5,0.6997940289286987,1.400187976462858,3.6326858685765706,2,780,589,0,0.6966421076311775,3.685734047807954,-0.31519212975211763,-1.1140711669991754,5.30481792313835,5.429695556976142,60.31016204558499,5.314173433028654,0,0,-1,ok,140,250569.99999999997,70,77.5,0,0,0,0,0,0
1778105213.478962,10.62811803817749,1,0.010024070739746094,591,1.2007372379302979,1.345221757888794,3.7508718967437744,5,0.6933647532416293,1.4008760204949184,3.6326479182114744,2,783,592,0,0.6847961956835245,3.6860478453571868,-0.8568557558104817,-1.1828755702052218,5.33999271457124,5.536146547240942,59.25667485201343,5.408301394887259,0,0,-2,ok,140,250573.0,70,77.5,0,0,0,0,0,0
1778105213.54894,10.69809603691101,1,6.9141387939453125e-06,595,1.2721208333969116,1.3577709197998047,3.7780516147613525,5,0.726440098517295,1.3337819102787516,3.6733601447634197,2,786,596,0,0.7019418133463244,3.7088374523665655,-2.4498285170970524,5.526535451411463,3.5477307603145825,7.0093257455030535,55.5553180995318,4.311386471990678,0,0,26,ok,140,250573.0,70,77.5,0,0,0,0,0,0
1778105213.618499,10.76765513420105,1,0.009537935256958008,598,1.3445135354995728,1.4374735355377197,3.7455124855041504,5,0.6917483186434144,1.3998805301740211,3.633610712107219,2,790,599,0,0.6939765471076187,3.6909950160067266,0.22282284642043404,-1.0833265381154922,5.738430389950766,5.8440422439765705,61.5255590513869,5.742754858184128,0,0,-25,ok,140,250578.00000000003,70,77.5,0,0,0,0,0,0
1778105213.6891992,10.838355302810669,1,7.510185241699219e-05,602,1.33198881149292,1.5062203407287598,3.720187187194824,5,0.6903227463410364,1.3982157309275176,3.6343252648733864,2,794,603,0,0.6978050239407056,3.6927139157962205,0.748227759966924,-0.9168466134651387,5.838865092283418,5.957583239812387,62.59539458920875,5.886611108835964,0,0,-1,ok,140,250573.0,70,77.5,0,0,0,0,0,0
