timestamp,elapsed,target_x,target_y,target_z,pos_x,pos_y,pos_z,marker_id,publish_count,err_x_cm,err_y_cm,err_z_cm,err_3d_cm,cmd_lr,cmd_fb,cmd_ud,vel_x_pub,vel_y_pub,vel_z_pub,tello_height_cm,tello_baro_cm,tello_battery,tello_temp_c,tello_pitch,tello_roll,tello_yaw,tello_vgx,tello_vgy,tello_vgz
1778075369.0920498,7.867813110351562e-06,-0.05708032503626635,1.4220301408648464,2.6767837930796823,-0.058877348896037324,1.4401317131915685,2.6262191930040952,0,0,0.17970238597709715,-1.810157232672216,5.056460007558705,5.373709143837427,1,-28,-10,0.0,0.0,0.0,130,247955.00000000003,66,69.0,0,0,0,0,0,0
1778075369.163785,0.07174301147460938,-0.05708032503626635,1.4220301408648464,2.6767837930796823,-0.03915412447876313,1.4139038848340504,2.6368077684582167,0,3,-1.792620055750322,0.8126256030795975,3.9976024621465545,4.455858220412647,-8,1,9,0.2749450744859921,-0.36562035034433027,0.14760652747956374,130,247955.00000000003,66,69.0,0,0,0,0,0,0
1778075369.233431,0.1413891315460205,-0.05708032503626635,1.4220301408648464,2.6767837930796823,-0.06935462331008407,1.3949504719838974,2.6513284754249082,0,7,1.227429827381772,2.7079668880948926,2.5455317654774046,3.9140005898337953,11,3,8,-0.43362787188080376,-0.2721388187987961,0.20849269064526207,130,247958.0,66,68.5,0,0,0,0,0,0
1778075369.303696,0.2116539478302002,-0.05708032503626635,1.4220301408648464,2.6767837930796823,-0.038712161485035874,1.3665671257762924,2.66197888110436,0,10,-1.8368163551230479,5.5463015088554,1.4804911975322188,6.027205731974775,-12,2,14,0.43609965051523847,-0.4039482020818385,0.15157522986151784,130,247960.0,66,68.5,0,0,0,0,0,0
1778075369.3739772,0.2819352149963379,-0.05708032503626635,1.4220301408648464,2.6767837930796823,-0.0841247726203211,1.4130135976599751,2.632713456552518,0,14,2.704444758405475,0.9016543204871219,4.407033652716441,5.248709134739242,17,-13,-15,-0.6461552696244716,0.6608656012688003,-0.41640433833757956,130,247960.0,66,68.5,0,0,0,0,0,0
1778075369.4444401,0.352398157119751,-0.05708032503626635,1.4220301408648464,2.6767837930796823,-0.06225733758056098,1.3868262809190561,2.643645636612251,0,17,0.5177012544294625,3.520385994579023,3.3138156467431124,4.8623560421122445,-7,1,11,0.3103395115330292,-0.3716466549899797,0.15514793635193377,130,247969.0,66,68.5,0,0,0,0,0,0
1778075369.514194,0.422152042388916,-0.05708032503626635,1.4220301408648464,2.6767837930796823,-0.062383586979294275,1.385515844890996,2.6436371620049757,0,21,0.5303261943027924,3.6514295973850253,3.314663107470661,4.959957206776093,0,-2,3,-0.0018099264040437226,-0.018786566841450303,-0.000121492978388036,130,247957.00000000003,66,68.5,0,0,0,0,0,0
1778075369.585821,0.49377894401550293,-0.05708032503626635,1.4220301408648464,2.6767837930796823,-0.04188529767434641,1.3632010249556963,2.662294910964243,0,24,-1.5195027361919946,5.882911590915008,1.4488882115439417,6.246344082851032,-8,5,12,0.28618143238711846,-0.3115424432517527,0.2604852162464849,130,247957.00000000003,66,68.5,0,0,0,0,0,0
1778075369.6565619,0.5645198822021484,-0.05708032503626635,1.4220301408648464,2.6767837930796823,-0.09090900603383438,1.3659889450102831,2.6582117592821763,0,28,3.382868099756803,5.604119585456324,1.8572033797505938,6.804348411288505,19,-2,3,-0.6930033671612046,0.0394102782073809,-0.05771978414102147,130,247957.00000000003,66,68.5,0,0,0,0,0,0
1778075369.7281122,0.6360702514648438,-0.05708032503626635,1.4220301408648464,2.6767837930796823,-0.06263439624471498,1.3829184869599191,2.6436200121292033,0,31,0.5554071208448628,3.9111653904927213,3.3163780950479005,5.157911927416636,-9,-7,-2,0.3951707039457743,0.23661012688110186,-0.20393671344168537,130,247944.0,66,68.5,0,0,0,0,0,0
1778075369.798248,0.7062060832977295,-0.05708032503626635,1.4220301408648464,2.6767837930796823,-0.042777464061878795,1.3642050662711733,2.6701937211140487,0,35,-1.4302860974387557,5.782507459367303,0.6590071965633548,5.993112824174711,-7,8,10,0.2831210761162675,-0.26681683527094563,0.378889196725623,130,247944.0,66,68.5,0,0,0,0,0,0
1778075369.8683488,0.7763068675994873,-0.05708032503626635,1.4220301408648464,2.6767837930796823,-0.06811160896881097,1.3402185319162383,2.6772649600841834,0,38,1.1031283932544613,8.181160894860806,-0.048116700450107075,8.255337731217665,9,2,14,-0.3613960265819295,-0.34217212537425995,0.10087246584425595,130,247951.00000000003,66,68.5,0,0,0,0,0,0
1778075369.939141,0.8470990657806396,-0.05708032503626635,1.4220301408648464,2.6767837930796823,-0.07758587510112197,1.291931196722226,2.7026229730000826,0,42,2.050555006485562,13.009894414262035,-2.58391799204003,13.42157817450905,4,10,26,-0.13383206590176805,-0.6820996724871905,0.3582034965351666,130,247952.0,66,68.5,0,0,0,0,0,0
1778075370.0086908,0.9166488647460938,-0.05708032503626635,1.4220301408648464,2.6767837930796823,-0.042704898722147805,1.3636483049320245,2.669811038632386,0,45,-1.4375426314118547,5.838183593282187,0.6972754447296392,6.05285961606733,-13,-12,-21,0.5015251934272277,1.031161977124059,-0.47177612093450655,130,247952.0,66,68.5,0,0,0,0,0,0
1778075370.0790951,0.9870531558990479,-0.05708032503626635,1.4220301408648464,2.6767837930796823,-0.06734569875986456,1.384883356677928,2.651626443924514,0,49,1.0265373723598203,3.7146784186918413,2.515734915516843,4.602340371625817,9,-8,-4,-0.3499900309227507,0.30161587309742344,-0.2582881584357664,130,247952.0,66,68.5,0,0,0,0,0,0
1778075370.1498508,1.0578088760375977,-0.05708032503626635,1.4220301408648464,2.6767837930796823,-0.04413279667390407,1.3629602118289,2.6701130304472303,0,53,-1.294752836236228,5.906992903594643,0.6670762632452032,6.083908349987237,-8,5,12,0.32807103143754746,-0.3098427209291259,0.261273385197932,130,247951.00000000003,66,68.5,0,0,0,0,0,0
1778075370.2210119,1.1289699077606201,-0.05708032503626635,1.4220301408648464,2.6767837930796823,-0.04413279667390407,1.3629602118289,2.6701130304472303,0,56,-1.294752836236228,5.906992903594643,0.6670762632452032,6.083908349987237,0,0,4,0.0,0.0,0.0,130,247950.0,66,69.0,0,0,0,0,0,0
1778075370.291696,1.1996541023254395,-0.05708032503626635,1.4220301408648464,2.6767837930796823,-0.043955954262381344,1.3637279392205979,2.6697373035092027,0,60,-1.3124370773885008,5.830220164424849,0.7046489570479597,6.01751513504029,0,0,4,0.0025018664018383874,0.010861372848974331,-0.005315572177638854,130,247950.0,66,69.0,0,0,0,0,0,0
1778075370.364172,1.272130012512207,-0.05708032503626635,1.4220301408648464,2.6767837930796823,-0.0416408164589961,1.4068616806406125,2.644579605843507,0,63,-1.5439508577270251,1.5168460224233904,3.220418723617513,3.880167890986668,-1,-10,-13,0.03194354920716722,0.5951459086041226,-0.34711806448329013,130,247959.0,66,69.0,0,0,0,0,0,0
1778075370.439465,1.3474230766296387,-0.05708032503626635,1.4220301408648464,2.6767837930796823,-0.0416408164589961,1.4068616806406125,2.644579605843507,0,67,-1.5439508577270251,1.5168460224233904,3.220418723617513,3.880167890986668,0,-2,1,0.0,0.0,0.0,130,247959.0,66,69.0,0,0,0,0,0,0
1778075370.513986,1.4219441413879395,-0.05708032503626635,1.4220301408648464,2.6767837930796823,-0.09525798428499159,1.3716668236370242,2.6738104614488214,0,71,3.817765924872524,5.036331722782217,0.2973331630860887,6.326798628760917,20,9,16,-0.7194900931689003,-0.4722806513532533,0.39224956997220395,130,247946.0,66,69.0,0,0,0,0,0,0
1778075370.58471,1.4926679134368896,-0.05708032503626635,1.4220301408648464,2.6767837930796823,-0.09525798428499159,1.3716668236370242,2.6738104614488214,0,74,3.817765924872524,5.036331722782217,0.2973331630860887,6.326798628760917,2,0,4,0.0,0.0,0.0,130,247946.0,66,69.0,0,0,0,0,0,0
1778075370.657133,1.5650911331176758,-0.05708032503626635,1.4220301408648464,2.6767837930796823,-0.07585979741800293,1.3456446901576835,2.68483588149623,0,78,1.877947238173658,7.638545070716285,-0.8052088416547587,7.90711185613351,-5,4,15,0.2678448562835021,-0.35930649857927194,0.15223598310050715,130,247953.00000000003,66,69.0,0,0,0,0,0,0
1778075370.726687,1.6346449851989746,-0.05708032503626635,1.4220301408648464,2.6767837930796823,-0.07585979741800293,1.3456446901576835,2.68483588149623,0,81,1.877947238173658,7.638545070716285,-0.8052088416547587,7.90711185613351,1,0,6,0.0,0.0,0.0,130,247953.00000000003,66,69.0,0,0,0,0,0,0
1778075370.7986078,1.7065658569335938,-0.05708032503626635,1.4220301408648464,2.6767837930796823,-0.10485538704907295,1.3734899806471463,2.6733348057989854,0,85,4.7775062012806595,4.854016021770002,0.3448987280696869,6.819456882736273,13,-4,-5,-0.40315959653632755,0.3871656421547444,-0.1599129073363054,130,247953.00000000003,66,69.0,0,0,0,0,0,0
1778075370.867668,1.7756259441375732,-0.05708032503626635,1.4220301408648464,2.6767837930796823,-0.10485538704907295,1.3734899806471463,2.6733348057989854,0,88,4.7775062012806595,4.854016021770002,0.3448987280696869,6.819456882736273,2,0,4,0.0,0.0,0.0,130,247953.00000000003,66,69.0,0,0,0,0,0,0
1778075370.938199,1.8461570739746094,-0.05708032503626635,1.4220301408648464,2.6767837930796823,-0.0661760420391791,1.4329061790765452,2.634057955755778,0,92,0.9095717002912742,-1.0876038211698802,4.272583732390434,4.50168573981808,-13,-16,-21,0.5484010407782125,0.8424109831599377,-0.5568725488157863,130,247946.0,66,69.0,0,0,0,0,0,0
1778075371.0073678,1.9153258800506592,-0.05708032503626635,1.4220301408648464,2.6767837930796823,-0.0661760420391791,1.4329061790765452,2.634057955755778,0,95,0.9095717002912742,-1.0876038211698802,4.272583732390434,4.50168573981808,0,-2,0,0.0,0.0,0.0,130,247953.00000000003,66,69.0,0,0,0,0,0,0
1778075371.076864,1.9848220348358154,-0.05708032503626635,1.4220301408648464,2.6767837930796823,-0.07541455997365909,1.3922421007418828,2.659118693458675,0,99,1.8334234937392737,2.9788040122963544,1.7665099621007485,3.9185804186298347,4,7,17,-0.1329356705135758,-0.5851270255221059,0.36060610519201847,130,247953.00000000003,66,69.0,0,0,0,0,0,0
1778075371.1474612,2.0554192066192627,-0.05708032503626635,1.4220301408648464,2.6767837930796823,-0.07635694508344998,1.4352923921747678,2.6336235893782662,0,102,1.9276620047183626,-1.3262251309921425,4.3160203701416044,4.909458802962625,1,-11,-15,-0.013348765764747635,0.6098019275466054,-0.36113492136219444,130,247953.00000000003,65,69.0,0,0,0,0,0,0
1778075371.2185652,2.12652325630188,-0.05708032503626635,1.4220301408648464,2.6767837930796823,-0.07380229211436531,1.4312068503623014,2.6260231140296884,0,106,1.6721967078098963,-0.9176709497455082,5.076067904999393,5.422621799257441,0,-6,1,0.03592837511348106,-0.05745863745739836,-0.1068922991377237,130,247953.00000000003,65,69.0,0,0,0,0,0,0
1778075371.290821,2.1987791061401367,-0.05708032503626635,1.4220301408648464,2.6767837930796823,-0.08360683490518384,1.3910448547183978,2.650778651479573,0,110,2.6526509868917483,3.0985286146448576,2.600514160010947,4.83736609431705,5,6,16,-0.13569202788100587,-0.5558303685280213,0.3426094566086925,130,247950.0,65,70.0,0,0,0,0,0,0
1778075371.362444,2.270401954650879,-0.05708032503626635,1.4220301408648464,2.6767837930796823,-0.026770640096925046,1.427280281300789,2.6213180426402163,0,113,-3.0309684939341306,-0.525014043594263,5.5465750439466,6.342468326710332,-21,-14,-12,0.79354837164476,0.5059199310811622,-0.41132975652229115,130,247957.00000000003,65,70.0,0,0,0,0,0,0
1778075371.432801,2.340759038925171,-0.05708032503626635,1.4220301408648464,2.6767837930796823,-0.11796218343253087,1.3280656046993582,2.6818711151907024,0,117,6.088185839626452,9.396453616548817,-0.5087322111020143,11.207950564148387,30,21,30,-1.2961245377947903,-1.4101590141887557,0.8606535244470304,130,247957.00000000003,65,70.0,0,0,0,0,0,0
1778075371.503741,2.411699056625366,-0.05708032503626635,1.4220301408648464,2.6767837930796823,-0.11102886574007675,1.3766007315706061,2.656456202394336,0,120,5.39485407038104,4.542940929424022,2.0327590685346397,7.339950419427415,1,-10,-12,0.09773493039930588,0.684171338614063,-0.3582591831845084,130,247954.0,65,70.0,0,0,0,0,0,0
1778075371.574506,2.482464075088501,-0.05708032503626635,1.4220301408648464,2.6767837930796823,-0.10155829438810648,1.4160774565320913,2.6242907065832974,0,124,4.447796935184013,0.5952684332755087,5.249308649638484,6.905974470229093,0,-15,-12,0.13383125670918875,0.5578564920752567,-0.4545394957791914,130,247954.0,65,70.0,0,0,0,0,0,0
1778075371.645178,2.553136110305786,-0.05708032503626635,1.4220301408648464,2.6767837930796823,-0.1126519693216278,1.3769474161575177,2.6486973695116123,0,127,5.557164428536145,4.508272470732866,2.8086423568070007,7.687331724636687,7,6,18,-0.15697404071374463,-0.5536849229580846,0.3453510692493173,130,247951.00000000003,65,70.0,0,0,0,0,0,0
1778075371.7158568,2.623814821243286,-0.05708032503626635,1.4220301408648464,2.6767837930796823,-0.08537976156271276,1.3964613298767454,2.635196314491322,0,131,2.829943652644641,2.556881098810093,4.158747858836032,5.642818957220698,-7,-7,-4,0.3858617028687944,0.27609323175805445,-0.19102010833543734,130,247951.00000000003,65,70.0,0,0,0,0,0,0
1778075371.78604,2.693998098373413,-0.05708032503626635,1.4220301408648464,2.6767837930796823,-0.08668386333596567,1.39928818158289,2.6351972664772023,0,134,2.960353829969932,2.2741959281956436,4.158652660247997,5.588385622612941,2,-2,1,-0.018581374745937986,0.04027813778064572,1.3564283676630503e-05,130,247948.99999999997,65,70.0,0,0,0,0,0,0
1778075371.856897,2.764855146408081,-0.05708032503626635,1.4220301408648464,2.6767837930796823,-0.10991702176863974,1.4220082408626813,2.6165978268630448,0,138,5.2836696732373385,0.0021900002165065047,6.018596621663752,8.008787380514685,11,-10,-6,-0.3278877553762452,0.32064642699587503,-0.26249244260158106,130,247953.00000000003,65,70.0,0,0,0,0,0,0
1778075371.92918,2.8371379375457764,-0.05708032503626635,1.4220301408648464,2.6767837930796823,-0.11117786445408757,1.4262260906155961,2.61658540084551,0,141,5.409753941782122,-0.41959497507497723,6.019839223417245,8.104317486965087,4,-4,0,-0.01744319312526255,0.05835205982679933,-0.0001719083801185375,130,247956.0,65,70.0,0,0,0,0,0,0
1778075372.00085,2.9088079929351807,-0.05708032503626635,1.4220301408648464,2.6767837930796823,-0.08573459913480067,1.4462765320298088,2.602905900033476,0,145,2.865427409853431,-2.424639116496241,7.387789304620629,8.286674839514943,-6,-9,-7,0.3550055205210354,0.27976037279827326,-0.1908677304309188,130,247955.00000000003,65,70.0,0,0,0,0,0,0
1778075372.071292,2.979249954223633,-0.05708032503626635,1.4220301408648464,2.6767837930796823,-0.08710222095605757,1.4490946024300944,2.6029365969545797,0,149,3.002189591979122,-2.7064461565248,7.38471961251026,8.418555511472816,2,-5,-1,-0.01941487426303545,0.0400055641373456,0.00043577607071429344,130,247955.00000000003,65,70.0,0,0,0,0,0,0
1778075372.142432,3.0503900051116943,-0.05708032503626635,1.4220301408648464,2.6767837930796823,-0.10922992084095073,1.469830212091101,2.5848150930875198,0,152,5.214959580468438,-4.780007122625474,9.19686999921625,11.602874182751172,11,-12,-9,-0.31104419533957,0.2914758901934735,-0.25472998178724937,130,247951.00000000003,65,70.0,0,0,0,0,0,0
1778075372.212821,3.120779037475586,-0.05708032503626635,1.4220301408648464,2.6767837930796823,-0.12995969737512966,1.494154009885491,2.5741283253324174,0,156,7.287937233886331,-7.2123869020644715,10.265546774726486,14.509100748641703,12,-10,-12,-0.2945029337384805,0.3455623266511571,-0.15182433109542914,130,247952.0,65,69.0,0,0,0,0,0,0
1778075372.282367,3.1903250217437744,-0.05708032503626635,1.4220301408648464,2.6767837930796823,-0.11053662918624309,1.4746652539414176,2.584503752494032,0,159,5.345630414997673,-5.2635113076571205,9.22800405856501,11.89270258286462,-3,-2,4,0.27928382052924683,-0.28022834314803136,0.14918801237472265,130,247952.0,65,69.0,0,0,0,0,0,0
1778075372.3533921,3.261350154876709,-0.05708032503626635,1.4220301408648464,2.6767837930796823,-0.15332582376362347,1.476314216050925,2.571099971992228,0,163,9.624549872735711,-5.4284075186078695,10.568382108745444,15.290201726507938,21,-11,-3,-0.6024514519007484,0.023216600050874968,-0.1887188367069597,130,247960.0,65,69.0,0,0,0,0,0,0
1778075372.424115,3.3320729732513428,-0.05708032503626635,1.4220301408648464,2.6767837930796823,-0.14652341757969878,1.4208669921103048,2.613696367117993,0,166,8.944309254343242,0.11631487545415986,6.308742596168937,10.94597781526614,3,10,20,0.0961840370655324,-0.7840075553395592,0.6023005884765922,130,247961.0,65,69.0,0,0,0,0,0,0
1778075372.496062,3.404020071029663,-0.05708032503626635,1.4220301408648464,2.6767837930796823,-0.14798152786816188,1.4218129717986825,2.613861670136116,0,170,9.090120283189552,0.021716906616386922,6.292212294356636,11.055437302257198,6,-4,0,-0.02026642260061349,0.01314826751306124,0.002297563393485749,130,247961.0,65,69.0,0,0,0,0,0,0
1778075372.5674398,3.475397825241089,-0.05708032503626635,1.4220301408648464,2.6767837930796823,-0.16398870406181118,1.4445580526436235,2.5941417315330773,0,173,10.690837902554483,-2.252791177877711,8.264206154660503,13.69913086719547,12,-12,-8,-0.22426001448903748,0.31865783809292314,-0.27627569430983867,130,247959.0,65,69.0,0,0,0,0,0,0
1778075372.6368818,3.544839859008789,-0.05708032503626635,1.4220301408648464,2.6767837930796823,-0.1417923279485028,1.459076288487906,2.582449688054207,0,177,8.471200291223644,-3.704614762305969,9.433410502547535,13.208884836378015,-2,-10,-7,0.31963891189535776,0.20906985375528409,-0.1683712708931154,130,247959.0,65,69.0,0,0,0,0,0,0
1778075372.7069829,3.614940881729126,-0.05708032503626635,1.4220301408648464,2.6767837930796823,-0.15726894977031902,1.4821170604929974,2.571082540282831,0,180,10.018862473405267,-6.008691962815105,10.570125279685127,15.754667016260477,12,-11,-11,-0.22077597759962952,0.32867954148131184,-0.16215380789413536,130,247959.0,65,69.0,0,0,0,0,0,0
1778075372.776596,3.684554100036621,-0.05708032503626635,1.4220301408648464,2.6767837930796823,-0.1644033993397624,1.483396916712552,2.5708066875331563,0,184,10.732307430349604,-6.136677584770567,10.597710554652595,16.283510173152404,9,-7,-4,-0.1024869951842927,0.018385247093465017,-0.00396264899657679,130,247969.99999999997,65,69.0,0,0,0,0,0,0
1778075372.847064,3.7550220489501953,-0.05708032503626635,1.4220301408648464,2.6767837930796823,-0.14319305824133272,1.4605650527050766,2.5824702979920033,0,187,8.611273320506637,-3.853491184023028,9.431349508767894,13.339931636344657,-1,-2,6,0.30099274103242607,-0.3240035272699316,0.16551653111334208,130,247964.0,65,69.0,0,0,0,0,0,0
1778075372.916564,3.824522018432617,-0.05708032503626635,1.4220301408648464,2.6767837930796823,-0.14319305824133272,1.4605650527050766,2.5824702979920033,0,191,8.611273320506637,-3.853491184023028,9.431349508767894,13.339931636344657,6,-6,-2,0.0,0.0,0.0,130,247964.0,65,69.0,0,0,0,0,0,0
1778075372.988002,3.8959600925445557,-0.05708032503626635,1.4220301408648464,2.6767837930796823,-0.158613799612669,1.4835894357913837,2.5710858712642533,0,194,10.153347457640265,-6.155929492653733,10.569792181542903,15.89674303985252,12,-11,-11,-0.21586166148842503,0.3222984854019084,-0.1593607732189348,130,247957.00000000003,65,69.0,0,0,0,0,0,0
1778075373.0592299,3.9671878814697266,-0.05708032503626635,1.4220301408648464,2.6767837930796823,-0.14319305824133272,1.4605650527050766,2.5824702979920033,0,198,8.611273320506637,-3.853491184023028,9.431349508767894,13.339931636344657,0,-2,6,0.21649894800941671,-0.32325000443991825,0.15983125265491696,130,247961.0,65,69.0,0,0,0,0,0,0
1778075373.130156,4.038114070892334,-0.05708032503626635,1.4220301408648464,2.6767837930796823,-0.14041400364867976,1.4963086774008572,2.5589950840626208,0,202,8.33336786124134,-7.42785365360108,11.778870901706151,16.22836496783163,5,-16,-17,0.03918234738502877,0.5039552383507493,-0.33098089888218274,130,247962.0,64,69.0,0,0,0,0,0,0
1778075373.19952,4.107478141784668,-0.05708032503626635,1.4220301408648464,2.6767837930796823,-0.16575584168187818,1.4834180480779837,2.5708161322005685,0,205,10.867551664561184,-6.138790721313736,10.59676608791138,16.37314515369307,16,-3,0,-0.3653453107233815,-0.18584014976401983,0.17042033412796934,130,247962.0,64,69.0,0,0,0,0,0,0
1778075373.269734,4.17769193649292,-0.05708032503626635,1.4220301408648464,2.6767837930796823,-0.13414092780727932,1.496445071481204,2.5592529065275773,0,208,7.7060602771012965,-7.441493061635773,11.753088655210497,15.90264999671217,-5,-12,-9,0.4502664185287693,0.1855336755027906,-0.16468595268263136,140,247955.00000000003,64,68.0,0,0,0,0,0,0
1778075373.338905,4.246863126754761,-0.05708032503626635,1.4220301408648464,2.6767837930796823,-0.17001271396891485,1.4430821877380824,2.5863123402916255,0,212,11.29323889326485,-2.105204687323603,9.04714527880568,14.622584216604636,21,2,18,-0.5185943168802845,-0.7714611175710826,0.39119514441803477,140,247966.0,64,68.0,0,0,0,0,0,0
1778075373.4082189,4.316176891326904,-0.05708032503626635,1.4220301408648464,2.6767837930796823,-0.15996747168728442,1.4836199506539751,2.571097528216369,0,215,10.288714665101807,-6.158980978912876,10.568626486331345,15.983947008360483,3,-13,-18,0.14492420580006263,0.5848443403142528,-0.2195063587899729,140,247966.0,64,68.0,0,0,0,0,0,0
1778075373.479639,4.38759708404541,-0.05708032503626635,1.4220301408648464,2.6767837930796823,-0.163233574431694,1.4782771762366065,2.563727796096182,0,219,10.615324939542765,-5.624703537176012,11.305599698350033,16.49663595987168,8,-11,-1,-0.04573080273365455,-0.07480761692182125,-0.10318835387680618,140,247967.99999999997,64,68.0,0,0,0,0,0,0
1778075373.5486689,4.456626892089844,-0.05708032503626635,1.4220301408648464,2.6767837930796823,-0.13772885732448847,1.4916637845770335,2.5517221653695628,0,222,8.064853228822212,-6.9633643712187165,12.506162771011953,16.42968070973528,-2,-13,-9,0.3694739682716266,0.19392504078542788,-0.17391951486945073,140,247956.0,64,68.0,0,0,0,0,0,0
1778075373.619654,4.527611970901489,-0.05708032503626635,1.4220301408648464,2.6767837930796823,-0.15983547304543613,1.479521226035799,2.5634637482910207,0,226,10.275514800916978,-5.749108517095269,11.332004478866153,16.341749559770026,15,-4,0,-0.3114262333864021,-0.17105790039980087,0.1654091693356227,140,247956.0,64,68.0,0,0,0,0,0,0
1778075373.69122,4.599178075790405,-0.05708032503626635,1.4220301408648464,2.6767837930796823,-0.17080114483523903,1.438851393388057,2.579080973160768,0,230,11.372081979897269,-1.682125252321054,9.77028199189145,15.086822200950028,12,-2,13,-0.15322437635559005,-0.5682834452268898,0.21822097058360088,140,247952.0,64,68.0,0,0,0,0,0,0
1778075373.762822,4.6707799434661865,-0.05708032503626635,1.4220301408648464,2.6767837930796823,-0.15939855245874318,1.4751529544926902,2.556342839211638,0,233,10.231822742247683,-5.312281362784388,12.044095386804443,16.672455235885543,3,-17,-16,0.15924992945893066,0.5069918185515718,-0.317563419603661,140,247958.0,64,68.0,0,0,0,0,0,0
1778075373.834358,4.742316007614136,-0.05708032503626635,1.4220301408648464,2.6767837930796823,-0.17079214670496026,1.438282878251698,2.5793208063525945,0,237,11.37118216686939,-1.6252737386851734,9.746298672708775,15.064383041314136,12,0,12,-0.15927063337805553,-0.5154054347292341,0.32120815444129247,140,247958.0,64,68.0,0,0,0,0,0,0
1778075373.905162,4.813120126724243,-0.05708032503626635,1.4220301408648464,2.6767837930796823,-0.15891094816731802,1.4745038752239221,2.5566634928658147,0,240,10.183062313105166,-5.247373435907576,12.012030021386755,16.59875149772259,3,-17,-16,0.16780377592390924,0.5115662397536052,-0.3199999346301509,140,247956.0,64,68.0,0,0,0,0,0,0
1778075373.9748962,4.882854223251343,-0.05708032503626635,1.4220301408648464,2.6767837930796823,-0.16278043846811696,1.4738785990203387,2.556557931976416,0,244,10.570011343185062,-5.184845815549233,12.02258611032665,16.827071721077868,9,-9,-3,-0.055489215369632104,-0.008966577825245719,-0.0015137629173689164,140,247963.0,64,68.0,0,0,0,0,0,0
1778075374.046613,4.954571008682251,-0.05708032503626635,1.4220301408648464,2.6767837930796823,-0.13721117050639514,1.4866969393113934,2.544895338967697,0,247,8.013084547012879,-6.466679844654699,13.188845411198535,16.732397181854505,-2,-14,-8,0.3565311496895688,0.1787355667719355,-0.16262013054049354,140,247956.0,64,68.0,0,0,0,0,0,0
1778075374.117056,5.0250139236450195,-0.05708032503626635,1.4220301408648464,2.6767837930796823,-0.16126858413164424,1.4698560622409103,2.5490438156923125,0,251,10.418825909537789,-4.78259213760639,12.773997738736975,17.163919689779714,16,-8,2,-0.3415164411916266,-0.2390712689755111,0.0588913267829449,140,247956.0,64,68.0,0,0,0,0,0,0
1778075374.188719,5.09667706489563,-0.05708032503626635,1.4220301408648464,2.6767837930796823,-0.16509197192349231,1.4749476993612016,2.556066250408864,0,254,10.801164688722595,-5.291755849635527,12.071754267081847,17.04098265035994,9,-7,-5,-0.05335222159014007,0.07104959441403226,0.09799228158298845,140,247967.0,64,68.0,0,0,0,0,0,0
1778075374.2602618,5.168219804763794,-0.05708032503626635,1.4220301408648464,2.6767837930796823,-0.16126858413164424,1.4698560622409103,2.5490438156923125,0,258,10.418825909537789,-4.78259213760639,12.773997738736975,17.163919689779714,6,-12,-1,0.0534420096140244,-0.07116916586748039,-0.09815719567760377,140,247952.0,64,68.5,0,0,0,0,0,0
1778075374.332761,5.2407190799713135,-0.05708032503626635,1.4220301408648464,2.6767837930796823,-0.14276744058542923,1.4508516258893969,2.567590699852374,0,262,8.568711554916288,-2.882148502455051,10.919309322730841,14.176068347289966,0,-2,4,0.255190738021283,-0.26213277715005723,0.2558216493471604,140,247952.0,64,68.5,0,0,0,0,0,0
1778075374.403141,5.311099052429199,-0.05708032503626635,1.4220301408648464,2.6767837930796823,-0.12898510057632645,1.5192243425243839,2.521254018788715,0,265,7.1904775540060095,-9.719420165953752,15.552977429096737,19.6993706175351,1,-28,-30,0.1958275845781257,0.9714797299174869,-0.6583787893833873,140,247958.0,64,68.5,0,0,0,0,0,0
1778075374.473569,5.381526947021484,-0.05708032503626635,1.4220301408648464,2.6767837930796823,-0.1413703273577834,1.4493734072473696,2.56756716700129,0,269,8.429000232151704,-2.734326638252327,10.921662607839222,14.064398358896948,11,7,22,-0.17585683702681157,-0.9918078011757843,0.6575966594016059,140,247953.00000000003,64,68.5,0,0,0,0,0,0
1778075374.544389,5.452347040176392,-0.05708032503626635,1.4220301408648464,2.6767837930796823,-0.1585811234351436,1.4655233925743962,2.549038711574102,0,272,10.150079839887725,-4.349325170954987,12.77450815055805,16.88575756924965,14,-16,-8,-0.24302137021642198,0.2280424185788797,-0.2616270976467138,140,247953.00000000003,64,68.5,0,0,0,0,0,0
1778075374.615509,5.523467063903809,-0.05708032503626635,1.4220301408648464,2.6767837930796823,-0.13254724954713332,1.4831967152278303,2.544082530149859,0,276,7.546692451086696,-6.116657436298389,13.27012629298232,16.44573856584173,-2,-12,-10,0.3660554724755266,0.24849995440343053,-0.06968756708010035,130,247955.00000000003,64,68.5,0,0,0,0,0,0
1778075374.686114,5.594072103500366,-0.05708032503626635,1.4220301408648464,2.6767837930796823,-0.13234931486941726,1.4860172966825163,2.551577063763751,0,279,7.526898983315091,-6.398715581766989,12.520672931593113,15.948825037014666,6,-7,-5,0.002803407219188233,0.03994872704275799,0.10614729000530825,130,247956.0,64,68.5,0,0,0,0,0,0
1778075374.7572658,5.665223836898804,-0.05708032503626635,1.4220301408648464,2.6767837930796823,-0.13864370167326096,1.444378943143445,2.5677676638701414,0,283,8.15633766369946,-2.23488022785987,10.901612920954085,13.797307635748158,9,-3,12,-0.08846427912860834,-0.5852050477239051,0.22755032566424913,130,247957.00000000003,64,68.5,0,0,0,0,0,0
1778075374.82908,5.7370381355285645,-0.05708032503626635,1.4220301408648464,2.6767837930796823,-0.1372491106603967,1.4435292405134734,2.5675276563275355,0,286,8.016878562413034,-2.1499099648627062,10.925613675214674,13.720841407199908,6,-9,-1,0.019419405877011933,-0.011831942192352079,-0.0033420578796327484,130,247957.00000000003,64,68.5,0,0,0,0,0,0
1778075374.900212,5.8081700801849365,-0.05708032503626635,1.4220301408648464,2.6767837930796823,-0.15149995276429135,1.463635877743382,2.5563428745605927,0,290,9.4419627728025,-4.160573687853564,12.044091851908956,15.859419376265555,13,-14,-10,-0.20034377202448733,0.2826667726721204,-0.15723992674423354,130,247954.0,64,68.5,0,0,0,0,0,0
1778075374.970985,5.878942966461182,-0.05708032503626635,1.4220301408648464,2.6767837930796823,-0.1544110640318591,1.4627265464342374,2.5560590587972327,0,294,9.733073899559276,-4.0696405569391025,12.072473428244956,16.0324457420771,9,-10,-2,-0.04113314322387443,-0.01284858308018206,-0.004010232990247136,130,247959.0,64,68.5,0,0,0,0,0,0
1778075375.04146,5.949418067932129,-0.05708032503626635,1.4220301408648464,2.6767837930796823,-0.1613299269136894,1.4247827709046392,2.579463037857076,0,297,10.424960187742304,-0.27526300397928694,9.732075522260608,14.26425107071366,11,0,12,-0.09817457140778311,-0.5383997289488138,0.33208861812695034,130,247952.0,63,68.5,0,0,0,0,0,0
1778075375.112175,6.020133018493652,-0.05708032503626635,1.4220301408648464,2.6767837930796823,-0.12487693810180993,1.4781098957882812,2.5518557310020116,0,301,6.779661306554358,-5.607975492343487,12.492806207767071,15.280163726188897,-6,-20,-23,0.5154919648874621,0.7541138678623033,-0.39040268904728587,130,247950.0,63,68.5,0,0,0,0,0,0
1778075375.182592,6.090549945831299,-0.05708032503626635,1.4220301408648464,2.6767837930796823,-0.15933214339114563,1.4280531759719848,2.586511091960737,0,304,10.225181835487927,-0.6023035107138419,9.027270111894525,13.653157831099538,21,3,16,-0.4893028791802332,-0.7108620286181528,0.49214531603394623,130,247950.0,63,68.5,0,0,0,0,0,0
1778075375.2526872,6.160645246505737,-0.05708032503626635,1.4220301408648464,2.6767837930796823,-0.10637700267334065,1.4591760036408812,2.56952877983908,0,308,4.929667763707429,-3.714586277603482,10.725501324060227,12.374819357336655,-13,-15,-14,0.7554734797951446,0.4440073352912502,-0.24227461696087604,130,247948.0,63,69.0,0,0,0,0,0,0
1778075375.323141,6.2310991287231445,-0.05708032503626635,1.4220301408648464,2.6767837930796823,-0.10637700267334065,1.4591760036408812,2.56952877983908,0,311,4.929667763707429,-3.714586277603482,10.725501324060227,12.374819357336655,5,-9,-3,0.0,0.0,0.0,130,247959.0,63,69.0,0,0,0,0,0,0
1778075375.392742,6.300699949264526,-0.05708032503626635,1.4220301408648464,2.6767837930796823,-0.09997801913352476,1.488760717491711,2.5385290495189037,0,315,4.2897694097258405,-6.673057662686466,13.82547435607786,15.939747843950503,3,-22,-15,0.09193833477884512,0.4250627165126589,-0.4453931732276798,130,247959.0,63,69.0,0,0,0,0,0,0
1778075375.463781,6.371739149093628,-0.05708032503626635,1.4220301408648464,2.6767837930796823,-0.15243382091858476,1.4265949920550334,2.594514405800439,0,318,9.53534958823184,-0.45648511901870137,8.226938727924349,12.602134393296247,27,11,21,-0.7384064278771791,-0.8750904512752007,0.7880910316588396,130,247944.0,63,69.0,0,0,0,0,0,0
1778075375.533501,6.4414589405059814,-0.05708032503626635,1.4220301408648464,2.6767837930796823,-0.10823818190503512,1.4208195300500948,2.6012998903721773,0,322,5.115785686876877,0.12106108147516004,7.5483902707504935,9.119436093260534,-9,-5,1,0.633903775646103,-0.08283819971261806,0.09732508423047644,130,247948.0,63,69.0,0,0,0,0,0,0
1778075375.603144,6.511101961135864,-0.05708032503626635,1.4220301408648464,2.6767837930796823,-0.1344448370142821,1.4041971301202594,2.6139673736487494,0,325,7.736451197801573,1.7833010744586986,6.281641943093286,10.123826616421269,16,-2,6,-0.37629980538210706,-0.23868005407426215,0.18189164056931564,130,247948.0,63,69.0,0,0,0,0,0,0
1778075375.6734269,6.581384897232056,-0.05708032503626635,1.4220301408648464,2.6767837930796823,-0.10349521293237758,1.42160892447145,2.608850229359019,0,329,4.641488789611123,0.042121639339631756,6.79335637206635,8.227690029071397,-5,-9,-6,0.440357586079584,0.24773857380346698,-0.0728077763104143,130,247957.00000000003,63,69.0,0,0,0,0,0,0
1778075375.744385,6.652343034744263,-0.05708032503626635,1.4220301408648464,2.6767837930796823,-0.10032051904919058,1.4587372212650056,2.5847936127522932,0,332,4.324019401292423,-3.670708040015924,9.199018032738904,10.807089065259264,4,-17,-16,0.044740377840960875,0.5232422678395177,-0.339025479672251,130,247957.00000000003,63,69.0,0,0,0,0,0,0
1778075375.815721,6.723679065704346,-0.05708032503626635,1.4220301408648464,2.6767837930796823,-0.10032051904919058,1.4587372212650056,2.5847936127522932,0,336,4.324019401292423,-3.670708040015924,9.199018032738904,10.807089065259264,5,-9,-3,0.0,0.0,0.0,130,247957.00000000003,63,69.0,0,0,0,0,0,0
1778075375.88766,6.795618057250977,-0.05708032503626635,1.4220301408648464,2.6767837930796823,-0.10461840562100909,1.4224989035004825,2.6163541247599325,0,339,4.753808058474274,-0.046876263563611076,6.042966831974983,7.688844944024452,7,3,12,-0.059743492081517705,-0.5037368051098332,0.4387121827692244,130,247955.00000000003,63,69.0,0,0,0,0,0,0
1778075375.957782,6.865740060806274,-0.05708032503626635,1.4220301408648464,2.6767837930796823,-0.10336853875852199,1.421072146860662,2.61638629438162,0,343,4.628821372225564,0.09579940041843926,6.0397498698062435,7.610107969727974,5,-7,0,0.017824174996675036,-0.020346775155894833,0.0004587664364442435,130,247955.00000000003,63,69.0,0,0,0,0,0,0
1778075376.027672,6.9356300830841064,-0.05708032503626635,1.4220301408648464,2.6767837930796823,-0.10213185720019408,1.4196492895456716,2.6164239974476113,0,346,4.505153216392772,0.23808513191747593,6.0359795632070945,7.535657855865539,5,-7,0,0.01769467969850927,-0.020358518549817,0.0005394627839952612,130,247948.0,63,69.0,0,0,0,0,0,0
1778075376.0988858,7.00684380531311,-0.05708032503626635,1.4220301408648464,2.6767837930796823,-0.09874863100949677,1.4226823264635238,2.624391271222299,0,350,4.166830597323042,-0.06521855986774128,5.23925218573833,6.694512241612722,4,-4,-1,0.0475080656480471,0.042590624712730965,0.1118783504823279,130,247953.00000000003,63,69.0,0,0,0,0,0,0
1778075376.1698198,7.077777862548828,-0.05708032503626635,1.4220301408648464,2.6767837930796823,-0.07879962074734964,1.3962639896614109,2.6352700297505107,0,354,2.171929571108329,2.5766151203435506,4.151376332917156,5.3469756870349165,-2,-2,10,0.28123317683430216,-0.37243515783008624,0.15336439155117024,130,247955.00000000003,63,69.0,0,0,0,0,0,0
1778075376.239878,7.147835969924927,-0.05708032503626635,1.4220301408648464,2.6767837930796823,-0.10592982950407157,1.3780064951855522,2.648993718362194,0,357,4.884950446780521,4.402364567929418,2.779007471748818,7.139078174701361,15,0,9,-0.38725295005582466,-0.26060502002781033,0.19589008504054198,130,247955.00000000003,63,69.0,0,0,0,0,0,0
1778075376.309647,7.217605113983154,-0.05708032503626635,1.4220301408648464,2.6767837930796823,-0.09952493785670395,1.4189292029671337,2.624762944841791,0,360,4.24446128204376,0.3100937897712708,5.2020848237891215,6.721108260333289,3,-15,-14,0.09180120716433407,0.5865445009247702,-0.3472992803262808,130,247954.0,63,68.5,0,0,0,0,0,0
1778075376.3801641,7.288122177124023,-0.05708032503626635,1.4220301408648464,2.6767837930796823,-0.07629459275426508,1.393389013324005,2.635345200849588,0,364,1.9214267717998723,2.864112754084136,4.143859223009416,5.391344170762696,-3,-2,10,0.3294287094179254,-0.36218453386392496,0.1500666014218048,130,247942.99999999997,63,68.5,0,0,0,0,0,0
1778075376.450973,7.358931064605713,-0.05708032503626635,1.4220301408648464,2.6767837930796823,-0.08031345030826587,1.3964590838349489,2.6432541613235343,0,368,2.3233125271999513,2.557105702989748,3.352963175614798,4.814450408129239,5,-3,0,-0.05675640017702624,0.04335713524291384,0.1116944603315702,130,247942.99999999997,63,68.5,0,0,0,0,0,0
1778075376.521578,7.4295361042022705,-0.05708032503626635,1.4220301408648464,2.6767837930796823,-0.1035643392398002,1.3736445861973796,2.6491310744926366,0,371,4.648401420353385,4.838555466746675,2.7652718587045655,7.257133264731391,14,-3,11,-0.32930919753592125,-0.32312845893059444,0.0832364545460698,130,247946.99999999997,63,68.5,0,0,0,0,0,0
1778075376.593478,7.501435995101929,-0.05708032503626635,1.4220301408648464,2.6767837930796823,-0.11791368359957939,1.4390281754886138,2.613454788345435,0,375,6.083335856331304,-1.6998034623767477,6.3329004734247185,8.944380099142538,11,-20,-24,-0.1995739378771075,0.909369798383728,-0.4961938843132671,130,247944.99999999997,63,68.5,0,0,0,0,0,0
1778075376.66515,7.573107957839966,-0.05708032503626635,1.4220301408648464,2.6767837930796823,-0.06957501271119122,1.4341259984070551,2.6182872817810723,0,378,1.2494687674924871,-1.2095857542208766,5.849651129861,6.102678775655602,-12,-5,0,0.674443241704811,-0.06839741642734547,0.06742515833283477,130,247944.99999999997,63,68.5,0,0,0,0,0,0
1778075376.7359302,7.643888235092163,-0.05708032503626635,1.4220301408648464,2.6767837930796823,-0.07371906085060886,1.3919822568855897,2.643367379408657,0,382,1.6638735814342511,3.0047883979256618,3.3416413671025325,4.792055471051477,5,2,16,-0.05854806310876658,-0.595416451553347,0.3543373747777472,130,247942.0,63,68.5,0,0,0,0,0,0
1778075376.804855,7.712813138961792,-0.05708032503626635,1.4220301408648464,2.6767837930796823,-0.07319350060885285,1.391226416965187,2.643779368323659,0,385,1.61131755725865,3.0803723899659463,3.3004424756023276,4.793533025436929,4,-5,2,0.007625113888444542,-0.010966136736766621,0.005977359297900846,130,247942.0,63,68.5,0,0,0,0,0,0
1778075376.874354,7.782311916351318,-0.05708032503626635,1.4220301408648464,2.6767837930796823,-0.07163528104559852,1.4320183382621194,2.6185711485965624,0,389,1.4554956009332167,-0.998819739727308,5.821264448311991,6.083027872201967,3,-16,-15,0.022420819786811947,0.5869444446238559,-0.3627145782120705,130,247944.99999999997,63,68.5,0,0,0,0,0,0
1778075376.943447,7.851405143737793,-0.05708032503626635,1.4220301408648464,2.6767837930796823,-0.06730219477978466,1.4314430372449496,2.618391341270122,0,392,1.022186974351831,-0.9412896380103231,5.839245180956043,6.002305946590737,2,-7,0,0.062713617958192,-0.008326445860632465,-0.0026023871404177,130,247942.99999999997,63,68.5,0,0,0,0,0,0
1778075377.0129302,7.920888185501099,-0.05708032503626635,1.4220301408648464,2.6767837930796823,-0.09883504261886279,1.3677728903178932,2.6494930157974754,0,396,4.175471758259644,5.425725054695318,2.7290777282206857,7.370272859253081,17,5,26,-0.4538207746646288,-0.916340812250982,0.4476153279717026,130,247942.99999999997,63,68.5,0,0,0,0,0,0
1778075377.082876,7.99083399772644,-0.05708032503626635,1.4220301408648464,2.6767837930796823,-0.09270404102508945,1.4092491091803057,2.6252122769116415,0,399,3.5623715988823093,1.27810316845407,5.157151616804079,6.396893927246297,3,-16,-14,0.08765359066846388,0.5929764419460898,-0.34713642051377697,130,247944.0,62,68.5,0,0,0,0,0,0
1778075377.153609,8.061567068099976,-0.05708032503626635,1.4220301408648464,2.6767837930796823,-0.06500068454614451,1.4300358803338362,2.6185261756970744,0,403,0.7920359509878155,-0.8005739468989859,5.825761738260793,5.9336109935766785,-5,-10,-8,0.39166059571069,0.29387627376780673,-0.0945258162731863,130,247942.0,62,68.5,0,0,0,0,0,0
1778075377.2241678,8.132125854492188,-0.05708032503626635,1.4220301408648464,2.6767837930796823,-0.06957268394000603,1.3883262431588212,2.6439968277610495,0,406,1.2492358903739675,3.370389770602511,3.278696531863279,4.865179181040795,5,2,16,-0.0647970242635319,-0.5911331431236007,0.36098483783993374,130,247942.0,62,68.5,0,0,0,0,0,0
1778075377.294754,8.202712059020996,-0.05708032503626635,1.4220301408648464,2.6767837930796823,-0.04144579541546498,1.4062539508664154,2.6289329065322242,0,410,-1.563452962080137,1.5776189998431,4.785088654745806,5.275446929605124,-7,-12,-5,0.3984757179154111,0.25398316607712224,-0.21341169042000524,130,247941.0,62,69.0,0,0,0,0,0,0
1778075377.366142,8.274100065231323,-0.05708032503626635,1.4220301408648464,2.6767837930796823,-0.0962510649531568,1.3681718737740969,2.6501079119238975,0,413,3.917073991689045,5.385826709074948,2.6675881155784786,7.174024278668659,25,1,16,-0.7677097659265285,-0.5334520336668184,0.2966185290185349,130,247944.99999999997,62,69.0,0,0,0,0,0,0
1778075377.4359522,8.343910217285156,-0.05708032503626635,1.4220301408648464,2.6767837930796823,-0.0962510649531568,1.3681718737740969,2.6501079119238975,0,417,3.917073991689045,5.385826709074948,2.6675881155784786,7.174024278668659,5,-5,3,0.0,0.0,0.0,130,247944.99999999997,62,69.0,0,0,0,0,0,0
1778075377.506295,8.414252996444702,-0.05708032503626635,1.4220301408648464,2.6767837930796823,-0.06650032709889897,1.3860003566698584,2.6359127675081266,0,420,0.9420002062632618,3.6029784194987924,4.087102557155564,5.529306031744092,-6,-11,-4,0.4229394716802356,0.25345150005126194,-0.20179959599797098,130,247940.0,62,69.0,0,0,0,0,0,0
1778075377.5775208,8.48547887802124,-0.05708032503626635,1.4220301408648464,2.6767837930796823,-0.07242329134664013,1.3460808489643337,2.6689213647525944,0,424,1.5342966310373782,7.594929190051269,0.7862428327087834,7.788144409671113,6,6,19,-0.08315747192790376,-0.5604635116046681,0.46343543265234766,130,247940.0,62,69.0,0,0,0,0,0,0
1778075377.647827,8.555784940719604,-0.05708032503626635,1.4220301408648464,2.6767837930796823,-0.040069116172931865,1.4088072331284733,2.6289964383302085,0,427,-1.7011208863334488,1.3222907736373024,4.778735474947382,5.242001325780719,-9,-21,-21,0.4601904008267131,0.892190257236508,-0.5678731661261822,130,247942.0,62,69.0,0,0,0,0,0,0
1778075377.7187562,8.62671422958374,-0.05708032503626635,1.4220301408648464,2.6767837930796823,-0.0399930466717747,1.4101261101644638,2.628998325292377,0,431,-1.708727836449165,1.1904030700382595,4.778546778730508,5.212611591585207,2,-7,0,0.001072469530927805,0.018594251501896815,2.6603427144948886e-05,130,247942.0,62,69.0,0,0,0,0,0,0
1778075377.789022,8.696979999542236,-0.05708032503626635,1.4220301408648464,2.6767837930796823,-0.06662730792143662,1.3935320451544402,2.6442038563676076,0,434,0.9546982885170265,2.849809571040618,3.257993671207471,4.432537216416799,13,-1,7,-0.37905030095584213,-0.23616143422074798,0.21640026266291293,130,247940.0,62,69.0,0,0,0,0,0,0
1778075377.8604338,8.768391847610474,-0.05708032503626635,1.4220301408648464,2.6767837930796823,-0.09442343929331065,1.372894498710346,2.64993012853158,0,438,3.73431142570443,4.913564215450039,2.685366454810234,6.730482012465222,15,-4,10,-0.3892369701077271,-0.28899331136724105,0.08018658414358149,130,247941.0,62,69.0,0,0,0,0,0,0
1778075377.9317818,8.839739799499512,-0.05708032503626635,1.4220301408648464,2.6767837930796823,-0.06203172454497374,1.4376013320874383,2.618728950012752,0,442,0.4951399508707391,-1.5571191222591985,5.805484306693032,6.031039012236001,-7,-19,-24,0.45399642022959846,0.9069192830892452,-0.43731007958508383,130,247941.0,62,69.0,0,0,0,0,0,0
1778075378.002213,8.910171031951904,-0.05708032503626635,1.4220301408648464,2.6767837930796823,-0.06203172454497374,1.4376013320874383,2.618728950012752,0,445,0.4951399508707391,-1.5571191222591985,5.805484306693032,6.031039012236001,3,-8,-1,0.0,0.0,0.0,130,247942.99999999997,62,69.0,0,0,0,0,0,0
1778075378.0710778,8.9790358543396,-0.05708032503626635,1.4220301408648464,2.6767837930796823,-0.06914556103478456,1.3979248035783365,2.64354789452526,0,449,1.2065235998518207,2.4105337286509876,3.3235898554422327,4.279324897826987,6,2,16,-0.10330145701620087,-0.5761508871064949,0.36040090792338425,130,247944.99999999997,62,69.0,0,0,0,0,0,0
1778075378.140379,9.04833698272705,-0.05708032503626635,1.4220301408648464,2.6767837930796823,-0.061930620856038746,1.438912684136998,2.6187349557609023,0,452,0.48502958197723933,-1.6882543272151551,5.804883731877997,6.064827409693992,1,-17,-16,0.1041099957046626,0.591446077609371,-0.3580452344965091,130,247944.99999999997,62,69.0,0,0,0,0,0,0
1778075378.21095,9.118907928466797,-0.05708032503626635,1.4220301408648464,2.6767837930796823,-0.08869982366029969,1.4229523853434882,2.6328667800252945,0,456,3.1619498624033335,-0.09222444786418649,4.391701305438778,5.412344467726438,14,-2,5,-0.3793232827427495,-0.22615962739635959,0.2002498920236666,130,247946.0,62,69.0,0,0,0,0,0,0
1778075378.2815812,9.189539194107056,-0.05708032503626635,1.4220301408648464,2.6767837930796823,-0.06713131975825093,1.4022884797665158,2.651612771827046,0,459,1.0050994721984576,1.9741661098330532,2.517102125263637,3.353111970578034,-3,0,8,0.30536765420433054,-0.2925603185736243,0.2654064263442345,130,247946.0,62,68.5,0,0,0,0,0,0
1778075378.351109,9.259067058563232,-0.05708032503626635,1.4220301408648464,2.6767837930796823,-0.08869982366029969,1.4229523853434882,2.6328667800252945,0,463,3.1619498624033335,-0.09222444786418649,4.391701305438778,5.412344467726438,12,-13,-7,-0.3102138124153566,0.29720322547799244,-0.26961840333190384,130,247946.0,62,68.5,0,0,0,0,0,0
1778075378.422807,9.330765008926392,-0.05708032503626635,1.4220301408648464,2.6767837930796823,-0.04062323627851408,1.4251865540062982,2.644603541463109,0,466,-1.6457088757752272,-0.3156413141451875,3.218025161657323,3.6281776533213344,-14,-2,-1,0.6705433996128427,0.031160844229070193,0.1636973076408233,130,247948.99999999997,62,68.5,0,0,0,0,0,0
1778075378.494515,9.402472972869873,-0.05708032503626635,1.4220301408648464,2.6767837930796823,-0.06713131975825093,1.4022884797665158,2.651612771827046,0,470,1.0050994721984576,1.9741661098330532,2.517102125263637,3.353111970578034,13,-3,9,-0.36966721716753675,-0.3193240050411993,0.09774688860865399,130,247944.0,62,68.5,0,0,0,0,0,0
1778075378.56549,9.473448038101196,-0.05708032503626635,1.4220301408648464,2.6767837930796823,-0.04062323627851408,1.4251865540062982,2.644603541463109,0,473,-1.6457088757752272,-0.3156413141451875,3.218025161657323,3.6281776533213344,-6,-9,-8,0.37348445391830515,0.3226213905567058,-0.09875623701214285,130,247944.0,62,68.5,0,0,0,0,0,0
1778075378.635297,9.543255090713501,-0.05708032503626635,1.4220301408648464,2.6767837930796823,-0.06084673017061629,1.4876879426840586,2.608941729119511,0,477,0.37664051343499344,-6.565780181921221,6.784206396017112,9.448639261683638,10,-21,-27,-0.2897055975765043,0.8953449019668738,-0.5108625992513525,130,247946.0,62,68.5,0,0,0,0,0,0
1778075378.7044039,9.612361907958984,-0.05708032503626635,1.4220301408648464,2.6767837930796823,-0.06881922594952676,1.4073273957947836,2.659887125488518,0,480,1.1738900913260408,1.470274507006275,1.689666759116415,2.528774175233719,7,12,30,-0.11536482356856813,-1.1628454339579222,0.7371978395132442,130,247946.0,62,68.5,0,0,0,0,0,0
1778075378.774084,9.682042121887207,-0.05708032503626635,1.4220301408648464,2.6767837930796823,-0.06881922594952676,1.4073273957947836,2.659887125488518,0,484,1.1738900913260408,1.470274507006275,1.689666759116415,2.528774175233719,4,-5,0,0.0,0.0,0.0,130,247946.0,62,68.5,0,0,0,0,0,0
1778075378.8439171,9.751875162124634,-0.05708032503626635,1.4220301408648464,2.6767837930796823,-0.07013128298103202,1.4074118876759742,2.65979704970481,0,487,1.305095794476567,1.461825318887211,1.6986743374872493,2.593395997632807,4,-5,0,-0.018788485035799288,0.0012099126846457592,-0.0012898734381618323,130,247939.0,62,68.5,0,0,0,0,0,0
1778075378.914558,9.822515964508057,-0.05708032503626635,1.4220301408648464,2.6767837930796823,-0.09273427469518948,1.4316367370411625,2.6482332336187477,0,491,3.5653949658923128,-0.9606596176316096,2.8550559460934544,4.667574597055943,13,-10,-9,-0.3199707669156043,0.3429299858982492,-0.1636988213029657,130,247941.0,62,68.5,0,0,0,0,0,0
1778075378.9865239,9.894481897354126,-0.05708032503626635,1.4220301408648464,2.6767837930796823,-0.0710635366920952,1.4107481561465676,2.667277899158872,0,494,1.3983211655828844,1.1281984718278792,0.9505893920810138,2.032671657274925,-3,1,7,0.3011249510160126,-0.2902565153886668,0.2646344567068944,130,247935.0,62,68.5,0,0,0,0,0,0
1778075379.057534,9.965492010116577,-0.05708032503626635,1.4220301408648464,2.6767837930796823,-0.10047657068676087,1.3888214447478955,2.6738798398822867,0,498,4.339624565049452,3.3208696116950875,0.2903953197395559,5.47218839087135,16,-2,9,-0.4142090872755062,-0.3087829401429499,0.09297183832815377,130,247935.0,62,68.5,0,0,0,0,0,0
1778075379.129215,10.03717303276062,-0.05708032503626635,1.4220301408648464,2.6767837930796823,-0.06868393615711528,1.4529526717913126,2.6421533721197434,0,501,1.160361112084893,-3.092253092646624,3.4630420959938846,4.785512267045944,-6,-18,-24,0.44352931022654307,0.8946751131311702,-0.442606237917281,130,247936.0,61,68.5,0,0,0,0,0,0
1778075379.1997519,10.107709884643555,-0.05708032503626635,1.4220301408648464,2.6767837930796823,-0.08198584552654732,1.3679064258845388,2.6925734602960074,0,505,2.490552049028097,5.412371498030755,-1.5789667216325132,6.16358261481394,9,13,30,-0.18858099013985422,-1.2056994838374628,0.7148049116218416,130,247944.99999999997,61,68.5,0,0,0,0,0,0
1778075379.270606,10.178564071655273,-0.05708032503626635,1.4220301408648464,2.6767837930796823,-0.09745799905228186,1.4369133164898864,2.6563311165168075,0,509,4.037767401601551,-1.4883175625040046,2.045267656287475,4.764637923509998,11,-18,-25,-0.218366114668362,0.97392819698763,-0.5115060281928812,130,247944.99999999997,61,68.5,0,0,0,0,0,0
1778075379.341316,10.249274015426636,-0.05708032503626635,1.4220301408648464,2.6767837930796823,-0.07490317806879938,1.4123655843797218,2.667063393620971,0,512,1.7822853032533033,0.9664556485124542,0.9720399458711171,2.24843035896233,-3,-1,9,0.31897664996612873,-0.34716096210652736,0.15177889461864028,130,247948.99999999997,61,68.5,0,0,0,0,0,0
1778075379.412338,10.320296049118042,-0.05708032503626635,1.4220301408648464,2.6767837930796823,-0.0823060814136379,1.412511135773579,2.6668649578878734,0,516,2.5225756377371553,0.9519005091267463,0.9918835191808917,2.87286187329002,7,-5,0,-0.10423389700447681,0.0020493836390197808,-0.002794002407196021,130,247944.0,61,68.5,0,0,0,0,0,0
1778075379.4807858,10.388743877410889,-0.05708032503626635,1.4220301408648464,2.6767837930796823,-0.0987277683417045,1.4369901373611698,2.6562477666936357,0,519,4.164744330543815,-1.4959996496323402,2.053602638604657,4.878564756952699,12,-9,-10,-0.23991538281986358,0.3576300694721838,-0.15511363119970936,130,247944.0,61,68.5,0,0,0,0,0,0
1778075379.550729,10.45868706703186,-0.05708032503626635,1.4220301408648464,2.6767837930796823,-0.07621596329921879,1.412433212145654,2.6670048864721028,0,523,1.9135638262952435,0.9596928719192377,0.9778906607579518,2.35350952199389,-3,-1,9,0.3218584277394151,-0.3510981605012858,0.15379795855408987,130,247940.0,61,68.5,0,0,0,0,0,0
1778075379.6354492,10.543407201766968,-0.05708032503626635,1.4220301408648464,2.6767837930796823,-0.10512701595596148,1.3952800860619883,2.681111362674738,0,527,4.8046690919695125,2.675005480285808,-0.4327569595055536,5.516137959558911,15,0,6,-0.3412536198996643,-0.20246811619573085,0.16650677252510826,130,247948.99999999997,61,68.5,0,0,0,0,0,0
1778075379.706131,10.614089012145996,-0.05708032503626635,1.4220301408648464,2.6767837930796823,-0.08477706485838292,1.4175803350049812,2.675242601292566,0,530,2.769673982211657,0.4449805859865208,0.1541191787116425,2.809422433684873,-1,-7,-7,0.28790930776182416,0.3155019491352683,-0.08303071682376226,130,247944.99999999997,61,68.5,0,0,0,0,0,0
1778075379.77579,10.683748006820679,-0.05708032503626635,1.4220301408648464,2.6767837930796823,-0.0999235110145847,1.438419320716354,2.6561781281947896,0,534,4.2843185978318346,-1.6389179851507674,2.0605664884892683,5.028655114766113,11,-12,-8,-0.21743704782042625,0.29915714128080517,-0.2736828630216392,130,247936.0,61,68.5,0,0,0,0,0,0
1778075379.8464441,10.754402160644531,-0.05708032503626635,1.4220301408648464,2.6767837930796823,-0.0999235110145847,1.438419320716354,2.6561781281947896,0,537,4.2843185978318346,-1.6389179851507674,2.0605664884892683,5.028655114766113,6,-6,-1,0.0,0.0,0.0,130,247936.0,61,68.5,0,0,0,0,0,0
1778075379.915782,10.823740005493164,-0.05708032503626635,1.4220301408648464,2.6767837930796823,-0.10046949400268497,1.4440276384371113,2.663980535521326,0,541,4.338916896641861,-2.199749757226499,1.2803257558356318,5.030341228131385,6,-2,-3,-0.007874242259651575,0.08088393478338547,0.11252739890559507,130,247940.0,61,68.5,0,0,0,0,0,0
1778075379.986454,10.89441204071045,-0.05708032503626635,1.4220301408648464,2.6767837930796823,-0.10648887514141477,1.3960915634940736,2.6813422951035975,0,544,4.940855010514841,2.5938577370772764,-0.45585020239151675,5.598923611029681,8,1,18,-0.08517345114263186,-0.6782891534912726,0.2456666138012267,130,247937.0,61,68.5,0,0,0,0,0,0
1778075380.0558028,10.96376085281372,-0.05708032503626635,1.4220301408648464,2.6767837930796823,-0.07847299381403243,1.41963885835948,2.6750437611554947,0,548,2.139266877776608,0.23912825053664655,0.17400319241875906,2.159611586727741,-4,-7,-8,0.4039850211949154,0.33954864043439714,-0.0908239630510647,130,247936.0,61,68.5,0,0,0,0,0,0
1778075380.127984,11.035942077636719,-0.05708032503626635,1.4220301408648464,2.6767837930796823,-0.1039744935936718,1.4394820599537645,2.6557223333744164,0,551,4.689416855740544,-1.7451919088918189,2.106145970526585,5.4288282432704,15,-12,-8,-0.35329824122787945,0.2749080753747795,-0.2676794114876554,130,247936.0,61,68.5,0,0,0,0,0,0
1778075380.198016,11.105973958969116,-0.05708032503626635,1.4220301408648464,2.6767837930796823,-0.12204082049177327,1.4643970163105728,2.6443620638691883,0,555,6.496049545550692,-4.236687544572648,3.242172921049402,8.405942320678413,14,-10,-11,-0.2579728911230007,0.35576591522013534,-0.16221568361569624,130,247944.0,61,68.5,0,0,0,0,0,0
1778075380.266237,11.174195051193237,-0.05708032503626635,1.4220301408648464,2.6767837930796823,-0.10113280197529591,1.4398526160194685,2.656114379748982,0,558,4.405247693902956,-1.7822475154622097,2.066941333070016,5.182167492986094,-1,-1,7,0.30647440307449175,-0.35977729893961097,0.1722680698395293,130,247939.0,61,69.0,0,0,0,0,0,0
1778075380.336868,11.244826078414917,-0.05708032503626635,1.4220301408648464,2.6767837930796823,-0.10390454794325278,1.440849894779058,2.655728150673739,0,562,4.682422290698643,-1.8819753914211645,2.1055642405943154,5.468117651771575,7,-6,-1,-0.03924261159699099,0.014119556217971027,-0.005468263600793901,130,247939.0,61,69.0,0,0,0,0,0,0
1778075380.410198,11.318156003952026,-0.05708032503626635,1.4220301408648464,2.6767837930796823,-0.10390454794325278,1.440849894779058,2.655728150673739,0,566,4.682422290698643,-1.8819753914211645,2.1055642405943154,5.468117651771575,6,-6,-1,0.0,0.0,0.0,130,247948.0,61,69.0,0,0,0,0,0,0
1778075380.4819431,11.389901161193848,-0.05708032503626635,1.4220301408648464,2.6767837930796823,-0.12858958848121443,1.4195909135074527,2.6614366128503617,0,569,7.150926344494808,0.24392273573936585,1.5347180229320578,7.317827908287605,16,-3,7,-0.3440655995046365,-0.29631242147746156,0.07956581874065544,130,247942.99999999997,61,69.0,0,0,0,0,0,0
1778075380.552295,11.4602530002594,-0.05708032503626635,1.4220301408648464,2.6767837930796823,-0.12858958848121443,1.4195909135074527,2.6614366128503617,0,573,7.150926344494808,0.24392273573936585,1.5347180229320578,7.317827908287605,8,-5,0,0.0,0.0,0.0,130,247942.99999999997,61,69.0,0,0,0,0,0,0
1778075380.6236138,11.531571865081787,-0.05708032503626635,1.4220301408648464,2.6767837930796823,-0.10113280197529591,1.4398526160194685,2.656114379748982,0,576,4.405247693902956,-1.7822475154622097,2.066941333070016,5.182167492986094,-2,-8,-8,0.38498630866176614,0.28410018250396224,-0.07462588074886015,130,247939.0,61,69.0,0,0,0,0,0,0
1778075380.6944299,11.60238790512085,-0.05708032503626635,1.4220301408648464,2.6767837930796823,-0.08325930968442746,1.4145156515601962,2.6671233831414374,0,580,2.617898464816111,0.7514489304650152,0.9660409938244907,2.889862119363652,0,-1,9,0.2523932753230671,-0.35778567179548937,0.15545917826501776,130,247941.0,61,69.0,0,0,0,0,0,0
1778075380.764916,11.672873973846436,-0.05708032503626635,1.4220301408648464,2.6767837930796823,-0.1112930442656551,1.3932932171544166,2.672900697355802,0,583,5.421271922938875,2.8736923710429796,0.38830957238804586,6.148095756398413,17,-3,9,-0.3977202174569795,-0.3010869351843431,0.08196391597404162,130,247941.0,61,69.0,0,0,0,0,0,0
1778075380.835667,11.743624925613403,-0.05708032503626635,1.4220301408648464,2.6767837930796823,-0.10832208570609941,1.3922033679814025,2.6733307736374754,0,587,5.124176066983306,2.982677288344382,0.3453019442206884,5.939088954084834,6,-5,2,0.04199178223553978,-0.015404021370675789,0.006078734927695615,130,247934.0,61,69.0,0,0,0,0,0,0
1778075380.907171,11.815129041671753,-0.05708032503626635,1.4220301408648464,2.6767837930796823,-0.1376592836545272,1.3697925259936619,2.678167563115206,0,590,8.057895861826085,5.22376148711845,-0.13837700355239235,9.603984485069104,19,-3,11,-0.41028684173212787,-0.31342030673384913,0.0676435112320504,130,247933.0,61,69.0,0,0,0,0,0,0
1778075380.978123,11.886080980300903,-0.05708032503626635,1.4220301408648464,2.6767837930796823,-0.1075987130900471,1.3867204593652476,2.665142545119269,0,594,5.0518388053780745,3.530968149959879,1.1641247960413104,6.272479408679879,-3,-10,-3,0.4236751122700094,0.23858309862488974,-0.1835752235610619,130,247933.0,61,69.0,0,0,0,0,0,0
1778075381.04882,11.956778049468994,-0.05708032503626635,1.4220301408648464,2.6767837930796823,-0.10105668943548943,1.427317945408177,2.6403067896984416,0,597,4.397636439922308,-0.5287804543330665,3.6477003381240714,5.737990308755121,4,-15,-14,0.09253599521930979,0.574245672708214,-0.35129823220503814,130,247937.0,61,69.0,0,0,0,0,0,0
1778075381.120302,12.028259992599487,-0.05708032503626635,1.4220301408648464,2.6767837930796823,-0.10377950067560297,1.428301683878236,2.6399256607549164,0,601,4.669917563933662,-0.6271543013389724,3.685813232476587,5.982196231846928,7,-7,0,-0.038090895698553465,0.013762055520276007,-0.005331821252108229,130,247934.0,60,69.0,0,0,0,0,0,0
1778075381.191116,12.099074125289917,-0.05708032503626635,1.4220301408648464,2.6767837930796823,-0.12834117415907098,1.4072141610671132,2.645525327081678,0,605,7.126084912280463,1.4815979797733192,3.1258465998004414,7.921308964822899,17,-4,8,-0.34684705651683345,-0.2977869248686404,0.07907554769103643,130,247940.0,60,69.0,0,0,0,0,0,0
1778075381.263229,12.171186923980713,-0.05708032503626635,1.4220301408648464,2.6767837930796823,-0.10331179369326488,1.4220991029932057,2.6326012060267234,0,608,4.6231468656998524,-0.006896212835938442,4.4182587052958855,6.394884243401496,-1,-12,-5,0.3470865216745599,0.2064119295926371,-0.179220905159572,130,247940.0,60,69.0,0,0,0,0,0,0
1778075381.3327842,12.240742206573486,-0.05708032503626635,1.4220301408648464,2.6767837930796823,-0.09883477010969528,1.422325997843969,2.6320751916938114,0,612,4.175444507342893,-0.02958569791227106,4.470860138587085,6.117499695645911,5,-7,0,0.0643664063559529,0.00326207934617607,-0.00756253606202221,130,247936.0,60,69.5,0,0,0,0,0,0
1778075381.403767,12.31172513961792,-0.05708032503626635,1.4220301408648464,2.6767837930796823,-0.10858560339591314,1.379500189509829,2.6570239277545236,0,615,5.150527835964678,4.252995135501747,1.975986532515872,6.965660585208886,10,2,18,-0.13736870072858318,-0.6033254262307288,0.3514751362147127,130,247942.99999999997,60,69.5,0,0,0,0,0,0
1778075381.473826,12.381783962249756,-0.05708032503626635,1.4220301408648464,2.6767837930796823,-0.09840929751796368,1.416190489569852,2.624818038330866,0,619,4.132897248169733,0.5839651294994308,5.196575474881637,6.665302063863389,3,-19,-12,0.14525373815410325,0.5237070604630809,-0.459697839812437,130,247942.99999999997,60,69.5,0,0,0,0,0,0
1778075381.544511,12.452469110488892,-0.05708032503626635,1.4220301408648464,2.6767837930796823,-0.1035643392398002,1.3736445861973796,2.6491310744926366,0,622,4.648401420353385,4.838555466746675,2.7652718587045655,7.257133264731391,8,1,18,-0.07292963020175665,-0.6019072525466722,0.3439624414384335,130,247934.0,60,69.5,0,0,0,0,0,0
