timestamp,phase,command,axis,repeat,t_send,t_since_cmd,marker_id,pos_x,pos_y,pos_z,marker_dist,tello_height_cm,tello_baro_cm,tello_battery,tello_temp_c,tello_pitch,tello_roll,tello_yaw,tello_vgx,tello_vgy,tello_vgz,tello_agx,tello_agy,tello_agz
1777581383.7317078,init_hover,none,-,0,,,2,0.7316064012559991,1.4937097326191267,3.136573975507325,3.3326164506138993,120,254415.0,65,81.0,0,-1,10,0,0,0,-3.0,26.0,-964.0
1777581383.9015858,init_hover,none,-,0,,,2,0.7102018489488237,1.4521050854754947,3.190265847585824,3.371750918663562,130,254417.0,65,81.0,0,-1,10,0,0,0,-8.0,20.0,-978.0
1777581383.9522638,init_hover,none,-,0,,,2,0.7523122907231402,1.4828074297719764,3.188100555437214,3.3760637261277053,130,254417.0,65,81.0,0,-1,10,0,0,0,-8.0,20.0,-978.0
1777581384.003669,init_hover,none,-,0,,,2,0.6797876552081753,1.5000838571698538,3.170058661954653,3.3707554581720265,130,254431.0,65,81.0,0,-1,10,0,0,0,10.0,34.0,-974.0
1777581384.054583,init_hover,none,-,0,,,2,0.6795309598582546,1.5016993281031645,3.1699855299461754,3.371238655939456,130,254431.0,65,81.0,0,-1,10,0,0,0,10.0,34.0,-974.0
1777581384.104102,init_hover,none,-,0,,,2,0.6580138512731999,1.4471189279173098,3.2112441614450074,3.3949229210010543,130,254426.00000000003,65,81.0,0,-1,10,0,0,0,19.0,14.0,-966.0
1777581384.153932,init_hover,none,-,0,,,2,0.6063008459993577,1.4287218175002407,3.2197275567995773,3.402927143163132,130,254426.00000000003,65,81.0,0,-1,10,0,0,0,19.0,14.0,-966.0
1777581384.2102551,init_hover,none,-,0,,,2,0.7252129612654123,1.5491754743291555,3.191698619794286,3.403388350901629,130,254423.0,65,81.0,0,-1,10,0,0,0,20.0,8.0,-990.0
1777581384.2616231,init_hover,none,-,0,,,2,0.6319593328342408,1.505232515805453,3.2025830901721877,3.4078631568973403,130,254423.0,65,81.0,0,-1,10,0,0,0,20.0,8.0,-990.0
1777581384.31115,init_hover,none,-,0,,,2,0.6970388287380387,1.597955211914853,3.183649532385528,3.415041215872068,130,254417.99999999997,65,81.0,0,-1,10,0,0,0,-13.0,24.0,-980.0
1777581384.361121,init_hover,none,-,0,,,2,0.6533551411922827,1.4685499563301483,3.2345400512927975,3.424063523173628,130,254417.99999999997,65,81.0,0,-1,10,0,0,0,-13.0,24.0,-980.0
1777581384.4107258,init_hover,none,-,0,,,2,0.6533551411922827,1.4685499563301483,3.2345400512927975,3.424063523173628,130,254425.0,65,81.0,0,0,10,0,0,0,12.0,-5.0,-986.0
1777581384.4605482,init_hover,none,-,0,,,2,0.6531748436840403,1.470353664353551,3.234483348965003,3.4245915363121084,130,254425.0,65,81.0,0,0,10,0,0,0,12.0,-5.0,-986.0
1777581384.5100958,init_hover,none,-,0,,,2,0.6485457624845823,1.476098952445116,3.246136095872975,3.4378639573797067,130,254423.99999999997,65,80.5,0,0,10,0,0,0,-19.0,46.0,-1000.0
1777581384.560272,init_hover,none,-,0,,,2,0.6731171962427076,1.5478790509165736,3.227411860362295,3.4410268815184475,130,254423.99999999997,65,80.5,0,0,10,0,0,0,-19.0,46.0,-1000.0
1777581384.610327,init_hover,none,-,0,,,2,0.6731171962427076,1.5478790509165736,3.227411860362295,3.4410268815184475,130,254426.00000000003,65,80.5,0,0,10,0,0,0,2.0,22.0,-983.0
1777581384.660467,init_hover,none,-,0,,,2,0.7189825302917996,1.5780860082663501,3.2255465757778374,3.4454329442997835,130,254426.00000000003,65,80.5,0,0,10,0,0,0,2.0,22.0,-983.0
1777581384.710496,init_hover,none,-,0,,,2,0.6910443544681057,1.5184222259336972,3.2710200074307934,3.4707194867031625,130,254425.0,65,80.5,0,-1,10,0,0,0,4.0,26.0,-990.0
1777581384.75894,init_hover,none,-,0,,,2,0.6458347910506829,1.4900137795166368,3.2708729540486385,3.4658581789065064,130,254425.0,65,80.5,0,-1,10,0,0,0,4.0,26.0,-990.0
1777581384.809189,init_hover,none,-,0,,,2,0.6709707261828308,1.5581351991521113,3.2383947095947834,3.454958421989364,130,254421.99999999997,65,80.5,0,-1,10,0,0,0,11.0,26.0,-997.0
1777581384.859286,init_hover,none,-,0,,,2,0.6907818815414354,1.5202422186077342,3.2709489979782624,3.4712628567294113,130,254421.99999999997,65,80.5,0,-1,10,0,0,0,11.0,26.0,-997.0
1777581384.9096792,init_hover,none,-,0,,,2,0.7164640392741638,1.5859464055230696,3.237904879057485,3.459897328479861,130,254423.99999999997,65,80.5,0,-1,10,0,0,0,-2.0,14.0,-1003.0
1777581384.9602041,init_hover,none,-,0,,,2,0.6652367366062021,1.5646914659075377,3.2498536939515428,3.4684465810166953,130,254423.99999999997,65,80.5,0,-1,10,0,0,0,-2.0,14.0,-1003.0
1777581385.010966,init_hover,none,-,0,,,2,0.6650084349336385,1.5664413535888193,3.249786548837588,3.468993714758424,130,254415.0,65,80.5,0,-1,10,0,0,0,16.0,26.0,-1001.0
1777581385.060568,init_hover,none,-,0,,,2,0.6650084349336385,1.5664413535888193,3.249786548837588,3.468993714758424,130,254415.0,65,80.5,0,-1,10,0,0,0,16.0,26.0,-1001.0
1777581385.110118,init_hover,none,-,0,,,2,0.6650084349336385,1.5664413535888193,3.249786548837588,3.468993714758424,130,254421.99999999997,65,80.5,0,-1,10,0,0,0,-8.0,20.0,-1004.0
1777581385.1602318,init_hover,none,-,0,,,2,0.7165348453372757,1.595327031614108,3.248759008308555,3.4732685327341657,130,254421.99999999997,65,80.5,0,-1,10,0,0,0,-8.0,20.0,-1004.0
1777581385.2098932,init_hover,none,-,0,,,2,0.6683110321397607,1.5734586376997188,3.2619372995430003,3.482421239876381,130,254423.0,65,80.5,0,-1,10,0,0,0,18.0,-12.0,-982.0
1777581385.259354,init_hover,none,-,0,,,2,0.6683110321397607,1.5734586376997188,3.2619372995430003,3.482421239876381,130,254423.0,65,80.5,0,-1,10,0,0,0,18.0,-12.0,-982.0
1777581385.309404,init_hover,none,-,0,,,2,0.7145350899920855,1.5998720980047625,3.2614499171297466,3.4868666203859604,130,254423.0,65,80.5,0,-1,10,0,0,0,-5.0,23.0,-999.0
1777581385.358967,init_hover,none,-,0,,,2,0.7145350899920855,1.5998720980047625,3.2614499171297466,3.4868666203859604,130,254423.0,65,80.5,0,-1,10,0,0,0,-5.0,23.0,-999.0
1777581385.4093142,init_hover,none,-,0,,,2,0.6880898066562586,1.6429289768090523,3.240559834600277,3.4847364967423156,130,254428.00000000003,65,80.5,0,-1,10,0,0,0,-9.0,24.0,-983.0
1777581385.4589398,init_hover,none,-,0,,,2,0.7286581841526607,1.6617271230450386,3.226295923454381,3.4748477808032394,130,254428.00000000003,65,80.5,0,-1,10,0,0,0,-9.0,24.0,-983.0
1777581385.508765,init_hover,none,-,0,,,2,0.6677780528035466,1.5784480497287783,3.27453779475502,3.4959560920279924,130,254423.99999999997,65,81.0,0,-1,10,0,0,0,0.0,10.0,-986.0
1777581385.5579772,init_hover,none,-,0,,,2,0.6679975987992919,1.5766923815793565,3.27460126453923,3.4954032667192863,130,254423.99999999997,65,81.0,0,-1,10,0,0,0,0.0,10.0,-986.0
1777581385.608151,init_hover,none,-,0,,,2,0.638424237411243,1.5087685640856603,3.306489856026035,3.5061346136164375,130,254428.00000000003,65,81.0,0,-1,10,0,0,0,3.0,27.0,-994.0
1777581385.658099,init_hover,none,-,0,,,2,0.7167658702848814,1.596595933350362,3.261310100505104,3.4854278032406176,130,254428.00000000003,65,81.0,0,-1,10,0,0,0,3.0,27.0,-994.0
1777581385.708483,init_hover,none,-,0,,,2,0.6904318306047639,1.6380805930316287,3.240513231671708,3.482757816872095,130,254423.99999999997,65,81.0,0,0,10,0,0,0,0.0,6.0,-985.0
1777581385.7595782,init_hover,none,-,0,,,2,0.7125501115631871,1.6020087860549963,3.272666207413135,3.4982562320761494,130,254423.99999999997,65,81.0,0,0,10,0,0,0,0.0,6.0,-985.0
1777581385.808971,init_hover,none,-,0,,,2,0.6701299709119888,1.5733308500960548,3.274513847707773,3.4939891898384032,130,254423.99999999997,65,81.0,0,0,10,0,0,0,0.0,6.0,-985.0
1777581385.858604,init_hover,none,-,0,,,2,0.7125501115631871,1.6020087860549963,3.272666207413135,3.4982562320761494,130,254421.99999999997,65,81.0,0,-1,10,0,0,0,7.0,-3.0,-1004.0
1777581385.908635,init_hover,none,-,0,,,2,0.736650286615408,1.6638877063016824,3.2375263174893023,3.485447153826337,130,254421.99999999997,65,81.0,0,-1,10,0,0,0,7.0,-3.0,-1004.0
1777581385.958614,init_hover,none,-,0,,,2,0.7144808553806561,1.6004800850485736,3.2724559338761066,3.497376367465094,130,254419.99999999997,65,81.0,0,-1,10,0,0,0,-13.0,36.0,-955.0
1777581386.008594,init_hover,none,-,0,,,2,0.7147611169363309,1.598791914892634,3.272525738627506,3.4968397140279195,130,254419.99999999997,65,81.0,0,-1,10,0,0,0,-13.0,36.0,-955.0
1777581386.058381,init_hover,none,-,0,,,2,0.7147611169363309,1.598791914892634,3.272525738627506,3.4968397140279195,130,254419.99999999997,65,81.0,0,-1,10,0,0,0,-25.0,33.0,-993.0
1777581386.1078851,init_hover,none,-,0,,,2,0.6466832803912165,1.5069569601556472,3.3193519455121603,3.516857084694729,130,254419.99999999997,65,81.0,0,-1,10,0,0,0,-25.0,33.0,-993.0
1777581386.1573792,init_hover,none,-,0,,,2,0.6723205635956012,1.5754422048426489,3.285723623126992,3.504998989663538,130,254428.00000000003,65,81.0,0,-1,10,0,0,0,-1.0,5.0,-1009.0
1777581386.2068942,init_hover,none,-,0,,,2,0.6430965844220566,1.5054788786020348,3.3180990864106197,3.5155718092972306,130,254428.00000000003,65,81.0,0,-1,10,0,0,0,-1.0,5.0,-1009.0
1777581386.2567732,init_hover,none,-,0,,,2,0.7172256984839488,1.5939553369892323,3.272454721936941,3.49491781869765,130,254425.0,65,81.0,0,-1,10,0,0,0,18.0,-5.0,-1007.0
1777581386.3070788,init_hover,none,-,0,,,2,0.7623560204658029,1.6208088766806772,3.2693748418789688,3.497950947498023,130,254425.0,65,81.0,0,-1,10,0,0,0,18.0,-5.0,-1007.0
1777581386.356949,init_hover,none,-,0,,,2,0.717794307925501,1.5906641945054263,3.2725948753377905,3.4938801488894367,130,254415.0,65,81.0,0,-1,10,0,0,0,12.0,18.0,-1006.0
1777581386.407834,init_hover,none,-,0,,,2,0.7180821477762156,1.589032015097784,3.272665847683009,3.493367509856459,130,254415.0,65,81.0,0,-1,10,0,0,0,12.0,18.0,-1006.0
1777581386.457839,init_hover,none,-,0,,,2,0.699393796458972,1.521759162221859,3.30642856561529,3.504451107827419,130,254426.00000000003,65,81.0,0,-1,10,0,0,0,16.0,13.0,-1011.0
1777581386.5084832,init_hover,none,-,0,,,2,0.6996442778941636,1.520036603514654,3.3064952205342664,3.5039415229752775,130,254426.00000000003,65,81.0,0,-1,10,0,0,0,16.0,13.0,-1011.0
1777581386.558469,init_hover,none,-,0,,,2,0.7023831664801905,1.518482866566226,3.3073455344166685,3.50401401059163,130,254419.0,65,80.5,0,-1,10,0,0,0,0.0,24.0,-1000.0
1777581386.6081269,init_hover,none,-,0,,,2,0.7031799101620163,1.515954719585685,3.3076251339825773,3.5034042200194735,130,254419.0,65,80.5,0,-1,10,0,0,0,0.0,24.0,-1000.0
1777581386.6578848,init_hover,none,-,0,,,2,0.7031799101620163,1.515954719585685,3.3076251339825773,3.5034042200194735,130,254421.99999999997,65,80.5,0,-1,10,0,0,0,-11.0,20.0,-1012.0
1777581386.707773,init_hover,none,-,0,,,2,0.7034323108721146,1.5142518285702042,3.3076944138416753,3.5029062030071723,130,254421.99999999997,65,80.5,0,-1,10,0,0,0,-11.0,20.0,-1012.0
1777581386.758325,init_hover,none,-,0,,,2,0.7004147414049148,1.5149244625291116,3.3067000994626277,3.502438212459924,130,254428.00000000003,65,80.5,0,-1,10,0,0,0,8.0,21.0,-972.0
1777581386.808214,init_hover,none,-,0,,,2,0.7494188646755082,1.5427118692858728,3.305157321606578,3.5060870271795728,130,254428.00000000003,65,80.5,0,-1,10,0,0,0,8.0,21.0,-972.0
1777581386.858351,init_hover,none,-,0,,,2,0.6503903579004899,1.4876767423914226,3.319791059343248,3.5108802707417315,130,254419.0,65,80.5,0,-1,10,0,0,0,12.0,11.0,-1006.0
1777581386.908618,init_hover,none,-,0,,,2,0.7036926049372288,1.5100302436164061,3.3076904823943605,3.5015398814570453,130,254419.0,65,80.5,0,-1,10,0,0,0,12.0,11.0,-1006.0
1777581386.95893,init_hover,none,-,0,,,2,0.6952415321101129,1.5089444448666116,3.307246054476494,3.501501388033631,130,254416.0,65,80.5,0,-1,10,0,0,0,-6.0,30.0,-1006.0
1777581387.008767,init_hover,none,-,0,,,2,0.7204868802451632,1.5763063401963833,3.2732560000752624,3.4894167180389903,130,254416.0,65,80.5,0,-1,10,0,0,0,-6.0,30.0,-1006.0
1777581387.058811,init_hover,none,-,0,,,2,0.7204868802451632,1.5763063401963833,3.2732560000752624,3.4894167180389903,130,254421.99999999997,65,80.5,0,-1,10,0,0,0,-16.0,27.0,-1025.0
1777581387.1095948,init_hover,none,-,0,,,2,0.7208002705141681,1.574757033641799,3.273332774234872,3.4889416773451525,130,254421.99999999997,65,80.5,0,-1,10,0,0,0,-16.0,27.0,-1025.0
1777581387.159979,init_hover,none,-,0,,,2,0.7008216369668577,1.4993412400371078,3.2954756352600443,3.486863707910894,130,254419.99999999997,65,80.5,0,-1,10,0,0,0,-9.0,21.0,-991.0
1777581387.2105799,init_hover,none,-,0,,,2,0.7545001306638,1.5293354107931627,3.2938487725402306,3.4907174609641833,130,254419.99999999997,65,80.5,0,-1,10,0,0,0,-9.0,21.0,-991.0
1777581387.26025,init_hover,none,-,0,,,2,0.7034059577846116,1.5040574944746576,3.308387568418789,3.5003341668834,130,254421.0,65,80.5,0,-1,10,0,0,0,-16.0,35.0,-1009.0
1777581387.310347,init_hover,none,-,0,,,2,0.745290670383546,1.5268553383256358,3.293488465030853,3.490235818021173,130,254421.0,65,80.5,0,-1,10,0,0,0,-16.0,35.0,-1009.0
1777581387.360362,init_hover,none,-,0,,,2,0.7509017415868726,1.518716241016763,3.2817646596553707,3.476140856125088,130,254414.0,65,80.5,0,-1,10,0,0,0,-9.0,17.0,-992.0
1777581387.410023,init_hover,none,-,0,,,2,0.7004162607108317,1.4926468989829207,3.296058707756446,3.4853451289191666,130,254414.0,65,80.5,0,-1,10,0,0,0,-9.0,17.0,-992.0
1777581387.459845,init_hover,none,-,0,,,2,0.7007254724971239,1.491045104591938,3.2961399074479694,3.4848935353231685,130,254421.99999999997,65,80.5,0,-1,10,0,0,0,-12.0,30.0,-981.0
1777581387.509738,init_hover,none,-,0,,,2,0.679294888968137,1.5311584336240247,3.2631125218742105,3.4684686102966227,130,254421.99999999997,65,80.5,0,-1,10,0,0,0,-12.0,30.0,-981.0
1777581387.559687,init_hover,none,-,0,,,2,0.7013537369731568,1.4878711964208509,3.2963046307402255,3.4840030925734675,130,254413.0,65,80.5,0,-1,10,0,0,0,-11.0,12.0,-995.0
1777581387.609961,init_hover,none,-,0,,,2,0.7016731284917896,1.486298671332205,3.2963883806747933,3.4835642784151086,130,254413.0,65,80.5,0,-1,10,0,0,0,-11.0,12.0,-995.0
1777581387.659807,init_hover,none,-,0,,,2,0.6770710170915253,1.4055183858784583,3.3168758810166743,3.480950439522525,130,254429.0,65,80.5,0,-1,10,0,0,0,5.0,14.0,-979.0
1777581387.710096,init_hover,none,-,0,,,2,0.6544729145917392,1.4533938797527028,3.296369059363995,3.4777976663663814,130,254429.0,65,80.5,0,-1,10,0,0,0,5.0,14.0,-979.0
1777581387.759383,init_hover,none,-,0,,,2,0.7034218637117797,1.4725760044066942,3.2854137793677736,3.4687636958739145,130,254409.0,65,80.5,0,-1,10,0,0,0,13.0,11.0,-1005.0
1777581387.808873,init_hover,none,-,0,,,2,0.6817553275873977,1.5137795253796007,3.252631911606203,3.4527378781298816,130,254409.0,65,80.5,0,-1,10,0,0,0,13.0,11.0,-1005.0
1777581387.859082,init_hover,none,-,0,,,2,0.7258862556699426,1.5415502257038312,3.251049884186733,3.456530140488533,130,254421.99999999997,65,80.5,0,-1,10,0,0,0,15.0,-6.0,-988.0
1777581387.908864,init_hover,none,-,0,,,2,0.6772004458848988,1.3954010226930962,3.317619933967995,3.4787389632418773,130,254413.0,65,80.5,0,-1,10,0,0,0,2.0,38.0,-1008.0
1777581387.95938,init_hover,none,-,0,,,2,0.6775122385613683,1.3937829853247017,3.317708361104518,3.4783317477695257,130,254413.0,65,80.5,0,-1,10,0,0,0,2.0,38.0,-1008.0
1777581388.0089128,init_hover,none,-,0,,,2,0.6778281922200373,1.392175107766621,3.3177979676109466,3.4779289055533096,130,254415.0,65,80.5,0,0,10,0,0,0,19.0,-3.0,-986.0
1777581388.059212,init_hover,none,-,0,,,2,0.7732863117342267,1.5592894210346926,3.2364931901807283,3.4453213534090334,130,254415.0,65,80.5,0,0,10,0,0,0,19.0,-3.0,-986.0
1777581388.10884,init_hover,none,-,0,,,2,0.7403888274578247,1.4108627488717276,3.293925367008782,3.4553126893798147,130,254409.0,65,80.5,0,-1,10,0,0,0,0.0,9.0,-1002.0
1777581388.158584,init_hover,none,-,0,,,2,0.6516991697387204,1.4340625234521407,3.2846488317416607,3.4611438454116237,130,254409.0,65,80.5,0,-1,10,0,0,0,0.0,9.0,-1002.0
1777581388.2082088,init_hover,none,-,0,,,2,0.7054593332911325,1.456012245162349,3.27344764938678,3.452155207917796,130,254409.0,65,80.5,0,-1,10,0,0,0,0.0,9.0,-1002.0
1777581388.258239,init_hover,none,-,0,,,2,0.6817556744056043,1.3823088194308326,3.3052399380057453,3.4627765038033935,130,254412.0,65,80.5,0,-1,10,0,0,0,1.0,9.0,-1024.0
1777581388.309431,init_hover,none,-,0,,,2,0.8078698954594568,1.5108143418941453,3.2555290328495707,3.445183850385193,130,254412.0,65,80.5,0,-1,10,0,0,0,1.0,9.0,-1024.0
1777581388.3598342,init_hover,none,-,0,,,2,0.6818040266901235,1.3766186405830316,3.3064536383145735,3.4623212313256766,130,254405.00000000003,65,80.5,0,-1,10,0,0,0,-11.0,30.0,-1020.0
1777581388.409843,init_hover,none,-,0,,,2,0.660612412543149,1.4228354868538515,3.273263948923197,3.4461040679305692,130,254405.00000000003,65,80.5,0,-1,10,0,0,0,-11.0,30.0,-1020.0
1777581388.459562,init_hover,none,-,0,,,2,0.7391314811895644,1.4011590828289484,3.29460045176856,3.453225163529139,120,254401.00000000003,65,80.5,0,-1,10,0,0,0,7.0,2.0,-1021.0
1777581388.50995,init_hover,none,-,0,,,2,0.6829920992243196,1.3727010149142957,3.3068127644622423,3.46145228665367,120,254401.00000000003,65,80.5,0,-1,10,0,0,0,7.0,2.0,-1021.0
1777581388.5604339,init_hover,none,-,0,,,2,0.6845591253111858,1.3681272536849733,3.293857919855538,3.4476475053211435,120,254404.0,65,80.5,0,-1,10,0,0,0,17.0,3.0,-1003.0
1777581388.610101,init_hover,none,-,0,,,2,0.6845591253111858,1.3681272536849733,3.293857919855538,3.4476475053211435,120,254404.0,65,80.5,0,-1,10,0,0,0,17.0,3.0,-1003.0
1777581388.660587,init_hover,none,-,0,,,2,0.661543778841275,1.4185461623902338,3.273545950594087,3.4450097226585386,120,254414.0,65,80.5,0,-1,10,0,0,0,24.0,-9.0,-996.0
1777581388.710081,init_hover,none,-,0,,,2,0.6849080776575727,1.3666282420328133,3.293955754358662,3.4472884401357304,120,254414.0,65,80.5,0,-1,10,0,0,0,24.0,-9.0,-996.0
1777581388.7787578,recenter,right,-,1,,,2,0.6849080776575727,1.3666282420328133,3.293955754358662,3.4472884401357304,120,254411.0,65,80.5,0,-1,10,0,0,0,14.0,-7.0,-1012.0
1777581388.82913,recenter,right,-,1,,,2,0.7157404074485605,1.4415229070463838,3.262222227621569,3.436228651333914,120,254409.0,65,80.5,0,-1,10,0,0,0,29.0,-2.0,-969.0
1777581388.878637,recenter,right,-,1,,,2,0.6852613394920155,1.3651400080500324,3.294054718408768,3.4469337312208723,120,254409.0,65,80.5,0,-1,10,0,0,0,29.0,-2.0,-969.0
1777581388.9285388,recenter,right,-,1,,,2,0.7424389088669823,1.391612120076842,3.282218119037783,3.4383990596335448,120,254400.0,65,80.5,0,-1,10,0,0,0,-11.0,21.0,-1021.0
1777581388.978454,recenter,right,-,1,,,2,0.6320721898111067,1.3356250448818203,3.2910623432978605,3.4411998555146006,120,254400.0,65,80.5,0,-1,10,0,0,0,-11.0,21.0,-1021.0
1777581389.0284312,recenter,right,-,1,,,2,0.6320721898111067,1.3356250448818203,3.2910623432978605,3.4411998555146006,120,254410.0,65,80.5,0,-1,10,0,0,0,13.0,10.0,-998.0
1777581389.078076,recenter,right,-,1,,,2,0.5888838499957105,1.2551971170354363,3.316555598838888,3.4496260142180115,120,254410.0,65,80.5,0,-1,10,0,0,0,13.0,10.0,-998.0
1777581389.127828,recenter,right,-,1,,,2,0.6538847477379366,1.278228570435644,3.3116163551654267,3.4435278528824202,120,254410.0,65,80.5,0,-1,10,0,0,0,13.0,10.0,-998.0
1777581389.177723,recenter,right,-,1,,,2,0.6911064670278613,1.359145845292883,3.2824125480939554,3.4335998752241443,130,254409.0,65,80.5,0,-1,10,0,0,0,30.0,0.0,-993.0
1777581389.227805,recenter,right,-,1,,,2,0.6911064670278613,1.359145845292883,3.2824125480939554,3.4335998752241443,130,254409.0,65,80.5,0,-1,10,0,0,0,30.0,0.0,-993.0
1777581389.277802,recenter,right,-,1,,,2,0.6324917730573261,1.3347280032362234,3.2911076510349946,3.440954563432305,130,254411.0,65,80.5,0,-1,10,0,0,0,7.0,9.0,-998.0
1777581389.3279948,recenter,right,-,1,,,2,0.6538847477379366,1.278228570435644,3.3116163551654267,3.4435278528824202,130,254411.0,65,80.5,0,-1,10,0,0,0,7.0,9.0,-998.0
1777581389.378216,recenter,right,-,1,,,2,0.6635887855116491,1.4116349652405136,3.2608426270989095,3.4306956214208246,130,254405.00000000003,65,80.5,0,-1,10,0,0,0,-19.0,28.0,-1001.0
1777581389.42749,recenter,right,-,1,,,2,0.6911064670278613,1.359145845292883,3.2824125480939554,3.4335998752241443,130,254405.00000000003,65,80.5,0,-1,10,0,0,0,-19.0,28.0,-1001.0
1777581389.477694,recenter,right,-,1,,,2,0.7428739580790696,1.3901791400950136,3.2823186304102854,3.438049464805833,130,254409.0,65,80.5,0,-1,10,0,0,0,10.0,10.0,-974.0
1777581389.5274692,recenter,right,-,1,,,2,0.6856185472570671,1.3636633421496849,3.294154518942882,3.446583341441734,130,254409.0,65,80.5,0,-1,10,0,0,0,10.0,10.0,-974.0
1777581389.577806,recenter,right,-,1,,,2,0.6588844693756182,1.4090614816749443,3.2613285117027795,3.43086410985318,130,254408.0,65,80.0,0,-1,10,0,0,0,10.0,-12.0,-989.0
1777581389.6275961,recenter,right,-,1,,,2,0.7134943388523376,1.431803879483954,3.2505031146583105,3.4223493740398827,130,254408.0,65,80.0,0,-1,10,0,0,0,10.0,-12.0,-989.0
1777581389.677174,recenter,right,-,1,,,2,0.6278185041583676,1.33129504949873,3.291492857902966,3.4408944721821952,130,254410.0,65,80.0,0,-1,10,0,0,0,-3.0,12.0,-1020.0
1777581389.7270741,recenter,right,-,1,,,2,0.7134943388523376,1.431803879483954,3.2505031146583105,3.4223493740398827,130,254410.0,65,80.0,0,-1,10,0,0,0,-3.0,12.0,-1020.0
1777581389.783267,recenter,right,-,1,,,2,0.7134943388523376,1.431803879483954,3.2505031146583105,3.4223493740398827,130,254415.0,65,80.0,0,-1,10,0,0,0,-17.0,27.0,-1007.0
1777581389.832533,recenter,right,-,1,,,2,0.7636895160729078,1.4616098769538066,3.2492043229767846,3.426395614652628,130,254415.0,65,80.0,0,-1,10,0,0,0,-17.0,27.0,-1007.0
1777581389.882251,recenter,right,-,1,,,2,0.717389928082143,1.4301576053128877,3.251503166010117,3.4224795080624237,120,254414.0,65,80.0,0,-1,10,0,0,0,1.0,10.0,-987.0
1777581389.932279,recenter,right,-,1,,,2,0.7409370145536232,1.3878660942544556,3.282673480282451,3.4378682680922554,120,254414.0,65,80.0,0,-1,10,0,0,0,1.0,10.0,-987.0
1777581389.981832,recenter,right,-,1,,,2,0.6903494171401239,1.3559421832193101,3.2829129842203804,3.433253064236065,120,254408.0,65,80.0,0,-1,10,0,0,0,23.0,20.0,-1009.0
1777581390.031927,recenter,right,-,1,,,2,0.6528935262118118,1.2747974133900843,3.312027576858377,3.4431497336726475,120,254408.0,65,80.0,0,-1,10,0,0,0,23.0,20.0,-1009.0
1777581390.081986,recenter,right,-,1,,,2,0.7413822381842907,1.3864492163996656,3.282779879424636,3.437529482057908,120,254415.0,65,80.0,0,-1,10,0,0,0,12.0,16.0,-993.0
1777581390.132354,recenter,right,-,1,,,2,0.7162858659737278,1.4349658994617438,3.2632259437675613,3.4351552632992624,120,254415.0,65,80.0,0,-1,10,0,0,0,12.0,16.0,-993.0
1777581390.182506,recenter,right,-,1,,,2,0.7413822381842907,1.3864492163996656,3.282779879424636,3.437529482057908,120,254413.0,65,80.0,0,-1,10,0,0,0,-6.0,23.0,-999.0
1777581390.2326741,recenter,right,-,1,,,2,0.631815328054332,1.3300445825821243,3.291601042242844,3.4402296870325784,120,254413.0,65,80.0,0,-1,10,0,0,0,-6.0,23.0,-999.0
1777581390.282975,recenter,right,-,1,,,2,0.7413822381842907,1.3864492163996656,3.282779879424636,3.437529482057908,120,254409.0,65,80.0,0,-1,10,0,0,0,10.0,27.0,-1006.0
1777581390.333571,recenter,right,-,1,,,2,0.6839699847160077,1.359942872971772,3.294356824645553,3.4458891708844077,120,254409.0,65,80.0,0,-1,10,0,0,0,10.0,27.0,-1006.0
1777581390.3837628,recenter,right,-,1,,,2,0.6849007243055278,1.3604633464973448,3.2946652631528184,3.446243837823129,120,254406.0,65,80.0,0,-1,10,0,0,0,9.0,4.0,-1008.0
1777581390.434175,recenter,right,-,1,,,2,0.6849007243055278,1.3604633464973448,3.2946652631528184,3.446243837823129,120,254406.0,65,80.0,0,-1,10,0,0,0,9.0,4.0,-1008.0
1777581390.4839911,recenter,right,-,1,,,2,0.7102340208389286,1.4426423073915786,3.274658836773237,3.4488342669805196,120,254410.0,65,80.0,0,-1,10,0,0,0,7.0,13.0,-1002.0
1777581390.533916,recenter,right,-,1,,,2,0.6614733777728683,1.4127357978895478,3.274232904265443,3.443956326909214,120,254410.0,65,80.0,0,-1,10,0,0,0,7.0,13.0,-1002.0
1777581390.583902,recenter,right,-,1,,,2,0.7403422820067131,1.3921229160772626,3.295586984071064,3.451466873765087,120,254410.0,65,80.5,0,-1,10,0,0,0,0.0,27.0,-994.0
1777581390.634225,recenter,right,-,1,,,2,0.6845235981540774,1.36192236093316,3.2945595894466475,3.446584233266284,120,254410.0,65,80.5,0,-1,10,0,0,0,0.0,27.0,-994.0
1777581390.684364,recenter,right,-,1,,,2,0.6611325456941402,1.4141167748703687,3.274129638135403,3.444298023106868,120,254413.0,65,80.5,0,-1,10,0,0,0,6.0,8.0,-998.0
1777581390.73448,recenter,right,-,1,,,2,0.7398846595585431,1.393547713966556,3.295481998031755,3.45181092321299,120,254413.0,65,80.5,0,-1,10,0,0,0,6.0,8.0,-998.0
1777581390.784801,recenter,right,-,1,,,2,0.6860547704589238,1.3688263206436555,3.3073434075500243,3.4605933685118404,120,254402.0,65,80.5,0,-1,10,0,0,0,-8.0,40.0,-997.0
1777581390.8347788,recenter,right,-,1,,,2,0.7430674021088726,1.3956075644109465,3.295297073137544,3.451989510760461,120,254402.0,65,80.5,0,-1,10,0,0,0,-8.0,40.0,-997.0
1777581390.8848052,recenter,right,-,1,,,2,0.7336328187833072,1.396343188674952,3.294643519626492,3.4522930272885493,120,254407.00000000003,65,80.5,0,-1,10,0,0,0,-22.0,34.0,-976.0
1777581390.934921,recenter,right,-,1,,,2,0.7592080935673373,1.4714539291250062,3.2608766904975726,3.4408299950842225,120,254407.00000000003,65,80.5,0,-1,10,0,0,0,-22.0,34.0,-976.0
1777581390.9846468,recenter,right,-,1,,,2,0.7315720230699101,1.4014947528002653,3.3073708341155603,3.466085277808886,120,254401.00000000003,65,80.5,0,-1,10,0,0,0,0.0,28.0,-1001.0
1777581391.034373,recenter,right,-,1,,,2,0.707240207977707,1.447819512164899,3.274601157465356,3.4506009282981234,120,254401.00000000003,65,80.5,0,-1,10,0,0,0,0.0,28.0,-1001.0
1777581391.08546,recenter,right,-,1,,,2,0.707240207977707,1.447819512164899,3.274601157465356,3.4506009282981234,120,254404.0,65,80.5,0,-1,10,0,0,0,7.0,16.0,-1004.0
1777581391.1363032,recenter,right,-,1,,,2,0.6221514536487314,1.3435440564586956,3.3027913332144405,3.4556440067250445,120,254405.00000000003,65,80.5,0,-1,10,0,0,0,-3.0,20.0,-1026.0
1777581391.1865768,recenter,right,-,1,,,2,0.6253957708146105,1.3497056270475467,3.3157519713567334,3.469363088828469,120,254405.00000000003,65,80.5,0,-1,10,0,0,0,-3.0,20.0,-1026.0
1777581391.237138,recenter,right,-,1,,,2,0.6789958850744555,1.3794308221547718,3.3188504415764295,3.475211738979075,120,254404.0,65,80.5,0,-1,10,0,0,0,-10.0,33.0,-1002.0
1777581391.287934,recenter,right,-,1,,,2,0.6789958850744555,1.3794308221547718,3.3188504415764295,3.475211738979075,120,254404.0,65,80.5,0,-1,10,0,0,0,-10.0,33.0,-1002.0
1777581391.338929,recenter,right,-,1,,,2,0.6789958850744555,1.3794308221547718,3.3188504415764295,3.475211738979075,120,254404.0,65,80.5,0,-1,10,0,0,0,18.0,15.0,-968.0
1777581391.389555,recenter,right,-,1,,,2,0.65553962307023,1.4318769139368448,3.298117487860977,3.4728953166666034,120,254404.0,65,80.5,0,-1,10,0,0,0,18.0,15.0,-968.0
1777581391.440515,recenter,right,-,1,,,2,0.65553962307023,1.4318769139368448,3.298117487860977,3.4728953166666034,120,254410.0,65,80.5,0,-1,10,0,0,0,10.0,13.0,-1019.0
1777581391.4909592,recenter,right,-,1,,,2,0.6552145858670926,1.433323065930609,3.29801821175865,3.4732632588784225,120,254410.0,65,80.5,0,-1,10,0,0,0,10.0,13.0,-1019.0
1777581391.541704,recenter,right,-,1,,,2,0.7040744236938912,1.4633843354441494,3.298435558822304,3.4782230128736,130,254412.0,65,79.5,0,-1,10,0,0,0,1.0,17.0,-979.0
1777581391.592737,recenter,right,-,1,,,2,0.6496796250592418,1.4395125014253285,3.3098244851784404,3.4868680400045116,130,254412.0,65,79.5,0,-1,10,0,0,0,1.0,17.0,-979.0
1777581391.6422741,recenter,right,-,1,,,2,0.6801260009514978,1.3924110737984488,3.344689667083906,3.5034480278381355,130,254410.0,65,79.5,0,-1,10,0,0,0,-12.0,44.0,-1007.0
1777581391.692349,recenter,right,-,1,,,2,0.675676394814505,1.394564221349218,3.3434229978305385,3.5032586449890672,130,254410.0,65,79.5,0,-1,10,0,0,0,-12.0,44.0,-1007.0
1777581391.743189,recenter,right,-,1,,,2,0.6801260009514978,1.3924110737984488,3.344689667083906,3.5034480278381355,130,254417.99999999997,65,79.5,0,-1,10,0,0,0,16.0,11.0,-991.0
1777581391.793012,recenter,right,-,1,,,2,0.6526316184328524,1.4444643600693974,3.3225822630440103,3.5001604944148506,130,254417.99999999997,65,79.5,0,-1,10,0,0,0,16.0,11.0,-991.0
1777581391.8434958,recenter,right,-,1,,,2,0.6763816387467634,1.3914792283754767,3.3436229372975736,3.5025097074615954,130,254419.99999999997,65,79.5,0,-1,10,0,0,0,3.0,18.0,-994.0
1777581391.8937569,recenter,right,-,1,,,2,0.7024526499127204,1.4735453468425832,3.323045948905638,3.5048064733747424,130,254419.99999999997,65,79.5,0,-1,10,0,0,0,3.0,18.0,-994.0
1777581391.944252,recenter,right,-,1,,,2,0.7024526499127204,1.4735453468425832,3.323045948905638,3.5048064733747424,130,254419.99999999997,65,79.5,0,-1,10,0,0,0,3.0,18.0,-994.0
1777581391.994548,recenter,right,-,1,,,2,0.6192683249853281,1.3716160101922288,3.3658228980982807,3.5238839454477007,130,254408.0,65,79.5,0,-1,10,0,0,0,13.0,27.0,-959.0
1777581392.044768,recenter,right,-,1,,,2,0.6740697857103751,1.4022160787826792,3.368873707962472,3.5298693507491494,130,254408.0,65,79.5,0,-1,10,0,0,0,13.0,27.0,-959.0
1777581392.095024,recenter,right,-,1,,,2,0.6802883262195294,1.3958839372475955,3.356705319734799,3.515888362043821,130,254411.0,65,79.5,0,-1,10,0,0,0,-4.0,28.0,-1003.0
1777581392.145219,recenter,right,-,1,,,2,0.7555324491761264,1.504595955908128,3.321257121063955,3.5086529428589035,130,254411.0,65,79.5,0,-1,10,0,0,0,-4.0,28.0,-1003.0
1777581392.1953301,recenter,right,-,1,,,2,0.702376933193818,1.4777971667490473,3.335927355556665,3.5183287998847796,130,254406.0,65,79.5,0,-1,10,0,0,0,-9.0,28.0,-1015.0
1777581392.245246,recenter,right,-,1,,,2,0.6755879182742319,1.4024721212392328,3.3685804034133455,3.529522274599205,130,254406.0,65,79.5,0,-1,10,0,0,0,-9.0,28.0,-1015.0
1777581392.2951958,recenter,right,-,1,,,2,0.6755879182742319,1.4024721212392328,3.3685804034133455,3.529522274599205,130,254417.99999999997,65,79.5,0,-1,10,0,0,0,15.0,12.0,-993.0
1777581392.345514,recenter,right,-,1,,,2,0.6140643867876306,1.3773757389361339,3.377585086811911,3.537271639450494,130,254417.99999999997,65,79.5,0,-1,10,0,0,0,15.0,12.0,-993.0
1777581392.3952599,recenter,right,-,1,,,2,0.681653366863828,1.400556013448555,3.3695772881393906,3.52937785106979,130,254421.0,65,79.5,0,-1,10,0,0,0,18.0,11.0,-971.0
1777581392.4454222,recenter,right,-,1,,,2,0.7344536672037807,1.4340817521614166,3.3690865707203748,3.534202066382612,130,254421.0,65,79.5,0,-1,10,0,0,0,18.0,11.0,-971.0
1777581392.494427,recenter,right,-,1,,,2,0.7031657221868791,1.48589866558744,3.3472223536097783,3.5314563546665,130,254417.99999999997,65,79.5,0,-1,10,0,0,0,-5.0,4.0,-1000.0
1777581392.5452218,recenter,right,-,1,,,2,0.7031657221868791,1.48589866558744,3.3472223536097783,3.5314563546665,130,254417.99999999997,65,79.5,0,-1,10,0,0,0,-5.0,4.0,-1000.0
1777581392.5953898,recenter,right,-,1,,,2,0.7398141715339202,1.435038750492053,3.3686242777519984,3.533642795333861,130,254409.0,65,80.0,0,-1,10,0,0,0,13.0,5.0,-1006.0
1777581392.644475,recenter,right,-,1,,,2,0.6545735368303838,1.4550231184490001,3.346790652787152,3.5261027913977743,130,254409.0,65,80.0,0,-1,10,0,0,0,13.0,5.0,-1006.0
1777581392.694263,recenter,right,-,1,,,2,0.6545735368303838,1.4550231184490001,3.346790652787152,3.5261027913977743,130,254417.0,65,80.0,0,-1,10,0,0,0,22.0,0.0,-977.0
1777581392.7443058,recenter,right,-,1,,,2,0.6789381693482377,1.401444628390197,3.368112038217136,3.5284771141125786,130,254417.0,65,80.0,0,-1,10,0,0,0,22.0,0.0,-977.0
1777581392.794822,recenter,right,-,1,,,2,0.6789381693482377,1.401444628390197,3.368112038217136,3.5284771141125786,130,254416.0,65,80.0,0,-1,10,0,0,0,14.0,14.0,-996.0
1777581392.844084,recenter,right,-,1,,,2,0.6716631322495397,1.4073018439403593,3.379960036565176,3.54211687445622,130,254416.0,65,80.0,0,-1,10,0,0,0,14.0,14.0,-996.0
1777581392.89387,recenter,right,-,1,,,2,0.6439577602420081,1.3228106728248568,3.4126967968752573,3.5531457951755923,130,254417.99999999997,65,80.0,0,-1,10,0,0,0,8.0,3.0,-1008.0
1777581392.944074,recenter,right,-,1,,,2,0.7377779845185424,1.433222891237432,3.368466505254983,3.533111451030793,130,254417.99999999997,65,80.0,0,-1,10,0,0,0,8.0,3.0,-1008.0
1777581392.994825,recenter,right,-,1,,,2,0.7377779845185424,1.433222891237432,3.368466505254983,3.533111451030793,130,254403.00000000003,65,80.0,0,-1,10,0,0,0,11.0,-3.0,-996.0
1777581393.044281,recenter,right,-,1,,,2,0.7377779845185424,1.433222891237432,3.368466505254983,3.533111451030793,130,254403.00000000003,65,80.0,0,-1,10,0,0,0,11.0,-3.0,-996.0
1777581393.0947788,recenter,right,-,1,,,2,0.7062894886206765,1.4850201194038628,3.346651723235828,3.530384154825536,130,254415.0,65,80.0,0,-1,10,0,0,0,-8.0,22.0,-1007.0
1777581393.144008,recenter,right,-,1,,,2,0.7594320872856042,1.5110703901029217,3.3317727279314666,3.520377798330615,130,254415.0,65,80.0,0,-1,10,0,0,0,-8.0,22.0,-1007.0
1777581393.193801,recenter,right,-,1,,,2,0.7335570481059559,1.4335206780152485,3.367388001449696,3.5324862053243025,130,254406.0,65,80.0,0,-1,10,0,0,0,6.0,0.0,-1000.0
1777581393.244305,recenter,right,-,1,,,2,0.6831680325303005,1.4009303481618165,3.367736448382273,3.5275902317650925,130,254406.0,65,80.0,0,-1,10,0,0,0,6.0,0.0,-1000.0
1777581393.294189,recenter,right,-,1,,,2,0.6831680325303005,1.4009303481618165,3.367736448382273,3.5275902317650925,130,254396.99999999997,65,80.0,0,-1,10,0,0,0,28.0,5.0,-991.0
1777581393.344146,recenter,right,-,1,,,2,0.6273713855193567,1.3693838515092729,3.364991009414394,3.5216078187862454,130,254396.99999999997,65,80.0,0,-1,10,0,0,0,28.0,5.0,-991.0
1777581393.394403,recenter,right,-,1,,,2,0.6822300777242348,1.400410852236964,3.367666252777787,3.5274602176176293,130,254405.00000000003,65,80.0,0,-1,10,0,0,0,17.0,2.0,-969.0
1777581393.44494,recenter,right,-,1,,,2,0.6275805819127745,1.3699524383337196,3.364976649905501,3.52172852588146,130,254405.00000000003,65,80.0,0,-1,10,0,0,0,17.0,2.0,-969.0
1777581393.494787,recenter,right,-,1,,,2,0.7634264770934482,1.5021100743230762,3.3195210947789344,3.505685945196342,130,254407.00000000003,65,80.0,0,-1,10,0,0,0,6.0,21.0,-1023.0
1777581393.54532,recenter,right,-,1,,,2,0.6840076656270153,1.3991524032120441,3.3674938441814306,3.526779192241374,130,254407.00000000003,65,80.0,0,-1,10,0,0,0,6.0,21.0,-1023.0
1777581393.5949671,recenter,right,-,1,,,2,0.6290841150051215,1.3680260410231626,3.364883715583996,3.5209509268438928,130,254412.0,65,80.0,0,-1,10,0,0,0,14.0,-3.0,-1004.0
1777581393.6445172,recenter,right,-,1,,,2,0.7434795144289513,1.4254931940862763,3.3546915133853314,3.5172992765209004,130,254412.0,65,80.0,0,-1,10,0,0,0,14.0,-3.0,-1004.0
1777581393.695016,recenter,right,-,1,,,2,0.6522474856335729,1.3087299038477007,3.3863720032234736,3.5233843380492837,130,254412.0,65,80.0,0,-1,10,0,0,0,-17.0,19.0,-1012.0
1777581393.745656,recenter,right,-,1,,,2,0.7651213647987595,1.5010898711904659,3.319226409482426,3.5049723016192056,130,254412.0,65,80.0,0,-1,10,0,0,0,-17.0,19.0,-1012.0
1777581393.7955189,recenter,right,-,1,,,2,0.7138085458387524,1.4685179382505433,3.3211827749725,3.5005558355170048,130,254415.0,65,80.0,0,-1,10,0,0,0,10.0,19.0,-975.0
1777581393.845702,recenter,right,-,1,,,2,0.6871796916995698,1.3889671094110412,3.3555956863112693,3.5122549592495145,130,254415.0,65,80.0,0,-1,10,0,0,0,10.0,19.0,-975.0
1777581393.895396,recenter,right,-,1,,,2,0.7138085458387524,1.4685179382505433,3.3211827749725,3.5005558355170048,130,254408.0,65,80.0,0,-1,10,0,0,0,14.0,12.0,-1007.0
1777581393.945826,recenter,right,-,1,,,2,0.7138085458387524,1.4685179382505433,3.3211827749725,3.5005558355170048,130,254408.0,65,80.0,0,-1,10,0,0,0,14.0,12.0,-1007.0
1777581393.995824,recenter,right,-,1,,,2,0.7663862359179471,1.4945053891124624,3.3063982107031684,3.4906713631199833,130,254405.00000000003,65,80.0,0,-1,10,0,0,0,-7.0,33.0,-1008.0
1777581394.0461252,recenter,right,-,1,,,2,0.7667813558898451,1.4932163975351087,3.30648282133874,3.490321142188554,130,254405.00000000003,65,80.0,0,-1,10,0,0,0,-7.0,33.0,-1008.0
1777581394.095755,recenter,right,-,1,,,2,0.6890168174601787,1.3828394517638611,3.342327295376426,3.4976900487585203,130,254400.0,65,80.0,0,-1,10,0,0,0,16.0,0.0,-1014.0
1777581394.145591,recenter,right,-,1,,,2,0.7200004132621203,1.3322579984620146,3.376449973631611,3.513960610010689,130,254414.0,65,80.0,0,-1,10,0,0,0,-5.0,23.0,-1018.0
1777581394.1953301,recenter,right,-,1,,,2,0.6545511983538441,1.3041642000724825,3.386410376638697,3.522019735074992,130,254414.0,65,80.0,0,-1,10,0,0,0,-5.0,23.0,-1018.0
1777581394.2457159,recenter,right,-,1,,,2,0.7200004132621203,1.3322579984620146,3.376449973631611,3.513960610010689,130,254410.0,65,80.0,0,-1,10,0,0,0,-2.0,20.0,-1002.0
1777581394.2957199,recenter,right,-,1,,,2,0.7189429628114585,1.331750423936634,3.3762180314276455,3.5136875368189,130,254410.0,65,80.0,0,-1,10,0,0,0,-2.0,20.0,-1002.0
1777581394.345458,recenter,right,-,1,,,2,0.7507685502668662,1.416645567784057,3.3422606953935836,3.502340800379633,130,254403.00000000003,65,80.0,0,-1,10,0,0,0,17.0,10.0,-996.0
1777581394.3955042,recenter,right,-,1,,,2,0.7507685502668662,1.416645567784057,3.3422606953935836,3.502340800379633,130,254403.00000000003,65,80.0,0,-1,10,0,0,0,17.0,10.0,-996.0
1777581394.445927,recenter,right,-,1,,,2,0.6543066928730814,1.3057319825593479,3.386337109771681,3.522376088358546,130,254409.0,65,80.0,0,-1,10,0,0,0,17.0,9.0,-975.0
1777581394.495883,recenter,right,-,1,,,2,0.6276224478603587,1.3589190367345463,3.351479756735777,3.5057962462412333,130,254409.0,65,80.0,0,-1,10,0,0,0,17.0,9.0,-975.0
1777581394.546409,recenter,right,-,1,,,2,0.7410976202543571,1.4174762626448465,3.3415599145760178,3.5026148874783485,130,254409.0,65,80.0,0,-1,10,0,0,0,17.0,9.0,-975.0
1777581394.596033,recenter,right,-,1,,,2,0.7663862359179471,1.4945053891124624,3.3063982107031684,3.4906713631199833,130,254409.0,65,80.0,0,-1,10,0,0,0,17.0,9.0,-975.0
1777581394.645674,recenter,right,-,1,,,2,0.6883950690462627,1.3857175527399535,3.342157839304438,3.4983933097349755,130,254411.0,65,79.5,0,-1,10,0,0,0,-5.0,29.0,-985.0
1777581394.696098,recenter,right,-,1,,,2,0.6883950690462627,1.3857175527399535,3.342157839304438,3.4983933097349755,130,254407.00000000003,65,79.5,0,-1,10,0,0,0,1.0,12.0,-1029.0
1777581394.746881,recenter,right,-,1,,,2,0.7448447874465146,1.4185874537271626,3.342511866064307,3.503571057958479,130,254407.00000000003,65,79.5,0,-1,10,0,0,0,1.0,12.0,-1029.0
1777581394.778337,pre_hover,right,x,1,,,2,0.7448447874465146,1.4185874537271626,3.342511866064307,3.503571057958479,130,254406.0,65,79.5,0,-1,10,0,0,0,20.0,3.0,-994.0
1777581394.8283079,pre_hover,right,x,1,,,2,0.7444600072511276,1.4200115533253181,3.342426493786064,3.503931951846986,130,254406.0,65,79.5,0,-1,10,0,0,0,20.0,3.0,-994.0
1777581394.878149,pre_hover,right,x,1,,,2,0.7437631425975186,1.4223097745980082,3.341214026877735,3.5034962217383163,130,254405.00000000003,65,79.5,0,-1,10,0,0,0,10.0,17.0,-1012.0
1777581394.928187,pre_hover,right,x,1,,,2,0.7430658949508859,1.4202315982718265,3.3427648408982664,3.5044206982032406,130,254405.00000000003,65,79.5,0,-1,10,0,0,0,10.0,17.0,-1012.0
1777581394.978702,pre_hover,right,x,1,,,2,0.6860245227531341,1.3899020150658696,3.342159809314375,3.4997883922803337,130,254408.0,65,79.5,0,-1,10,0,0,0,-8.0,46.0,-994.0
1777581395.028717,pre_hover,right,x,1,,,2,0.7110981334701882,1.4737028516581554,3.321146063786194,3.502329693096553,130,254408.0,65,79.5,0,-1,10,0,0,0,-8.0,46.0,-994.0
1777581395.078847,pre_hover,right,x,1,,,2,0.6857220910309452,1.3913947687551573,3.342076748793825,3.5001587373159744,130,254414.0,65,79.5,0,-1,10,0,0,0,-14.0,43.0,-987.0
1777581395.128673,pre_hover,right,x,1,,,2,0.6830049148760957,1.3921255712686484,3.3419473372136643,3.5004872572068244,130,254414.0,65,79.5,0,-1,10,0,0,0,-14.0,43.0,-987.0
1777581395.177981,pre_hover,right,x,1,,,2,0.6839291885339662,1.3926825418871256,3.342244426601245,3.5008452113704434,130,254423.99999999997,65,79.5,0,-1,10,0,0,0,10.0,23.0,-1011.0
1777581395.226558,pre_hover,right,x,1,,,2,0.7149640517989526,1.4696131006688637,3.3094226796759942,3.4896412637466283,130,254423.99999999997,65,79.5,0,-1,10,0,0,0,10.0,23.0,-1011.0
1777581395.275687,pre_hover,right,x,1,,,2,0.7042417708155289,1.470592341193147,3.3083089551554474,3.4897777914809254,130,254410.0,65,79.5,0,-1,10,0,0,0,-3.0,3.0,-995.0
1777581395.323174,pre_hover,right,x,1,,,2,0.6808972268493143,1.3949669743989928,3.342022883806563,3.5015571987137215,130,254410.0,65,79.5,0,-1,10,0,0,0,-3.0,3.0,-995.0
1777581395.3700259,pre_hover,right,x,1,,,2,0.6818042851402601,1.3955131226791386,3.342329069965153,3.5019221153982842,130,254421.0,65,79.5,0,-1,10,0,0,0,15.0,22.0,-998.0
1777581395.417263,pre_hover,right,x,1,,,2,0.704618427677421,1.4720832928786822,3.308915087866218,3.490778125124262,130,254421.0,65,79.5,0,-1,10,0,0,0,15.0,22.0,-998.0
1777581395.465023,pre_hover,right,x,1,,,2,0.6799633960031761,1.396834574426841,3.3425016198189565,3.5026303937416676,130,254421.0,65,79.5,0,-1,10,0,0,0,15.0,22.0,-998.0
1777581395.512518,pre_hover,right,x,1,,,2,0.6796514270209372,1.3983926039983208,3.3424143569230287,3.5030193738107487,130,254416.0,65,79.5,0,0,10,0,0,0,13.0,12.0,-992.0
1777581395.561024,pre_hover,right,x,1,,,2,0.6530912900149546,1.4445544202880374,3.3087343538207494,3.4869990843360394,130,254416.0,65,79.5,0,0,10,0,0,0,13.0,12.0,-992.0
1777581395.6096792,pre_hover,right,x,1,,,2,0.6839426955002058,1.393494689369558,3.3306051742952456,3.489964862942814,130,254419.99999999997,65,80.5,0,0,10,0,0,0,-6.0,27.0,-1015.0
1777581395.6614,pre_hover,right,x,1,,,2,0.5944764233421671,1.423185291798044,3.317468920501094,3.4952764627519675,130,254419.99999999997,65,80.5,0,0,10,0,0,0,-6.0,27.0,-1015.0
1777581395.7103958,pre_hover,right,x,1,,,2,0.6813550476727659,1.5171286478467971,3.277019576314547,3.476833088463179,130,254414.0,65,80.5,0,0,10,0,0,0,-7.0,9.0,-1031.0
1777581395.7604868,pre_hover,right,x,1,,,2,0.6510317896453006,1.4473275647752613,3.308816747832513,3.488114406167488,130,254414.0,65,80.5,0,0,10,0,0,0,-7.0,9.0,-1031.0
1777581395.810928,pre_hover,right,x,1,,,2,0.6758967605502024,1.4010955345781735,3.3427642048178305,3.504469675740624,130,254417.99999999997,65,80.5,0,-1,10,0,0,0,-2.0,19.0,-996.0
1777581395.861658,pre_hover,right,x,1,,,2,0.7017403156623219,1.4762361225771001,3.310535442497815,3.4938357069094144,130,254417.99999999997,65,80.5,0,-1,10,0,0,0,-2.0,19.0,-996.0
1777581395.911658,pre_hover,right,x,1,,,2,0.7032440973520111,1.4723511005127823,3.2975023791907003,3.480161330929319,130,254421.0,65,80.5,0,-1,10,0,0,0,-13.0,26.0,-1012.0
1777581395.961996,pre_hover,right,x,1,,,2,0.7032440973520111,1.4723511005127823,3.2975023791907003,3.480161330929319,130,254421.0,65,80.5,0,-1,10,0,0,0,-13.0,26.0,-1012.0
1777581396.011963,pre_hover,right,x,1,,,2,0.7214171360606604,1.5422383609139638,3.263375155459648,3.4687078704461904,130,254419.99999999997,65,80.5,0,-1,10,0,0,0,-7.0,39.0,-1016.0
1777581396.061959,pre_hover,right,x,1,,,2,0.7014110054633479,1.473583742622003,3.2977376638740368,3.4809210188991746,130,254419.99999999997,65,80.5,0,-1,10,0,0,0,-7.0,39.0,-1016.0
1777581396.111697,pre_hover,right,x,1,,,2,0.653057743414592,1.4437350026216844,3.2973571944676605,3.475962622498968,130,254416.0,65,80.5,0,-1,10,0,0,0,-8.0,33.0,-1016.0
1777581396.161197,pre_hover,right,x,1,,,2,0.7242712437508358,1.5368463431185444,3.2520645183380656,3.4560627289327535,130,254416.0,65,80.5,0,-1,10,0,0,0,-8.0,33.0,-1016.0
1777581396.210324,pre_hover,right,x,1,,,2,0.6999324236479327,1.4733243670085185,3.298075784108723,3.481288500672762,130,254414.0,65,80.5,0,-1,10,0,0,0,10.0,8.0,-992.0
1777581396.2597902,pre_hover,right,x,1,,,2,0.7004000445956645,1.465762852165816,3.2867739920423213,3.468211911792691,130,254414.0,65,80.5,0,-1,10,0,0,0,10.0,8.0,-992.0
1777581396.309501,pre_hover,right,x,1,,,2,0.6999478022935807,1.4666110363774876,3.2865572798052645,3.468306384636699,130,254419.0,65,80.5,0,-1,10,0,0,0,-9.0,25.0,-1008.0
1777581396.3594172,pre_hover,right,x,1,,,2,0.6462721471194315,1.4379700727540725,3.2851662939970114,3.4633542765721574,130,254419.0,65,80.5,0,-1,10,0,0,0,-9.0,25.0,-1008.0
1777581396.4092932,pre_hover,right,x,1,,,2,0.7265772448446974,1.42332247144545,3.320034875788738,3.484907525323374,130,254419.0,65,80.5,0,-1,10,0,0,0,0.0,15.0,-979.0
1777581396.459271,pre_hover,right,x,1,,,2,0.6694368384770354,1.514233992549674,3.2659486984670636,3.466584817212461,130,254419.0,65,80.5,0,-1,10,0,0,0,0.0,15.0,-979.0
1777581396.5098822,pre_hover,right,x,1,,,2,0.7485623265745194,1.492263737327196,3.273568415100425,3.460131665679892,130,254417.0,65,80.5,0,-1,10,0,0,0,6.0,12.0,-988.0
1777581396.55937,pre_hover,right,x,1,,,2,0.6970253099786595,1.4626673412884252,3.2748826936394044,3.45628589646942,130,254417.0,65,80.5,0,-1,10,0,0,0,6.0,12.0,-988.0
1777581396.609196,pre_hover,right,x,1,,,2,0.6902791957236372,1.4684750826246655,3.2862172525113498,3.4694077029796633,130,254417.99999999997,65,80.0,0,0,10,0,0,0,11.0,18.0,-970.0
1777581396.659554,pre_hover,right,x,1,,,2,0.6410063485643607,1.4403955958243695,3.2858143813211056,3.4652381716237683,130,254417.99999999997,65,80.0,0,0,10,0,0,0,11.0,18.0,-970.0
1777581396.709391,pre_hover,right,x,1,,,2,0.6951098047089412,1.463905456461129,3.2751412198183867,3.457080106278397,130,254416.0,65,80.0,0,0,10,0,0,0,-1.0,17.0,-1001.0
1777581396.759379,pre_hover,right,x,1,,,2,0.6896111664469058,1.4627027006848201,3.275475395979372,3.4575160632603694,130,254416.0,65,80.0,0,0,10,0,0,0,-1.0,17.0,-1001.0
1777581396.80975,pre_hover,right,x,1,,,2,0.692371106086592,1.4646091594195423,3.275147341125777,3.457545126932347,130,254414.0,65,80.0,0,0,10,0,0,0,3.0,26.0,-986.0
1777581396.859596,pre_hover,right,x,1,,,2,0.7098887688830754,1.5333270418671545,3.2418971034031703,3.4465187565573174,130,254414.0,65,80.0,0,0,10,0,0,0,3.0,26.0,-986.0
1777581396.909139,pre_hover,right,x,1,,,2,0.6159400234954826,1.483607750323713,3.2532431355660956,3.450405587930524,130,254417.0,65,80.0,0,0,10,0,0,0,-21.0,27.0,-1018.0
1777581396.959142,pre_hover,right,x,1,,,2,0.6674391012556312,1.5051805271605252,3.243197566239762,3.442433906795016,130,254417.0,65,80.0,0,0,10,0,0,0,-21.0,27.0,-1018.0
1777581397.008963,pre_hover,right,x,1,,,2,0.6370674028394729,1.4390640365534044,3.2873263714874783,3.466682681587309,130,254417.0,65,80.0,0,0,10,0,0,0,11.0,17.0,-994.0
1777581397.058986,pre_hover,right,x,1,,,2,0.6141156856381731,1.4848941428003042,3.253433136723543,3.451192428753241,130,254417.0,65,80.0,0,0,10,0,0,0,11.0,17.0,-994.0
1777581397.108799,pre_hover,right,x,1,,,2,0.6655822829085736,1.5063910646383163,3.243453500891404,3.4432436756437745,130,254415.0,65,80.0,0,0,10,0,0,0,-3.0,13.0,-1006.0
1777581397.158439,pre_hover,right,x,1,,,2,0.6834131198541996,1.4643270092337684,3.2761464742452877,3.459213054435182,130,254415.0,65,80.0,0,0,10,0,0,0,-3.0,13.0,-1006.0
1777581397.207477,pre_hover,right,x,1,,,2,0.6633790483951129,1.5055878343005644,3.2437231116996217,3.443454333919221,130,254413.0,65,80.0,0,-1,10,0,0,0,-20.0,38.0,-975.0
1777581397.25567,pre_hover,right,x,1,,,2,0.6641094450790979,1.506122661118504,3.243828826221819,3.4436543467881,130,254413.0,65,80.0,0,-1,10,0,0,0,-20.0,38.0,-975.0
1777581397.302811,pre_hover,right,x,1,,,2,0.6619006069723704,1.505318289702085,3.244099638481477,3.443867329835927,130,254419.0,65,80.0,0,-1,10,0,0,0,9.0,6.0,-984.0
1777581397.349526,pre_hover,right,x,1,,,2,0.6619006069723704,1.505318289702085,3.244099638481477,3.443867329835927,130,254419.0,65,80.0,0,-1,10,0,0,0,9.0,6.0,-984.0
1777581397.398269,pre_hover,right,x,1,,,2,0.6619006069723704,1.505318289702085,3.244099638481477,3.443867329835927,130,254419.0,65,80.0,0,-1,10,0,0,0,9.0,6.0,-984.0
1777581397.4468539,pre_hover,right,x,1,,,2,0.7154265801168015,1.414201357189162,3.2981655159952012,3.462294354200441,130,254423.0,65,80.0,0,0,10,0,0,0,7.0,22.0,-997.0
1777581397.4928498,pre_hover,right,x,1,,,2,0.66083167896228,1.5035558444440733,3.2446085474389794,3.4438866528845433,130,254423.0,65,80.0,0,0,10,0,0,0,7.0,22.0,-997.0
1777581397.540205,pre_hover,right,x,1,,,2,0.6364646159940477,1.4287797935906306,3.2635895055020323,3.4411571163705577,130,254421.99999999997,65,80.0,0,0,10,0,0,0,9.0,7.0,-976.0
1777581397.5876758,pre_hover,right,x,1,,,2,0.6597794392732477,1.5017893139548821,3.2451335005759887,3.4439194472064774,130,254421.99999999997,65,80.0,0,0,10,0,0,0,9.0,7.0,-976.0
1777581397.636318,pre_hover,right,x,1,,,2,0.6345607441311832,1.4264826358655989,3.2638271030476966,3.440898110966417,130,254423.0,65,80.0,0,0,10,0,0,0,-20.0,27.0,-979.0
1777581397.686699,pre_hover,right,x,1,,,2,0.6868040132986619,1.4530073306813787,3.2665376591295203,3.446329125760614,130,254423.0,65,80.0,0,0,10,0,0,0,-20.0,27.0,-979.0
1777581397.736223,pre_hover,right,x,1,,,2,0.6616682016246112,1.4903304099786618,3.2346693269563302,3.43021492963171,130,254416.0,65,80.0,0,0,10,0,0,0,28.0,0.0,-1006.0
1777581397.786172,response,right,x,1,1777581397.7860138,0.00015807151794433594,2,0.6616682016246112,1.4903304099786618,3.2346693269563302,3.43021492963171,130,254416.0,65,80.0,0,0,10,0,0,0,28.0,0.0,-1006.0
1777581397.836321,response,right,x,1,1777581397.7860138,0.050307273864746094,2,0.6291011931545464,1.4258430615912565,3.2762534247572273,3.453079265694283,130,254419.0,65,80.0,0,0,10,0,0,0,30.0,-6.0,-980.0
1777581397.886166,response,right,x,1,1777581397.7860138,0.10015225410461426,2,0.7388475730238946,1.471563453005814,3.254599748613622,3.436403402921302,130,254419.0,65,80.0,0,0,10,0,0,0,30.0,-6.0,-980.0
1777581397.936085,response,right,x,1,1777581397.7860138,0.1500711441040039,2,0.705776006276531,1.5142714643193522,3.2348119948255025,3.4339739801789313,130,254421.0,65,80.0,0,0,10,0,0,0,7.0,22.0,-992.0
1777581397.9855602,response,right,x,1,1777581397.7860138,0.19954633712768555,2,0.6335045062238593,1.418111766443348,3.2652170031638468,3.4398419431245535,130,254413.0,65,80.0,0,3,10,0,0,0,29.0,-7.0,-957.0
1777581398.0355258,response,right,x,1,1777581397.7860138,0.2495119571685791,2,0.5566078991954914,1.4413144903555781,3.2526735208463875,3.4439537534780524,130,254413.0,65,80.0,0,3,10,0,0,0,29.0,-7.0,-957.0
1777581398.08573,response,right,x,1,1777581397.7860138,0.2997162342071533,2,0.6611799712090682,1.4825455027762349,3.2362402019485925,3.4292789945117037,130,254421.99999999997,65,80.0,0,4,10,0,0,0,3.0,17.0,-991.0
1777581398.136269,response,right,x,1,1777581397.7860138,0.35025525093078613,2,0.6630746303783855,1.4814913258340345,3.2359295310729546,3.428466438893482,130,254421.99999999997,65,80.0,0,4,10,0,0,0,3.0,17.0,-991.0
1777581398.187066,response,right,x,1,1777581397.7860138,0.40105223655700684,2,0.6649504250585789,1.4804484159715026,3.2356208460918934,3.4276623604007694,130,254423.99999999997,65,80.0,0,2,10,0,1,0,21.0,17.0,-1011.0
1777581398.2372842,response,right,x,1,1777581397.7860138,0.45127034187316895,2,0.7223551677829249,1.3911706726528026,3.2866834960320888,3.4440955791431764,130,254423.99999999997,65,80.0,0,2,10,0,1,0,21.0,17.0,-1011.0
1777581398.288023,response,right,x,1,1777581397.7860138,0.5020091533660889,2,0.6677157787281167,1.4806734646681612,3.2329747532549393,3.424966232844929,130,254414.0,65,80.0,0,0,10,0,2,0,6.0,4.0,-1014.0
1777581398.338736,response,right,x,1,1777581397.7860138,0.5527222156524658,2,0.6766983709593469,1.4802497984818768,3.232557393895199,3.4235786649771898,130,254414.0,65,80.0,0,0,10,0,2,0,6.0,4.0,-1014.0
1777581398.3887591,response,right,x,1,1777581397.7860138,0.6027452945709229,2,0.6489592513179359,1.409789033186005,3.2622264817688515,3.432932437018237,130,254410.0,65,80.0,0,0,10,0,2,0,4.0,-4.0,-1001.0
1777581398.439293,response,right,x,1,1777581397.7860138,0.6532790660858154,2,0.6902262605813309,1.4817019837147352,3.2301877793610982,3.420548500042004,130,254410.0,65,80.0,0,0,10,0,2,0,4.0,-4.0,-1001.0
1777581398.489534,response,right,x,1,1777581397.7860138,0.7035200595855713,2,0.6627047938174637,1.4111142881022345,3.2604241436094914,3.4302311519706503,130,254402.0,65,80.0,0,0,10,0,2,0,3.0,-1.0,-1036.0
1777581398.539449,response,right,x,1,1777581397.7860138,0.7534351348876953,2,0.7162075538120247,1.439308191262036,3.25945606901152,3.4328928813398405,130,254402.0,65,80.0,0,0,10,0,2,0,3.0,-1.0,-1036.0
1777581398.5892968,response,right,x,1,1777581397.7860138,0.8032829761505127,2,0.7791855333370005,1.4638184211161294,3.2448225838094866,3.4218916204628327,130,254406.0,65,79.5,0,0,10,0,2,0,-2.0,9.0,-993.0
1777581398.639174,response,right,x,1,1777581397.7860138,0.8531601428985596,2,0.7322846925318727,1.4325155455836853,3.2464988657403286,3.417237879191024,130,254406.0,65,79.5,0,0,10,0,2,0,-2.0,9.0,-993.0
1777581398.688158,response,right,x,1,1777581397.7860138,0.902144193649292,2,0.7350362003573929,1.4316052728699842,3.246102507982525,3.4163718688785387,130,254405.00000000003,65,79.5,0,0,10,0,2,0,2.0,-1.0,-1028.0
1777581398.7385442,response,right,x,1,1777581397.7860138,0.9525303840637207,2,0.7727966091590626,1.381861322174219,3.265272825859988,3.417262012794892,130,254405.00000000003,65,79.5,0,0,10,0,2,0,2.0,-1.0,-1028.0
1777581398.7881138,response,right,x,1,1777581397.7860138,1.0020999908447266,2,0.743777914974469,1.431388511135936,3.2448229015312466,3.4144234769664545,130,254405.00000000003,65,79.5,0,0,10,0,2,0,1.0,12.0,-992.0
1777581398.838241,response,right,x,1,1777581397.7860138,1.052227258682251,2,0.781818916739291,1.3815759419741092,3.2641324429809684,3.4155021476023224,130,254405.00000000003,65,79.5,0,0,10,0,2,0,1.0,12.0,-992.0
1777581398.888696,response,right,x,1,1777581397.7860138,1.102682113647461,2,0.7288869416142499,1.352978286248562,3.277881328005985,3.4243504354809833,130,254408.0,65,79.5,0,0,10,0,2,0,17.0,-12.0,-993.0
1777581398.938952,response,right,x,1,1777581397.7860138,1.1529381275177002,2,0.7905231747308399,1.3809059355487383,3.2634279331839076,3.414091221658347,130,254408.0,65,79.5,0,0,10,0,2,0,17.0,-12.0,-993.0
1777581398.989367,response,right,x,1,1777581397.7860138,1.2033531665802002,2,0.8102791725647476,1.4563402732345647,3.227929253553698,3.4016725343818335,120,254410.0,65,79.5,0,0,10,0,2,0,-3.0,-5.0,-1018.0
1777581399.0404701,response,right,x,1,1777581397.7860138,1.2544562816619873,2,0.8507498476889087,1.409418624723119,3.245606993124363,3.4022296103761964,120,254410.0,65,79.5,0,0,10,0,2,0,-3.0,-5.0,-1018.0
1777581399.0915189,response,right,x,1,1777581397.7860138,1.3055050373077393,2,0.8018522185567416,1.3739021760625336,3.250875050217403,3.399402386296189,120,254415.0,65,79.5,0,0,10,0,2,0,8.0,0.0,-1010.0
1777581399.1422322,response,right,x,1,1777581397.7860138,1.3562183380126953,2,0.9069963990806872,1.440085878256979,3.2257376220130185,3.3905473761626976,120,254415.0,65,79.5,0,0,10,0,2,0,8.0,0.0,-1010.0
1777581399.200491,response,right,x,1,1777581397.7860138,1.4144771099090576,2,0.9022435771800434,1.3621398091013996,3.262551882470258,3.402868512927065,120,254407.00000000003,65,79.5,0,0,10,0,2,0,-9.0,3.0,-1022.0
1777581399.2489119,response,right,x,1,1777581397.7860138,1.4628980159759521,2,0.815580876253008,1.3728707389208894,3.2518190870485575,3.3992374531275984,120,254407.00000000003,65,79.5,0,0,10,0,2,0,-9.0,3.0,-1022.0
1777581399.295829,response,right,x,1,1777581397.7860138,1.5098152160644531,2,0.9081226800973166,1.3618120904087312,3.262831234205881,3.4028798982741644,120,254407.00000000003,65,79.5,0,0,10,0,2,0,-9.0,3.0,-1022.0
1777581399.343072,response,right,x,1,1777581397.7860138,1.5570580959320068,2,0.879021173394728,1.4070002805060922,3.247009813415104,3.4017287031508148,120,254406.0,65,79.5,0,-1,10,0,2,0,18.0,-4.0,-989.0
1777581399.3909628,response,right,x,1,1777581397.7860138,1.6049489974975586,2,0.8693065076155277,1.3248738989419535,3.284310016891796,3.4145519186200013,120,254406.0,65,79.5,0,-1,10,0,2,0,18.0,-4.0,-989.0
1777581399.4376588,response,right,x,1,1777581397.7860138,1.6516449451446533,2,0.8876638676185852,1.4054302276963315,3.2486278518879064,3.4025126406033745,120,254404.0,65,79.5,1,-5,10,0,1,0,33.0,-7.0,-987.0
1777581399.48659,response,right,x,1,1777581397.7860138,1.7005760669708252,2,0.9334594139241785,1.4385458664280564,3.227373578737384,3.3910094932043857,120,254404.0,65,79.5,1,-5,10,0,1,0,33.0,-7.0,-987.0
1777581399.5367548,response,right,x,1,1777581397.7860138,1.7507410049438477,2,0.9402441524591684,1.4369821122049684,3.2284153795043364,3.3913962500670034,120,254396.0,65,79.5,0,-3,10,0,0,0,22.0,-18.0,-1006.0
1777581399.5861719,response,right,x,1,1777581397.7860138,1.8001580238342285,2,1.0236314367094308,1.354222466530068,3.2684306534420555,3.404957840677523,120,254396.0,65,79.5,0,-3,10,0,0,0,22.0,-18.0,-1006.0
1777581399.633461,response,right,x,1,1777581397.7860138,1.847447156906128,2,1.0248141162146411,1.354025594401978,3.2686240713203056,3.405096752627169,120,254402.0,65,79.5,0,-1,10,0,0,0,30.0,10.0,-992.0
1777581399.683696,response,right,x,1,1777581397.7860138,1.8976821899414062,2,0.98075412769109,1.3977380660969727,3.255854485823024,3.4053546195651583,120,254402.0,65,79.5,0,-1,10,0,0,0,30.0,10.0,-992.0
1777581399.734281,response,right,x,1,1777581397.7860138,1.9482672214508057,2,0.9862238728123474,1.396596688003274,3.256075985892366,3.4052056569500073,120,254400.0,65,79.5,0,-1,10,0,0,0,-6.0,18.0,-1022.0
1777581399.784023,response,right,x,1,1777581397.7860138,1.998009204864502,2,1.0224979615070593,1.4331320175838234,3.2311749609927163,3.392397316437901,120,254400.0,65,79.5,0,-1,10,0,0,0,-6.0,18.0,-1022.0
1777581399.835157,response,right,x,1,1777581397.7860138,2.049143075942993,2,1.029988905732125,1.3578414646064405,3.281362234656893,3.4184349812185846,120,254396.99999999997,65,79.5,0,0,10,0,0,0,-6.0,29.0,-1005.0
1777581399.88575,response,right,x,1,1777581397.7860138,2.099736213684082,2,1.0283268833691501,1.4321732629123436,3.231675759416347,3.3926261613964694,120,254396.99999999997,65,79.5,0,0,10,0,0,0,-6.0,29.0,-1005.0
1777581399.936393,response,right,x,1,1777581397.7860138,2.150379180908203,2,1.0753930862480792,1.3978848392663321,3.254582575288274,3.404961968842186,120,254401.00000000003,65,79.5,0,0,10,0,0,0,18.0,0.0,-1024.0
1777581399.9866571,response,right,x,1,1777581397.7860138,2.200643301010132,2,0.9906402796815512,1.3955137228110708,3.257206232183218,3.4059547289479335,120,254401.00000000003,65,79.5,0,0,10,0,0,0,18.0,0.0,-1024.0
1777581400.03762,response,right,x,1,1777581397.7860138,2.2516062259674072,2,1.0771372369649246,1.3964514777347228,3.2554117717349613,3.4053739154983926,120,254405.00000000003,65,79.5,0,0,10,0,0,0,2.0,21.0,-983.0
1777581400.0889752,response,right,x,1,1777581397.7860138,2.3029613494873047,2,1.0346886062821503,1.3568291234150727,3.282381134553971,3.4191740498688965,120,254405.00000000003,65,79.5,0,0,10,0,0,0,2.0,21.0,-983.0
1777581400.139576,response,right,x,1,1777581397.7860138,2.353562116622925,2,1.0358661732779144,1.356551154014809,3.2826615080168513,3.4193775850069748,120,254419.0,65,79.5,0,0,10,0,0,0,4.0,11.0,-997.0
1777581400.189366,response,right,x,1,1777581397.7860138,2.4033522605895996,2,1.08812597408132,1.3168081179737585,3.3058235940904988,3.4317303139576385,120,254419.0,65,79.5,0,0,10,0,0,0,4.0,11.0,-997.0
1777581400.239887,response,right,x,1,1777581397.7860138,2.4538731575012207,2,1.03727126295221,1.3615204329200288,3.2955320557095056,3.4331388291436298,120,254408.0,65,79.5,0,0,10,0,0,0,-1.0,17.0,-969.0
1777581400.290426,response,right,x,1,1777581397.7860138,2.5044121742248535,2,1.0384637597754576,1.3612083641808592,3.2958455637667976,3.433365544242062,120,254408.0,65,79.5,0,0,10,0,0,0,-1.0,17.0,-969.0
1777581400.3400269,response,right,x,1,1777581397.7860138,2.5540130138397217,2,1.0396576004027516,1.3608857406570736,3.2961696754326764,3.4335999564756743,120,254414.0,65,79.5,0,0,10,0,0,0,-5.0,11.0,-1001.0
1777581400.389766,response,right,x,1,1777581397.7860138,2.6037521362304688,2,1.0416445769338425,1.3619026490573907,3.295842724601576,3.4335943619421267,120,254414.0,65,79.5,0,0,10,0,0,0,-5.0,11.0,-1001.0
1777581400.439871,response,right,x,1,1777581397.7860138,2.6538572311401367,2,1.0424802163920326,1.3614571215408109,3.2968330327974527,3.4344304348014827,120,254407.00000000003,65,79.5,0,0,10,0,0,0,0.0,18.0,-984.0
1777581400.490119,response,right,x,1,1777581397.7860138,2.7041051387786865,2,1.043999528265214,1.3660019260520282,3.3091730874729364,3.4475675776522428,120,254407.00000000003,65,79.5,0,0,10,0,0,0,0.0,18.0,-984.0
