timestamp,elapsed,phase,mission_state,target_x,target_y,target_z,pos_x,pos_y,pos_z,marker_id,err_x_cm,err_y_cm,err_z_cm,err_3d_cm,cmd_lr,cmd_fb,cmd_ud,publish_count,tello_height_cm,tello_baro_cm,tello_battery,tello_temp_c,tello_pitch,tello_roll,tello_yaw,tello_vgx,tello_vgy,tello_vgz
1778196546.264642,1.4066696166992188e-05,wait_slave,2,-0.010258402724090612,1.3250245645084482,3.756498815188052,-0.03920679941526273,1.329249551560142,3.729881468545258,2,2.8948396691172116,-0.4224987051693718,2.6617346642793915,3.95517803503091,16,-14,-2,1,120,251433.0,68,85.5,0,0,5,0,0,0
1778196546.336375,0.0717470645904541,wait_slave,2,-0.010258402724090612,1.3250245645084482,3.756498815188052,0.008825839754068698,1.2578889137671596,3.77829788727439,2,-1.9084242478159312,6.713565074128858,-2.1799072086338356,7.312047220339074,-17,18,29,4,120,251433.0,68,85.5,0,0,5,0,0,0
1778196546.40819,0.14356207847595215,wait_slave,2,-0.010258402724090612,1.3250245645084482,3.756498815188052,-0.03920679941526273,1.329249551560142,3.729881468545258,2,2.8948396691172116,-0.4224987051693718,2.6617346642793915,3.95517803503091,18,-18,-25,8,120,251430.00000000003,68,85.5,0,0,5,0,0,0
1778196546.478245,0.21361708641052246,wait_slave,2,-0.010258402724090612,1.3250245645084482,3.756498815188052,0.030514841208848842,1.3964904743333975,3.733300787906416,2,-4.077324393293946,-7.146590982494927,2.319802728163589,8.548673673548599,-27,0,-28,11,120,251430.00000000003,68,85.5,0,0,5,0,0,0
1778196546.549192,0.2845640182495117,wait_slave,2,-0.010258402724090612,1.3250245645084482,3.756498815188052,-0.03868786484640796,1.3293409731058998,3.730408538905529,2,2.842946212231735,-0.43164085974516375,2.609027628252303,3.882741578115668,25,-2,23,15,120,251417.0,68,85.5,0,0,5,0,0,0
1778196546.620049,0.3554210662841797,wait_slave,2,-0.010258402724090612,1.3250245645084482,3.756498815188052,-0.07054319722135238,1.1962040749311083,3.764756189880734,2,6.028479449726177,12.882048957733993,-0.8257374692682173,14.246809895319714,14,12,30,18,120,251417.0,68,85.5,0,0,5,0,0,0
1778196546.691116,0.42648816108703613,wait_slave,2,-0.010258402724090612,1.3250245645084482,3.756498815188052,0.02359065776821223,1.3304522076415313,3.767526051038755,2,-3.3849060492302843,-0.5427643133083082,-1.102723585070331,3.601136121696482,-30,1,-30,22,120,251432.00000000003,68,85.5,0,0,5,0,0,0
1778196546.7625291,0.49790120124816895,wait_slave,2,-0.010258402724090612,1.3250245645084482,3.756498815188052,-0.04270559143062358,1.3326999318144717,3.727733004197097,2,3.244718870653297,-0.7675367306023473,2.8765810990954765,4.403638495843032,25,-15,-1,26,120,251426.00000000003,68,85.5,0,0,5,0,0,0
1778196546.8325188,0.5678908824920654,wait_slave,2,-0.010258402724090612,1.3250245645084482,3.756498815188052,0.020074398697003004,1.3298741571255062,3.7666502021775785,2,-3.0332801421093616,-0.4849592617057974,-1.0151386989526667,3.2351940411883384,-24,14,0,29,120,251426.00000000003,68,85.5,0,0,5,0,0,0
1778196546.903466,0.6388380527496338,wait_slave,2,-0.010258402724090612,1.3250245645084482,3.756498815188052,0.03252146126687383,1.3924636522175837,3.7366709097367274,2,-4.277986399096444,-6.743908770913554,1.9827905451324401,8.228786756692964,-6,-11,-26,33,120,251435.0,68,85.5,0,0,5,0,0,0
1778196546.974219,0.7095911502838135,wait_slave,2,-0.010258402724090612,1.3250245645084482,3.756498815188052,-0.03827031946138004,1.3288681006845415,3.7313742011307443,2,2.801191673728943,-0.3843536176093343,2.5124614057307593,3.7824416468234277,26,-3,22,36,120,251437.0,68,85.5,0,0,5,0,0,0
1778196547.0448241,0.7801961898803711,wait_slave,2,-0.010258402724090612,1.3250245645084482,3.756498815188052,-0.042817634069007404,1.3321231880186986,3.7281685006660226,2,3.2559231344916792,-0.7098623510250368,2.8330314522029276,4.373900687520458,3,-2,-1,40,120,251437.0,68,85.5,0,0,5,0,0,0
1778196547.115849,0.8512210845947266,wait_slave,2,-0.010258402724090612,1.3250245645084482,3.756498815188052,-0.05481788759716988,1.263397982678295,3.738904775579498,2,4.455948487307927,6.162658183015313,1.7594039608553658,7.805724508314454,6,2,28,43,120,251435.0,68,85.5,0,0,5,0,0,0
1778196547.188323,0.9236950874328613,wait_slave,2,-0.010258402724090612,1.3250245645084482,3.756498815188052,0.023406014883849746,1.3292607497243543,3.768427272854077,2,-3.366441760794036,-0.4236185215906074,-1.1928457666025238,3.59656277625655,-29,10,-23,47,120,251437.0,68,85.5,0,-1,5,0,0,0
1778196547.2603369,0.9957089424133301,wait_slave,2,-0.010258402724090612,1.3250245645084482,3.756498815188052,0.029572818688883507,1.324909823944661,3.7505595046363025,2,-3.983122141297412,0.011474056378713016,0.5939310551749344,4.027176150203101,-4,-6,1,51,120,251427.0,68,85.5,0,0,5,0,0,0
1778196547.33252,1.067892074584961,wait_slave,2,-0.010258402724090612,1.3250245645084482,3.756498815188052,-0.03907300291682647,1.3276293506487185,3.731695012857869,2,2.881460019273586,-0.26047861402702654,2.4803802330182645,3.8108984572388325,25,-8,-1,54,120,251427.0,68,85.5,0,0,5,0,0,0
1778196547.4036531,1.1390252113342285,wait_slave,2,-0.010258402724090612,1.3250245645084482,3.756498815188052,-0.03852633710999176,1.3277018166521735,3.732249950948137,2,2.826793438590115,-0.2677252143725273,2.424886423991479,3.7339673410630048,1,-1,0,58,120,251433.0,68,85.5,0,0,5,0,0,0
1778196547.473699,1.209071159362793,wait_slave,2,-0.010258402724090612,1.3250245645084482,3.756498815188052,0.03064630750509134,1.3244888801850427,3.752109837530764,2,-4.090471022918195,0.05356843234054498,0.43889776572876293,4.114298727005436,-27,6,1,61,120,251430.00000000003,68,85.5,0,-1,5,0,0,0
1778196547.545569,1.2809410095214844,wait_slave,2,-0.010258402724090612,1.3250245645084482,3.756498815188052,-0.027033126236577054,1.3899110704558275,3.702896420376906,2,1.677472351248644,-6.4886505947379325,5.36023948111457,8.581880174221498,21,-20,-27,65,120,251430.00000000003,68,85.5,0,-1,5,0,0,0
1778196547.617667,1.353039026260376,wait_slave,2,-0.010258402724090612,1.3250245645084482,3.756498815188052,-0.04137608665353931,1.3312254456157735,3.730767542913602,2,3.11176839294487,-0.6200881107325307,2.5731272274450046,4.085167747476394,6,7,19,68,120,251442.0,68,85.5,0,-1,5,0,0,0
1778196547.687693,1.423065185546875,wait_slave,2,-0.010258402724090612,1.3250245645084482,3.756498815188052,-0.02590849715069732,1.3901797148977497,3.7040196410786765,2,1.5650094426606704,-6.515515038930153,5.24791741093753,8.511276515903084,-4,-12,-25,72,120,251427.0,68,85.5,0,-1,5,0,0,0
1778196547.759694,1.4950661659240723,wait_slave,2,-0.010258402724090612,1.3250245645084482,3.756498815188052,0.04542306696523557,1.3868092606115254,3.7243259086709246,2,-5.568146968932618,-6.178469610307724,3.217290651712723,8.917886887078556,-28,4,-3,75,120,251427.0,68,85.5,0,-1,5,0,0,0
1778196547.831009,1.5663809776306152,wait_slave,2,-0.010258402724090612,1.3250245645084482,3.756498815188052,-0.034124372148152116,1.3236040469057722,3.717637704902886,2,2.3865969424061504,0.14205176026760302,3.88611102851657,4.562661788260842,29,-4,22,79,120,251431.0,68,85.5,0,0,5,0,0,0
1778196547.901797,1.6371691226959229,wait_slave,2,-0.010258402724090612,1.3250245645084482,3.756498815188052,-0.025250736072544244,1.39093076992543,3.7040965238466654,2,1.4992333348453633,-6.590620541698189,5.240229134138641,8.552425451019205,-2,-8,-28,83,120,251430.00000000003,68,85.5,0,0,5,0,0,0
1778196547.9715881,1.7069602012634277,wait_slave,2,-0.010258402724090612,1.3250245645084482,3.756498815188052,-0.03286507957059093,1.3196856559416636,3.7199479559417483,2,2.2606676846500315,0.5338908566784539,3.6550859246303524,4.330740230456764,4,3,25,86,120,251430.00000000003,68,85.5,0,0,5,0,0,0
1778196548.0414221,1.776794195175171,wait_slave,2,-0.010258402724090612,1.3250245645084482,3.756498815188052,0.03385861476069474,1.325804752290273,3.7544784043234394,2,-4.411701748478535,-0.07801877818247593,0.20204108646124652,4.417014811826658,-26,11,-2,90,120,251423.0,68,85.5,0,0,5,0,0,0
1778196548.111916,1.8472881317138672,wait_slave,2,-0.010258402724090612,1.3250245645084482,3.756498815188052,0.041762584270091274,1.3912735810900532,3.721315077429227,2,-5.202098699418189,-6.624901658160498,3.5183737758824662,9.128532570221983,-5,-14,-28,93,130,251428.00000000003,68,85.0,0,0,5,0,0,0
1778196548.182368,1.9177401065826416,wait_slave,2,-0.010258402724090612,1.3250245645084482,3.756498815188052,0.04238062025984812,1.3914802338791576,3.7218726558017203,2,-5.263902298393874,-6.645566937070946,3.462615938633151,9.157616308876626,-3,-2,-4,97,130,251426.00000000003,68,85.0,0,0,5,0,0,0
1778196548.253897,1.9892690181732178,wait_slave,2,-0.010258402724090612,1.3250245645084482,3.756498815188052,0.04799915503067609,1.4581526992894398,3.7049835582339883,2,-5.8257557754766705,-13.312813478099162,5.151525695406356,15.4178030227588,-5,-9,-30,100,130,251426.00000000003,68,85.0,0,0,5,0,0,0
1778196548.324264,2.059636116027832,wait_slave,2,-0.010258402724090612,1.3250245645084482,3.756498815188052,0.047957347864587274,1.388197814112742,3.7260629220022423,2,-5.821575058867789,-6.317324960429382,3.0435893185809526,9.113877701718168,-3,5,19,104,130,251436.0,68,85.0,0,0,5,0,0,0
1778196548.396799,2.132171154022217,wait_slave,2,-0.010258402724090612,1.3250245645084482,3.756498815188052,0.048596543289604166,1.3884159083984147,3.7266405383910883,2,-5.885494601369478,-6.339134388996648,2.985827679696351,9.150892767230424,-3,-1,-4,107,130,251440.0,68,85.0,0,-1,5,0,0,0
1778196548.4679942,2.203366279602051,wait_slave,2,-0.010258402724090612,1.3250245645084482,3.756498815188052,0.04924467669695165,1.388644785384073,3.7272250588154643,2,-5.950307942104226,-6.362022087562491,2.9273756372587556,9.189723487141368,-3,-1,-4,111,130,251440.0,68,85.0,0,-1,5,0,0,0
1778196548.538708,2.2740800380706787,wait_slave,2,-0.010258402724090612,1.3250245645084482,3.756498815188052,0.03650875537837628,1.326537087049874,3.7568823394956903,2,-4.676715810246689,-0.15125225414258647,-0.03835243076384387,4.679318211357297,1,10,21,114,130,251436.0,68,85.0,0,-1,5,0,0,0
1778196548.6095202,2.3448922634124756,wait_slave,2,-0.010258402724090612,1.3250245645084482,3.756498815188052,-0.01620143440375066,1.3914238315336092,3.6873670122994144,2,0.5943031679660047,-6.639926702516097,6.913180288863741,9.603847384073472,18,-29,-28,118,130,251435.0,68,85.0,0,0,5,0,0,0
1778196548.679504,2.4148759841918945,wait_slave,2,-0.010258402724090612,1.3250245645084482,3.756498815188052,-0.021641218953308394,1.3927268718513353,3.7071141161770225,2,1.1382816229217783,-6.770230734288707,4.938469901102938,8.45696128716979,2,3,-5,121,130,251435.0,68,85.0,0,0,5,0,0,0
1778196548.7503848,2.4857568740844727,wait_slave,2,-0.010258402724090612,1.3250245645084482,3.756498815188052,-0.021023457932584755,1.392960937830503,3.707723903869376,2,1.0765055208494143,-6.793637332205482,4.877491131867595,8.432217506646891,0,-3,-5,125,130,251440.0,68,85.0,0,0,5,0,0,0
1778196548.8198662,2.5552382469177246,wait_slave,2,-0.010258402724090612,1.3250245645084482,3.756498815188052,-0.009393772020080071,1.3879889222441717,3.6925352213722324,2,-0.08646307040105408,-6.296435773572351,6.39635938158194,8.975856095750204,-4,-9,-3,128,130,251442.0,68,85.0,0,0,5,0,0,0
1778196548.892108,2.6274800300598145,wait_slave,2,-0.010258402724090612,1.3250245645084482,3.756498815188052,-0.01545583056749833,1.3971733765892744,3.705800147112642,2,0.5197427843407718,-7.214881208082624,5.069866807540979,8.833356828229224,2,1,-8,132,130,251442.0,68,85.0,0,0,5,0,0,0
1778196548.962197,2.6975691318511963,wait_slave,2,-0.010258402724090612,1.3250245645084482,3.756498815188052,-0.007151292850389179,1.4568817006724681,3.6734557703425232,2,-0.31071098737014324,-13.185713616401994,8.30430448455286,15.585924992235983,-3,-17,-30,136,130,251440.0,68,85.0,0,0,5,0,0,0
1778196549.035219,2.7705910205841064,wait_slave,2,-0.010258402724090612,1.3250245645084482,3.756498815188052,-0.014191265187700974,1.3976688649325562,3.7070480884479178,2,0.39328624636103626,-7.264430042410797,4.9450726740134066,8.796610805527967,2,7,14,139,130,251425.0,68,85.0,0,0,5,0,0,0
1778196549.105835,2.8412070274353027,wait_slave,2,-0.010258402724090612,1.3250245645084482,3.756498815188052,-0.013547445932326596,1.3979312812689069,3.7076823105755077,2,0.32890432082359844,-7.290671676045868,4.8816504612544165,8.780238195289428,0,-3,-6,143,130,251428.00000000003,68,85.0,0,0,5,0,0,0
1778196549.177366,2.912738084793091,wait_slave,2,-0.010258402724090612,1.3250245645084482,3.756498815188052,0.05086696535502866,1.4655813809622011,3.7061411748499165,2,-6.112536807911927,-14.055681645375294,5.035764033813539,16.133326134076263,-26,-4,-30,146,130,251428.00000000003,68,85.0,0,0,5,0,0,0
1778196549.2492821,2.984654188156128,wait_slave,2,-0.010258402724090612,1.3250245645084482,3.756498815188052,-0.012894644159374469,1.3982028936478053,3.70832433045564,2,0.2636241435283857,-7.317832913935707,4.817448473241193,8.765157502159658,22,-2,17,150,130,251444.0,68,85.0,0,0,5,0,0,0
1778196549.32018,3.0555520057678223,wait_slave,2,-0.010258402724090612,1.3250245645084482,3.756498815188052,0.05888396165650378,1.453323660561722,3.6959810046395436,2,-6.914236438059438,-12.829909605327373,6.051781054850824,15.780915687567429,-29,-8,-29,153,130,251429.0,68,85.0,0,0,5,0,0,0
1778196549.391904,3.1272761821746826,wait_slave,2,-0.010258402724090612,1.3250245645084482,3.756498815188052,-0.012233567526783284,1.3984846766028949,3.7089733916545633,2,0.19751648026926724,-7.3460112094446695,4.752542353348854,8.751545707453019,24,0,12,157,130,251429.0,68,85.0,0,0,5,0,0,0
1778196549.464463,3.1998350620269775,wait_slave,2,-0.010258402724090612,1.3250245645084482,3.756498815188052,0.04967422137853972,1.3951584907989059,3.727861882912235,2,-5.993262410263033,-7.013392629045767,2.863693227581665,9.659586398450113,-25,3,-5,161,130,251438.0,68,85.0,0,-1,5,0,0,0
1778196549.5350778,3.2704498767852783,wait_slave,2,-0.010258402724090612,1.3250245645084482,3.756498815188052,-0.01717206632929913,1.395272800444793,3.710961588603324,2,0.6913663605208518,-7.024823593634477,4.553722658472781,8.400150237729791,23,-9,-6,164,130,251441.0,68,85.0,0,-1,5,0,0,0
1778196549.606727,3.3420989513397217,wait_slave,2,-0.010258402724090612,1.3250245645084482,3.756498815188052,-0.0859688916195922,1.3321413498297803,3.704651717385824,2,7.57104888955016,-0.7116785321332086,5.184709780222763,9.203721156477718,28,-6,20,168,130,251437.0,68,85.0,0,-1,5,0,0,0
1778196549.6758049,3.411176919937134,wait_slave,2,-0.010258402724090612,1.3250245645084482,3.756498815188052,0.04890345938610274,1.3955440192545479,3.7266556391386643,2,-5.916186211019336,-7.051945474609966,2.9843176049387576,9.67663918039082,-30,5,-29,171,130,251437.0,68,85.0,0,-1,5,0,0,0
1778196549.747709,3.483081102371216,wait_slave,2,-0.010258402724090612,1.3250245645084482,3.756498815188052,-0.017863354641840523,1.395660034016476,3.7097550884081296,2,0.7604951917749911,-7.063546950802779,4.674372677992222,8.50422297424452,23,-9,-6,175,130,251437.0,68,85.0,0,-1,5,0,0,0
1778196549.8191612,3.5545332431793213,wait_slave,2,-0.010258402724090612,1.3250245645084482,3.756498815188052,-0.08405742976518149,1.328019632768862,3.686265291480495,2,7.379902704109089,-0.2995068260413847,7.023352370755687,10.192161045860763,27,-13,21,178,130,251438.0,68,85.0,0,0,5,0,0,0
1778196549.8911328,3.626504898071289,wait_slave,2,-0.010258402724090612,1.3250245645084482,3.756498815188052,-0.012965429221109881,1.4002507175656818,3.706669631618471,2,0.2707026497019269,-7.522615305723357,4.982918356958077,9.027319442368745,-24,3,-30,182,130,251439.0,68,85.0,0,0,5,0,0,0
1778196549.962559,3.6979310512542725,wait_slave,2,-0.010258402724090612,1.3250245645084482,3.756498815188052,-0.026513261068673577,1.3295100290345707,3.7225373057434874,2,1.6254858344582963,-0.4485464526122529,3.396150944456444,3.791733028010809,5,2,22,186,130,251440.0,68,85.0,0,0,5,0,0,0
1778196550.034606,3.7699780464172363,wait_slave,2,-0.010258402724090612,1.3250245645084482,3.756498815188052,0.05329125045479188,1.4639745359125795,3.707210212013119,2,-6.354965317888249,-13.894997140413135,4.928860317493289,16.05460039219325,-30,-9,-30,189,130,251440.0,68,85.0,0,0,5,0,0,0
1778196550.105181,3.840553045272827,wait_slave,2,-0.010258402724090612,1.3250245645084482,3.756498815188052,-0.09908698620579903,1.2670666314898869,3.7116856585189986,2,8.882858348170842,5.795793301856134,4.481315666905328,11.514277334594649,30,-2,30,193,130,251440.0,68,85.0,0,0,5,0,0,0
1778196550.1745842,3.909956216812134,wait_slave,2,-0.010258402724090612,1.3250245645084482,3.756498815188052,-0.027206286919802203,1.3299171293088827,3.721373229364517,2,1.6947884195711589,-0.489256480043454,3.5125585823534866,3.9306166799679354,-24,0,-24,196,130,251435.0,68,84.0,0,0,5,0,0,0
1778196550.245047,3.980419158935547,wait_slave,2,-0.010258402724090612,1.3250245645084482,3.756498815188052,-0.018651242737800278,1.3973601333260606,3.7074949221521516,2,0.8392840013709666,-7.233556881761238,4.900389303590025,8.777389026548393,-2,-8,-30,200,130,251431.0,68,84.0,0,0,5,0,0,0
1778196550.315584,4.0509560108184814,wait_slave,2,-0.010258402724090612,1.3250245645084482,3.756498815188052,-0.018651242737800278,1.3973601333260606,3.7074949221521516,2,0.8392840013709666,-7.233556881761238,4.900389303590025,8.777389026548393,0,-4,-6,203,130,251437.0,68,84.0,0,0,5,0,0,0
1778196550.387386,4.122758150100708,wait_slave,2,-0.010258402724090612,1.3250245645084482,3.756498815188052,0.05113394323695486,1.4685114210741141,3.704404033584799,2,-6.139234596104547,-14.348685656566595,5.209478160325265,16.453377896343135,-28,-5,-30,207,130,251421.99999999997,68,84.0,0,0,5,0,0,0
1778196550.458612,4.193984031677246,wait_slave,2,-0.010258402724090612,1.3250245645084482,3.756498815188052,-0.006152382769872844,1.4540112470894857,3.678415175267415,2,-0.4106019954217768,-12.89866825810375,7.808363992063683,15.083593241128398,19,-14,-5,210,130,251421.99999999997,68,84.0,0,0,5,0,0,0
1778196550.531818,4.267189979553223,wait_slave,2,-0.010258402724090612,1.3250245645084482,3.756498815188052,0.061871990475086514,1.520574776516907,3.6751869955206606,2,-7.213039319917712,-19.55502120084589,8.13118196673912,22.37281633081617,-27,-7,-30,214,130,251439.0,68,84.0,0,0,5,0,0,0
1778196550.603542,4.338914155960083,wait_slave,2,-0.010258402724090612,1.3250245645084482,3.756498815188052,0.0591232776668148,1.4563278285492625,3.694221811240055,2,-6.938168039090541,-13.130326404081426,6.227700394799696,16.103661056535053,-3,1,11,218,130,251444.99999999997,68,84.0,0,0,5,0,0,0
1778196550.6749701,4.410342216491699,wait_slave,2,-0.010258402724090612,1.3250245645084482,3.756498815188052,0.0591232776668148,1.4563278285492625,3.694221811240055,2,-6.938168039090541,-13.130326404081426,6.227700394799696,16.103661056535053,-4,-5,-11,221,130,251444.99999999997,68,84.0,0,0,5,0,0,0
1778196550.744995,4.480367183685303,wait_slave,2,-0.010258402724090612,1.3250245645084482,3.756498815188052,-0.019904828313583867,1.330053109280803,3.723092813608472,2,0.9646425589493255,-0.5028544772354815,3.3406001579579847,3.513261633747334,28,7,30,225,130,251433.0,68,84.0,0,-1,5,0,0,0
1778196550.814537,4.5499091148376465,wait_slave,2,-0.010258402724090612,1.3250245645084482,3.756498815188052,-0.08345004230311592,1.3296588308124297,3.6859104556833,2,7.319163957902532,-0.463426630398156,7.058835950475206,10.17900241969432,26,-18,-2,228,130,251434.0,68,84.0,0,-1,5,0,0,0
1778196550.887009,4.622380971908569,wait_slave,2,-0.010258402724090612,1.3250245645084482,3.756498815188052,0.05835629701485823,1.4565824160735956,3.6930874261623865,2,-6.8614699738948834,-13.155785156514742,6.341138902566534,16.135814075176913,-30,-2,-30,232,130,251437.0,68,84.0,0,-1,5,0,0,0
1778196550.9575748,4.692946910858154,wait_slave,2,-0.010258402724090612,1.3250245645084482,3.756498815188052,-0.08408203720445329,1.3300565544860836,3.6847530043230066,2,7.382363448036268,-0.5031989977635432,7.174581086504528,10.306653825421744,30,-8,30,235,130,251437.0,68,84.0,0,-1,5,0,0,0
1778196551.029772,4.765144109725952,wait_slave,2,-0.010258402724090612,1.3250245645084482,3.756498815188052,0.047746843699719155,1.3986378423417323,3.7232626853836703,2,-5.800524642380977,-7.3613277833284085,3.323612980438151,9.94392458258854,-30,9,-30,239,130,251436.0,68,84.0,0,0,5,0,0,0
1778196551.102717,4.8380889892578125,wait_slave,2,-0.010258402724090612,1.3250245645084482,3.756498815188052,-0.0063787790820772905,1.4617701898154905,3.6708423637654937,2,-0.3879623642013321,-13.674562530704225,8.565645142255818,16.140460089638935,18,-24,-30,243,130,251433.0,68,84.5,0,0,5,0,0,0
1778196551.174516,4.909888029098511,wait_slave,2,-0.010258402724090612,1.3250245645084482,3.756498815188052,-0.09906682797947597,1.26915864309324,3.7102802693408274,2,8.880842525538537,5.586592141520819,4.62185458472244,11.464768446045289,30,9,30,246,130,251433.0,68,84.5,0,0,5,0,0,0
1778196551.244899,4.980271100997925,wait_slave,2,-0.010258402724090612,1.3250245645084482,3.756498815188052,-0.07548443884241363,1.3993488139952666,3.6691576045680936,2,6.522603611832302,-7.432424948681837,8.734121061995825,13.193565447614041,-4,-21,-30,250,130,251429.0,68,84.5,0,0,5,0,0,0
1778196551.316714,5.052086114883423,wait_slave,2,-0.010258402724090612,1.3250245645084482,3.756498815188052,-0.0749171915211293,1.3996761380725555,3.6697650570883726,2,6.46587887970387,-7.465157356410734,8.67337580996792,13.143957242166856,3,-6,-7,253,130,251442.99999999997,68,84.5,0,0,5,0,0,0
1778196551.3881621,5.123534202575684,wait_slave,2,-0.010258402724090612,1.3250245645084482,3.756498815188052,-0.0005388520444977729,1.45939580876672,3.6755291203955545,2,-0.9719550679592839,-13.437124425827186,8.096969479249738,15.718203594469538,-26,-4,-30,257,130,251442.99999999997,68,84.5,0,0,5,0,0,0
1778196551.459137,5.194509029388428,wait_slave,2,-0.010258402724090612,1.3250245645084482,3.756498815188052,-0.010385833797044608,1.4587036782172849,3.6743572999513945,2,0.012743107295399604,-13.367911370883668,8.214151523665736,15.689917210116963,3,-7,-11,260,130,251430.00000000003,68,84.5,0,0,5,0,0,0
1778196551.5304902,5.265862226486206,wait_slave,2,-0.010258402724090612,1.3250245645084482,3.756498815188052,-0.07426985576027545,1.399377731056179,3.6708980946482956,2,6.401145303618485,-7.435316654773083,8.56007205397562,13.020500317731166,26,-8,12,264,130,251437.0,68,84.5,0,0,5,0,0,0
1778196551.600822,5.336194038391113,wait_slave,2,-0.010258402724090612,1.3250245645084482,3.756498815188052,0.058401178583831204,1.4664409253700366,3.708911137210313,2,-6.865958130792181,-14.141636086158837,4.7587677977738885,16.42477163312388,-30,8,-30,267,130,251431.0,68,84.5,0,0,5,0,0,0
1778196551.670683,5.406054973602295,wait_slave,2,-0.010258402724090612,1.3250245645084482,3.756498815188052,-0.016201889639583245,1.3994130652565335,3.7094263956840194,2,0.5943486915492633,-7.438850074808534,4.70724195040324,8.823143860453673,26,-4,15,271,130,251431.0,68,84.5,0,0,5,0,0,0
1778196551.742084,5.477456092834473,wait_slave,2,-0.010258402724090612,1.3250245645084482,3.756498815188052,-0.010510816715446847,1.4029451839613651,3.7080974901487815,2,0.02524139913562349,-7.792061945291695,4.84013250392703,9.172990196389847,-2,-5,-9,275,130,251440.0,68,84.5,0,-1,5,0,0,0
1778196551.81318,5.5485520362854,wait_slave,2,-0.010258402724090612,1.3250245645084482,3.756498815188052,-0.015447808504240212,1.39908954494937,3.710625362715453,2,0.5189405780149601,-7.406498044092191,4.5873452472598775,8.727499585689463,1,-3,-6,278,130,251442.0,68,84.5,0,0,5,0,0,0
1778196551.884498,5.619869947433472,wait_slave,2,-0.010258402724090612,1.3250245645084482,3.756498815188052,-0.02522561825656533,1.3360321446867487,3.742312165587365,2,1.4967215532474718,-1.1007580178300502,1.4186649600687051,2.3376171394604817,4,8,18,282,130,251442.0,68,84.5,0,0,5,0,0,0
1778196551.9553258,5.690697908401489,wait_slave,2,-0.010258402724090612,1.3250245645084482,3.756498815188052,-0.08321919999315264,1.4037861353245438,3.6897844626562897,2,7.296079726906203,-7.876157081609558,6.671435253176217,12.640200872331203,24,-24,-30,285,130,251423.0,68,84.5,0,-1,5,0,0,0
1778196552.027328,5.762700080871582,wait_slave,2,-0.010258402724090612,1.3250245645084482,3.756498815188052,-0.09547075202322564,1.343239475294569,3.7191050842026776,2,8.521234929913502,-1.821491078612092,3.739373098537424,9.482203628392865,9,6,16,289,130,251430.00000000003,68,84.5,0,0,5,0,0,0
1778196552.097284,5.832656145095825,wait_slave,2,-0.010258402724090612,1.3250245645084482,3.756498815188052,-0.0948178642801758,1.3435537199672312,3.7198075866198015,2,8.455946155608519,-1.8529155458782975,3.6691228568250356,9.402062749481303,4,-3,-4,292,130,251430.00000000003,68,84.5,0,0,5,0,0,0
1778196552.168554,5.903926134109497,wait_slave,2,-0.010258402724090612,1.3250245645084482,3.756498815188052,-0.09415677883700746,1.3438770550054815,3.7205180227262127,2,8.389837611291686,-1.8852490497033303,3.598079246183916,9.321465195186391,4,-3,-4,296,130,251442.0,68,84.0,0,0,5,0,0,0
1778196552.24083,5.976202011108398,wait_slave,2,-0.010258402724090612,1.3250245645084482,3.756498815188052,-0.085467945138469,1.4130721871001901,3.705463965667997,2,7.52095424143784,-8.804762259174193,5.103484952005477,12.654412265993486,1,-10,-30,299,130,251436.0,68,84.0,0,0,5,0,0,0
1778196552.310422,6.0457940101623535,wait_slave,2,-0.010258402724090612,1.3250245645084482,3.756498815188052,-0.07836910044468492,1.4006524558230211,3.6941132042071705,2,6.811069772059432,-7.562789131457293,6.238561098088136,11.937591694363185,1,-9,-4,303,130,251436.0,68,84.0,0,0,5,0,0,0
1778196552.382316,6.117688179016113,wait_slave,2,-0.010258402724090612,1.3250245645084482,3.756498815188052,0.05318774649924174,1.537996826559667,3.7089732505225594,2,-6.344614922333235,-21.297226205121888,4.75255646654924,22.724717281246054,-30,0,-30,307,130,251438.0,68,84.0,0,0,5,0,0,0
1778196552.4548109,6.19018292427063,wait_slave,2,-0.010258402724090612,1.3250245645084482,3.756498815188052,-0.009131734666736113,1.474193698389525,3.7119114570709124,2,-0.11266680573544988,-14.916913388107677,4.458735811713943,15.569435567035855,21,-3,8,310,130,251437.0,68,84.0,0,0,5,0,0,0
1778196552.5268538,6.262225866317749,wait_slave,2,-0.010258402724090612,1.3250245645084482,3.756498815188052,-0.08476258334533315,1.4127293150669193,3.706725056263723,2,7.450418062124255,-8.770475055847115,4.977375892432878,12.538111212628312,30,-6,11,314,130,251437.0,68,84.0,0,0,5,0,0,0
1778196552.5969868,6.3323588371276855,wait_slave,2,-0.010258402724090612,1.3250245645084482,3.756498815188052,0.05229476467316063,1.5407563101206785,3.707650238743264,2,-6.2553167397251235,-21.57317456122303,4.884857644478791,22.986793651357917,-30,-4,-30,317,130,251437.0,68,84.0,0,0,5,0,0,0
1778196552.6667898,6.4021618366241455,wait_slave,2,-0.010258402724090612,1.3250245645084482,3.756498815188052,-0.026255422203080858,1.412464327737243,3.7453828518422787,2,1.5997019478990244,-8.743976322879487,1.1115963345773139,8.958337717915905,29,10,30,321,130,251437.0,68,84.0,0,0,5,0,0,0
1778196552.738367,6.473739147186279,wait_slave,2,-0.010258402724090612,1.3250245645084482,3.756498815188052,-0.02695898704836508,1.4120834059509675,3.744695452215023,2,1.6700584324274466,-8.705884144251929,1.1803362973028975,8.942857914312956,1,-3,-9,324,130,251433.0,68,84.0,0,-1,5,0,0,0
1778196552.809941,6.545313119888306,wait_slave,2,-0.010258402724090612,1.3250245645084482,3.756498815188052,-0.027654487347556822,1.4117118877940258,3.7440152062971226,2,1.7396084623466208,-8.668732328557759,1.2483608890929254,8.929253199224854,1,-3,-9,328,130,251433.0,68,84.0,0,-1,5,0,0,0
1778196552.881027,6.616399049758911,wait_slave,2,-0.010258402724090612,1.3250245645084482,3.756498815188052,-0.021738491544107452,1.4776756844633465,3.7270237472824572,2,1.148008882001684,-15.265111995489832,2.947506790559462,15.58939911954263,-1,-9,-30,331,130,251437.0,68,84.0,0,0,5,0,0,0
1778196552.9513018,6.686673879623413,wait_slave,2,-0.010258402724090612,1.3250245645084482,3.756498815188052,-0.028341886252799098,1.411350467827599,3.7433419449345755,2,1.8083483528708484,-8.632590331915079,1.3156870253476338,8.917554146326925,3,2,13,335,130,251440.0,68,84.0,0,0,5,0,0,0
1778196553.02299,6.758362054824829,wait_slave,2,-0.010258402724090612,1.3250245645084482,3.756498815188052,-0.02975640559068049,1.414862466127115,3.740685861232658,2,1.9498002866589876,-8.98379016186668,1.5812953955393727,9.3279527206275,1,-4,-11,339,130,251440.0,68,84.0,0,0,5,0,0,0
1778196553.096298,6.831670045852661,wait_slave,2,-0.010258402724090612,1.3250245645084482,3.756498815188052,-0.042945283593067485,1.3507271365235072,3.7722672976370752,2,3.2686880868976873,-2.570257201505899,-1.5768482449023402,4.447133265236313,6,9,16,342,130,251437.0,68,84.0,0,0,5,0,0,0
1778196553.167802,6.903174161911011,wait_slave,2,-0.010258402724090612,1.3250245645084482,3.756498815188052,0.04128554151585595,1.4823457709822527,3.7393435936996156,2,-5.154394423994656,-15.732120647380455,1.715522148843629,16.64362995818564,-30,-14,-30,346,130,251442.99999999997,68,84.0,0,0,5,0,0,0
1778196553.2377589,6.973130941390991,wait_slave,2,-0.010258402724090612,1.3250245645084482,3.756498815188052,-0.023758156073723224,1.4792916340556057,3.725050208188559,2,1.3499753349632613,-15.426706954715751,3.1448606999493034,15.801767929373286,24,-9,-14,349,130,251435.0,68,84.0,0,0,5,0,0,0
1778196553.309341,7.044713020324707,wait_slave,2,-0.010258402724090612,1.3250245645084482,3.756498815188052,0.03877024318833977,1.5426753918701994,3.722858034933065,2,-4.902864591243039,-21.765082736175124,3.3640780254986957,22.56266670130675,-24,-5,-30,353,130,251435.0,68,84.0,0,0,5,0,0,0
1778196553.379238,7.114609956741333,wait_slave,2,-0.010258402724090612,1.3250245645084482,3.756498815188052,-0.029567127469290577,1.4085125773763303,3.7437714709524674,2,1.9308724745199963,-8.348801286788209,1.2727344235584415,8.663175188811898,25,4,30,356,130,251437.0,68,84.0,0,-1,5,0,0,0
1778196553.451005,7.186377048492432,wait_slave,2,-0.010258402724090612,1.3250245645084482,3.756498815188052,0.03632331686766177,1.4170691030061375,3.7764376831692905,2,-4.658171959175238,-9.204453849768935,-1.9938867981238673,10.506955850173982,-25,10,-14,360,130,251436.0,68,84.0,0,-1,5,0,0,0
1778196553.52258,7.257951974868774,wait_slave,2,-0.010258402724090612,1.3250245645084482,3.756498815188052,-0.04506574743167602,1.3475469647801122,3.7718710524766736,2,3.4807344707585406,-2.2522400271663967,-1.5372237288621804,4.421668733461856,30,-2,18,364,130,251436.0,68,84.0,0,-1,5,0,0,0
1778196553.594469,7.329841136932373,wait_slave,2,-0.010258402724090612,1.3250245645084482,3.756498815188052,-0.03974032621656631,1.338592289013468,3.7570596501672195,2,2.94819234924757,-1.3567724505019862,-0.05608349791677014,3.245892014430186,0,-7,-2,367,130,251430.00000000003,68,84.0,0,0,5,0,0,0
1778196553.667926,7.4032981395721436,wait_slave,2,-0.010258402724090612,1.3250245645084482,3.756498815188052,0.03541101093480259,1.4064383413564236,3.7589693628667336,2,-4.5669413658893205,-8.141377684797547,-0.24705476786817115,9.338095100410836,-28,-1,-30,371,130,251431.0,68,84.0,0,0,5,0,0,0
1778196553.737122,7.472494125366211,wait_slave,2,-0.010258402724090612,1.3250245645084482,3.756498815188052,0.03277952735105061,1.4148463400787366,3.773816159670649,2,-4.303793007514122,-8.982177557028837,-1.7317344482597363,10.10945360129861,-1,4,-14,374,130,251431.0,68,84.0,0,0,5,0,0,0
1778196553.806756,7.542128086090088,wait_slave,2,-0.010258402724090612,1.3250245645084482,3.756498815188052,0.020891527551771705,1.3350668498368803,3.793605183544634,2,-3.1149930275862316,-1.00422853284321,-3.710636835658221,4.947775483409784,2,7,22,378,130,251428.00000000003,68,84.0,0,0,5,0,0,0
1778196553.877386,7.612758159637451,wait_slave,2,-0.010258402724090612,1.3250245645084482,3.756498815188052,0.02017251942488596,1.3348447172123206,3.792954710139948,2,-3.043092214897657,-0.9820152703872376,-3.6455894951896273,4.849235711643786,-1,0,-5,381,130,251428.00000000003,68,84.0,0,0,5,0,0,0
1778196553.9477482,7.683120250701904,wait_slave,2,-0.010258402724090612,1.3250245645084482,3.756498815188052,0.043012782501372526,1.4638576670308816,3.725482685178806,2,-5.327118522546314,-13.88331025224334,3.1016130009245746,15.190276446490547,-11,-28,-30,385,130,251431.0,68,84.0,0,-1,5,0,0,0
1778196554.0174248,7.75279688835144,wait_slave,2,-0.010258402724090612,1.3250245645084482,3.756498815188052,-0.0355868279774092,1.4041550549021125,3.739597645594928,2,2.5328425253318585,-7.913049039366427,1.6901169593123821,8.478686908578634,29,1,10,388,130,251430.00000000003,68,84.0,0,-1,5,0,0,0
1778196554.08897,7.8243420124053955,wait_slave,2,-0.010258402724090612,1.3250245645084482,3.756498815188052,-0.04523491654373957,1.335543586478627,3.7527917041276107,2,3.4976513819648956,-1.0519021970178732,0.3707111060441193,3.6711701330769766,5,2,18,392,130,251430.00000000003,68,84.0,0,-1,5,0,0,0
1778196554.161338,7.896710157394409,wait_slave,2,-0.010258402724090612,1.3250245645084482,3.756498815188052,-0.04587315732245423,1.3353957179942888,3.752150894766539,2,3.5614754598363616,-1.0371153485840612,0.4347920421512885,3.734803852574235,2,-2,-5,396,130,251428.00000000003,68,84.5,0,-1,5,0,0,0
1778196554.235591,7.970963001251221,wait_slave,2,-0.010258402724090612,1.3250245645084482,3.756498815188052,0.034878188210170635,1.3948585497672998,3.740017935934441,2,-4.513659093426125,-6.983398525885165,1.6480879253610858,8.476860692067815,-30,-7,-30,399,130,251430.00000000003,68,84.5,0,0,5,0,0,0
1778196554.3066509,8.042022943496704,wait_slave,2,-0.010258402724090612,1.3250245645084482,3.756498815188052,0.03521612018412734,1.3908363732064073,3.741344253497449,2,-4.547452290821796,-6.581180869795911,1.5154561690602808,8.14173638596896,-2,-2,-8,403,130,251417.0,68,84.5,0,0,5,0,0,0
1778196554.3783739,8.113745927810669,wait_slave,2,-0.010258402724090612,1.3250245645084482,3.756498815188052,0.0336283755541984,1.3945092377799675,3.738881245151537,2,-4.388677827828901,-6.94846732715193,1.7617570036514874,8.405086496454986,-2,-4,-11,406,130,251417.0,68,84.5,0,0,5,0,0,0
1778196554.4498491,8.185221195220947,wait_slave,2,-0.010258402724090612,1.3250245645084482,3.756498815188052,0.0345925680330762,1.3906757055102283,3.7407788721082302,2,-4.4850970757166815,-6.5651141001780156,1.5719943079821608,8.10481246120395,-3,-2,-8,410,130,251425.0,68,84.5,0,-1,5,0,0,0
1778196554.520183,8.255555152893066,wait_slave,2,-0.010258402724090612,1.3250245645084482,3.756498815188052,0.019441305605633508,1.333048195063233,3.7673901466037396,2,-2.969970832972412,-0.8023630554784722,-1.0891331415687766,3.263544732582513,3,7,14,413,130,251417.99999999997,68,84.5,0,-1,5,0,0,0
1778196554.591785,8.327157020568848,wait_slave,2,-0.010258402724090612,1.3250245645084482,3.756498815188052,0.021510765320916003,1.327696234284641,3.7702009633479747,2,-3.1769168045006615,-0.267166977619282,-1.3702148159922878,3.4701105484715757,-2,0,-3,417,130,251417.99999999997,68,84.5,0,-1,5,0,0,0
1778196554.6622238,8.397595882415771,wait_slave,2,-0.010258402724090612,1.3250245645084482,3.756498815188052,0.031905640711455074,1.3946593338263447,3.7367288701331036,2,-4.216404343554569,-6.963476931789647,1.9769945054948224,8.377146521499377,-6,-15,-30,421,120,251428.00000000003,68,84.5,0,0,5,0,0,0
1778196554.734279,8.469650983810425,wait_slave,2,-0.010258402724090612,1.3250245645084482,3.756498815188052,-0.06076696562729755,1.2615190408876913,3.7599805801409105,2,5.050856290320694,6.35055236207569,-0.3481764952858679,8.121692646290352,30,6,30,424,120,251428.00000000003,68,84.5,0,0,5,0,0,0
1778196554.804023,8.539395093917847,wait_slave,2,-0.010258402724090612,1.3250245645084482,3.756498815188052,0.017813360987998128,1.3339624708704374,3.7647439180609465,2,-2.807176371208874,-0.8937906361989212,-0.8245102872894705,3.0592348870716775,-29,0,-30,428,120,251428.00000000003,68,84.5,0,0,5,0,0,0
1778196554.874846,8.610218048095703,wait_slave,2,-0.010258402724090612,1.3250245645084482,3.756498815188052,-0.06117637207427018,1.2620860016408104,3.7589795736981313,2,5.091796935017957,6.293856286763777,-0.24807585100794505,8.099417547808454,30,-4,24,431,120,251425.0,68,84.5,0,0,5,0,0,0
1778196554.946172,8.681544065475464,wait_slave,2,-0.010258402724090612,1.3250245645084482,3.756498815188052,0.030924691960911632,1.3955318123780178,3.734720834805889,2,-4.118309468500224,-7.050724786956963,2.177798038216272,8.450798612853495,-30,-12,-30,435,120,251417.99999999997,68,84.5,0,0,5,0,0,0
1778196555.0179641,8.753336191177368,wait_slave,2,-0.010258402724090612,1.3250245645084482,3.756498815188052,0.012285602741261892,1.3308775844703291,3.765025403008664,2,-2.2544005465352503,-0.5853019961880923,-0.8526587820611997,2.480307894110384,5,8,17,438,120,251421.0,68,84.5,0,0,5,0,0,0
1778196555.089014,8.82438611984253,wait_slave,2,-0.010258402724090612,1.3250245645084482,3.756498815188052,0.018390900337329263,1.326302924421801,3.7692313627141436,2,-2.8649303061419875,-0.1278359913352789,-1.2732547526091764,3.137729332618311,-3,0,-3,442,120,251421.0,68,84.5,0,0,5,0,0,0
1778196555.160824,8.896196126937866,wait_slave,2,-0.010258402724090612,1.3250245645084482,3.756498815188052,0.018390900337329263,1.326302924421801,3.7692313627141436,2,-2.8649303061419875,-0.1278359913352789,-1.2732547526091764,3.137729332618311,-1,-1,-5,445,120,251421.0,68,83.5,0,0,5,0,0,0
1778196555.2311082,8.966480255126953,wait_slave,2,-0.010258402724090612,1.3250245645084482,3.756498815188052,-0.04390541644575929,1.3248985311446635,3.7321704699221714,2,3.364701372166868,0.012603336378469443,2.4328345265880458,4.152114883009423,24,-16,-4,449,120,251427.0,68,83.5,0,0,5,0,0,0
1778196555.301242,9.036614179611206,wait_slave,2,-0.010258402724090612,1.3250245645084482,3.756498815188052,-0.06143581803825282,1.263226741376101,3.75759976664392,2,5.117741531416221,6.179782313234727,-0.11009514558679712,8.024531684929219,9,6,21,453,120,251427.0,68,83.5,0,0,5,0,0,0
1778196555.3730729,9.108444929122925,wait_slave,2,-0.010258402724090612,1.3250245645084482,3.756498815188052,-0.04390541644575929,1.3248985311446635,3.7321704699221714,2,3.364701372166868,0.012603336378469443,2.4328345265880458,4.152114883009423,-4,-12,-26,456,120,251429.0,68,83.5,0,0,5,0,0,0
1778196555.4443579,9.17972993850708,wait_slave,2,-0.010258402724090612,1.3250245645084482,3.756498815188052,0.03552269146243525,1.4634353902254102,3.71645388820973,2,-4.578109418652587,-13.841082571696205,4.004492697832163,15.118551993251836,-30,-10,-30,460,120,251427.0,68,83.5,0,0,5,0,0,0
1778196555.515754,9.251126050949097,wait_slave,2,-0.010258402724090612,1.3250245645084482,3.756498815188052,-0.04996328178817322,1.332749242130855,3.7467522587026845,2,3.9704879064082608,-0.7724677622406917,0.9746556485367375,4.160701177909796,30,7,30,463,120,251427.0,68,83.5,0,0,5,0,0,0
1778196555.5870059,9.322377920150757,wait_slave,2,-0.010258402724090612,1.3250245645084482,3.756498815188052,0.019970243624273798,1.4007506695019236,3.7501075769220913,2,-3.022864634836441,-7.572610499347543,0.6391238265960553,8.178668573863126,-26,-1,-30,467,120,251419.99999999997,68,83.5,0,0,5,0,0,0
1778196555.658251,9.393623113632202,wait_slave,2,-0.010258402724090612,1.3250245645084482,3.756498815188052,0.0249543457593,1.3972661444109438,3.753770703658696,2,-3.5212748483390612,-7.224157990249558,0.27281115293558145,8.041284794782353,-3,-1,-9,470,120,251427.0,68,83.5,0,-1,5,0,0,0
1778196555.7300422,9.46541428565979,wait_slave,2,-0.010258402724090612,1.3250245645084482,3.756498815188052,-0.06415263904023538,1.2701870633992187,3.7740252632154543,2,5.389423631614477,5.483750110922947,-1.7526448027402441,7.88601078902536,30,5,30,474,120,251427.0,68,83.5,0,-1,5,0,0,0
1778196555.799377,9.534749031066895,wait_slave,2,-0.010258402724090612,1.3250245645084482,3.756498815188052,0.024405629720115618,1.3971308105599212,3.7532666505201364,2,-3.466403244420623,-7.210624605147298,0.3232164667915427,8.007092327036741,-30,-9,-30,477,120,251428.00000000003,68,83.5,0,0,5,0,0,0
1778196555.86947,9.604841947555542,wait_slave,2,-0.010258402724090612,1.3250245645084482,3.756498815188052,0.09664648052852287,1.5391485902444781,3.7267672085763452,2,-10.690488325261347,-21.412402573602996,2.9731606611706596,24.116741258381534,-30,-13,-30,481,120,251431.0,68,83.5,0,-1,5,0,0,0
1778196555.9402418,9.67561388015747,wait_slave,2,-0.010258402724090612,1.3250245645084482,3.756498815188052,-0.05171398802532079,1.3366362224961104,3.743896803362678,2,4.145558530123018,-1.1611657987662172,1.2602011825373793,4.4857628737338215,30,3,30,484,120,251427.0,68,83.5,0,0,5,0,0,0
1778196556.010484,9.745856046676636,wait_slave,2,-0.010258402724090612,1.3250245645084482,3.756498815188052,0.0007003103706895164,1.2608171097747363,3.795821276392469,2,-1.0958713094780128,6.420745473371192,-3.932246120441718,7.608512726708332,-19,18,25,488,120,251427.0,68,83.5,0,0,5,0,0,0
1778196556.081492,9.816864013671875,wait_slave,2,-0.010258402724090612,1.3250245645084482,3.756498815188052,-0.08351698062531776,1.1988716278607372,3.7794435039349334,2,7.325857790122716,12.615293664771098,-2.2944688746881603,14.767478255491973,30,-6,25,492,120,251426.00000000003,68,83.5,0,-1,5,0,0,0
1778196556.1535099,9.888881921768188,wait_slave,2,-0.010258402724090612,1.3250245645084482,3.756498815188052,-0.06556034831549296,1.2706484878949578,3.7720087856311357,2,5.530194559140234,5.437607661349042,-1.5509970443083887,7.90924906499722,-2,-3,-26,495,120,251419.0,68,83.5,0,-1,5,0,0,0
1778196556.2240808,9.959452867507935,wait_slave,2,-0.010258402724090612,1.3250245645084482,3.756498815188052,-0.08437626382502916,1.1994607782068276,3.777996918230692,2,7.411786110093856,12.556378630162058,-2.1498103042639993,14.738348007496981,11,1,28,499,120,251419.0,68,83.5,0,-1,5,0,0,0
1778196556.296715,10.032087087631226,wait_slave,2,-0.010258402724090612,1.3250245645084482,3.756498815188052,0.009461318936103469,1.3353711134056034,3.780411741034006,2,-1.9719721660194083,-1.034654889715525,-2.391292584595428,3.267639084952407,-30,0,-30,502,120,251426.00000000003,68,83.5,0,0,5,0,0,0
1778196556.368407,10.103779077529907,wait_slave,2,-0.010258402724090612,1.3250245645084482,3.756498815188052,0.009055429774917023,1.3358183801528942,3.7795384702634722,2,-1.9313832499007637,-1.0793815644446036,-2.3039655075420384,3.19430162627194,-1,-1,-6,506,120,251428.00000000003,68,83.5,0,0,5,0,0,0
1778196556.438893,10.174265146255493,wait_slave,2,-0.010258402724090612,1.3250245645084482,3.756498815188052,-0.05318340218198214,1.3383975218462871,3.740325786994462,2,4.292499945789153,-1.3372957337838942,1.61730281935899,4.778031401498218,24,-17,-7,509,120,251428.00000000003,68,83.5,0,0,5,0,0,0
1778196556.5086029,10.243974924087524,wait_slave,2,-0.010258402724090612,1.3250245645084482,3.756498815188052,-0.0708382686014084,1.2651157823310486,3.7725794072144017,2,6.057986587731779,5.990878217739959,-1.6080592026349816,8.670390862937397,9,10,25,513,120,251423.0,68,83.5,0,0,5,0,0,0
1778196556.5798411,10.315213203430176,wait_slave,2,-0.010258402724090612,1.3250245645084482,3.756498815188052,-0.04911044835357403,1.4022817865434876,3.7284168465275087,2,3.885204562948342,-7.7257222035039375,2.8081968660543133,9.09217068142617,-5,-19,-30,516,120,251423.0,68,83.5,0,0,5,0,0,0
1778196556.651819,10.3871910572052,wait_slave,2,-0.010258402724090612,1.3250245645084482,3.756498815188052,0.009720284819440539,1.3369519334637534,3.779209577563429,2,-1.9978687543531153,-1.1927368955305218,-2.271076237537706,3.2514440081737033,-21,16,16,520,120,251417.0,68,83.5,0,0,5,0,0,0
1778196556.732449,10.46782112121582,wait_slave,2,-0.010258402724090612,1.3250245645084482,3.756498815188052,-0.06923010974771326,1.2727629888946415,3.7680555361347787,2,5.897170702362265,5.226157561380673,-1.1556720946726884,7.9639765908484055,28,-5,18,524,120,251417.0,68,83.5,0,0,5,0,0,0
1778196556.801117,10.536489009857178,wait_slave,2,-0.010258402724090612,1.3250245645084482,3.756498815188052,-0.15136728146241651,1.2120178176630847,3.752400575712152,2,14.110887873832588,11.30067468453635,0.4098239475899934,18.0828747875335,30,-8,24,527,120,251417.0,68,83.5,0,0,5,0,0,0
1778196556.8702981,10.60567021369934,wait_slave,2,-0.010258402724090612,1.3250245645084482,3.756498815188052,-0.07071783781504859,1.2656323322058736,3.772226915814489,2,6.045943509095798,5.939223230257462,-1.5728100626437147,8.619833930370167,-25,5,-20,531,120,251426.00000000003,68,83.5,0,0,5,0,0,0
1778196556.941615,10.676987171173096,wait_slave,2,-0.010258402724090612,1.3250245645084482,3.756498815188052,-0.07038596490564664,1.268665062027722,3.7713606289433494,2,6.0127562181556025,5.635950248072619,-1.4861813755297604,8.374121304273672,3,-1,-2,535,120,251426.00000000003,68,83.5,0,0,5,0,0,0
1778196557.012753,10.748125076293945,wait_slave,2,-0.010258402724090612,1.3250245645084482,3.756498815188052,-0.07038596490564664,1.268665062027722,3.7713606289433494,2,6.0127562181556025,5.635950248072619,-1.4861813755297604,8.374121304273672,3,-1,-1,538,120,251417.0,68,83.5,0,0,5,0,0,0
1778196557.084382,10.819754123687744,wait_slave,2,-0.010258402724090612,1.3250245645084482,3.756498815188052,-0.0654202503529353,1.269873050925752,3.7713149145239755,2,5.516184762884469,5.51515135826961,-1.481609933592365,7.9397957680422415,1,-1,-1,542,120,251427.0,68,83.5,0,0,5,0,0,0
1778196557.1547132,10.890085220336914,wait_slave,2,-0.010258402724090612,1.3250245645084482,3.756498815188052,0.07580607360235136,1.341099846968585,3.8149043235985554,2,-8.606447632644198,-1.6075282460136897,-5.8405508410503515,10.524596051254068,-30,16,-30,545,120,251427.0,68,83.5,0,0,5,0,0,0
1778196557.224884,10.960256099700928,wait_slave,2,-0.010258402724090612,1.3250245645084482,3.756498815188052,-0.09131924013382164,1.2047368289113711,3.7948093404346355,2,8.106083740973103,12.028773559707705,-3.8310525246583627,15.00256479449707,30,-6,30,549,120,251425.0,68,84.5,0,0,5,0,0,0
1778196557.2974029,11.032774925231934,wait_slave,2,-0.010258402724090612,1.3250245645084482,3.756498815188052,-0.0909128100475105,1.1995116080878123,3.796842559350603,2,8.06544073234199,12.551295642063586,-4.034374416255115,15.455178207705645,5,0,5,552,120,251429.0,68,84.5,0,0,5,0,0,0
1778196557.368324,11.10369610786438,wait_slave,2,-0.010258402724090612,1.3250245645084482,3.756498815188052,0.011170086296274917,1.3317879945283098,3.7823232515861336,2,-2.142848902036553,-0.6763430019861572,-2.582443639808174,3.423193892562996,-30,-5,-30,556,120,251427.0,68,84.5,0,-1,5,0,0,0
1778196557.438987,11.17435908317566,wait_slave,2,-0.010258402724090612,1.3250245645084482,3.756498815188052,0.01438103139818514,1.3321228208889115,3.783429780856372,2,-2.463943412227575,-0.7098256380463352,-2.6930965668320095,3.7185533065118093,-2,0,-5,559,120,251427.0,68,84.5,0,-1,5,0,0,0
1778196557.509023,11.244395017623901,wait_slave,2,-0.010258402724090612,1.3250245645084482,3.756498815188052,-0.07076233823915645,1.2671018655785105,3.7724502871944066,2,6.050393551506584,5.792269892993773,-1.5951472006354717,8.526555414297718,30,-5,22,563,120,251417.99999999997,68,84.5,0,0,5,0,0,0
1778196557.5809228,11.31629490852356,wait_slave,2,-0.010258402724090612,1.3250245645084482,3.756498815188052,0.009461318936103469,1.3353711134056034,3.780411741034006,2,-1.9719721660194083,-1.034654889715525,-2.391292584595428,3.267639084952407,-28,2,-29,566,120,251417.0,68,84.5,0,0,5,0,0,0
1778196557.652488,11.38786005973816,wait_slave,2,-0.010258402724090612,1.3250245645084482,3.756498815188052,-0.1520545272710465,1.2099624324682603,3.753694869795993,2,14.17961245469559,11.506213204018788,0.2803945392058971,18.262885115975273,30,-11,30,570,120,251414.0,68,84.5,0,0,5,0,0,0
1778196557.7221398,11.457511901855469,wait_slave,2,-0.010258402724090612,1.3250245645084482,3.756498815188052,-0.06978881043389062,1.2706397970227905,3.7695051914246904,2,5.953040770980001,5.438476748565768,-1.3006376236638584,8.16745872311153,-25,4,-22,574,120,251419.99999999997,68,84.5,0,0,5,0,0,0
1778196557.793867,11.529239177703857,wait_slave,2,-0.010258402724090612,1.3250245645084482,3.756498815188052,0.00935100565736402,1.334830918869383,3.7808232408280853,2,-1.9609408381454634,-0.9806354360934799,-2.4324425640033454,3.27470787344521,-27,3,-27,577,120,251419.99999999997,68,84.5,0,0,5,0,0,0
1778196557.865898,11.601269960403442,wait_slave,2,-0.010258402724090612,1.3250245645084482,3.756498815188052,-0.05237476242848338,1.3329523283090277,3.7437615511788427,2,4.211635970439277,-0.7927763800579468,1.273726400920916,4.470878088326578,24,-15,-4,581,120,251416.0,68,84.5,0,0,5,0,0,0
1778196557.936555,11.671926975250244,wait_slave,2,-0.010258402724090612,1.3250245645084482,3.756498815188052,0.000619559886772425,1.2568576350044198,3.796258128423182,2,-1.0877962610863037,6.816692950402836,-3.975931323513038,7.9660927295002795,-18,18,27,584,120,251419.0,68,84.5,0,-1,5,0,0,0
1778196558.006617,11.741989135742188,wait_slave,2,-0.010258402724090612,1.3250245645084482,3.756498815188052,0.009878159635690054,1.3349087134836704,3.781311087670582,2,-2.0136562359780665,-0.9884148975222162,-2.481227248253015,3.3448862617151027,-4,-5,-30,588,120,251419.0,68,84.5,0,-1,5,0,0,0
1778196558.078382,11.813754081726074,wait_slave,2,-0.010258402724090612,1.3250245645084482,3.756498815188052,0.009878159635690054,1.3349087134836704,3.781311087670582,2,-2.0136562359780665,-0.9884148975222162,-2.481227248253015,3.3448862617151027,0,0,-5,591,120,251423.0,68,84.5,0,-1,5,0,0,0
1778196558.150152,11.885524034500122,wait_slave,2,-0.010258402724090612,1.3250245645084482,3.756498815188052,-0.08013241024703555,1.1953190401791574,3.7812905481820787,2,6.987400752294494,12.970552432929082,-2.4791732994026816,14.940056892026865,30,0,30,595,120,251423.0,68,84.0,0,0,5,0,0,0
1778196558.220413,11.955785036087036,wait_slave,2,-0.010258402724090612,1.3250245645084482,3.756498815188052,0.01296876975297978,1.3262932141382393,3.7655532221657384,2,-2.3227172477070392,-0.12686496297911187,-0.9054406977686558,2.4961836849084738,-30,-7,-30,598,120,251423.0,68,84.0,0,0,5,0,0,0
1778196558.292584,12.027956008911133,wait_slave,2,-0.010258402724090612,1.3250245645084482,3.756498815188052,-0.06272627439202982,1.264178481612491,3.755235369903838,2,5.246787166793921,6.0846082895957165,0.12634452842137378,8.035371587631298,29,-5,21,602,120,251423.99999999997,68,84.0,0,0,5,0,0,0
1778196558.3652139,12.1005859375,wait_slave,2,-0.010258402724090612,1.3250245645084482,3.756498815188052,0.01699296301519848,1.3276296872221027,3.7664541788710446,2,-2.7251365739289093,-0.26051227136545396,-0.9955363682992768,2.9129587451083987,-28,2,-26,606,120,251421.99999999997,68,84.0,0,0,5,0,0,0
1778196558.436078,12.171450138092041,wait_slave,2,-0.010258402724090612,1.3250245645084482,3.756498815188052,-0.04902392712261294,1.3300798205015345,3.7263242631054045,2,3.876552439852233,-0.5055255993086316,3.01745520826473,4.9384462014245525,26,-18,-5,609,120,251426.00000000003,68,84.0,0,0,5,0,0,0
1778196558.507194,12.242566108703613,wait_slave,2,-0.010258402724090612,1.3250245645084482,3.756498815188052,-0.051218506786249396,1.3393064683083646,3.7418498745587074,2,4.096010406215878,-1.428190379991645,1.464894062934441,4.578530727749898,3,2,-8,613,120,251426.00000000003,68,84.0,0,0,5,0,0,0
1778196558.5784261,12.313798189163208,wait_slave,2,-0.010258402724090612,1.3250245645084482,3.756498815188052,-0.0572374240923994,1.2619132309318173,3.7584706466749496,2,4.697902136830879,6.31113335766309,-0.19718314868977238,7.870169625845122,5,3,27,616,120,251419.99999999997,68,84.0,0,0,5,0,0,0
1778196558.649483,12.384855031967163,wait_slave,2,-0.010258402724090612,1.3250245645084482,3.756498815188052,0.017172329093299354,1.3382935538865435,3.760214375715629,2,-2.7430731817389966,-1.3268989378095286,-0.37155605275773773,3.0697174416999147,-27,-1,-30,620,120,251417.0,68,84.0,0,0,5,0,0,0
1778196558.720343,12.45571517944336,wait_slave,2,-0.010258402724090612,1.3250245645084482,3.756498815188052,-0.05062936901015336,1.3404802826530073,3.7415468690396674,2,4.037096628606275,-1.545571814455915,1.4951946148384465,4.574117221780241,26,-9,-6,623,120,251417.0,68,84.0,0,0,5,0,0,0
1778196558.7900631,12.525435209274292,wait_slave,2,-0.010258402724090612,1.3250245645084482,3.756498815188052,-0.06529564144542088,1.271054421373333,3.751282187894139,2,5.503723872133027,5.397014313511517,0.5216627293912701,7.725986795495518,9,1,23,627,120,251417.0,68,84.0,0,0,5,0,0,0
1778196558.862108,12.597480058670044,wait_slave,2,-0.010258402724090612,1.3250245645084482,3.756498815188052,-0.050596656402369655,1.3409928738422747,3.7411557749504265,2,4.033825367827904,-1.5968309333826536,1.5343040237625338,4.601706744814748,-2,-6,-29,631,120,251419.99999999997,68,84.0,0,0,5,0,0,0
1778196558.935316,12.670688152313232,wait_slave,2,-0.010258402724090612,1.3250245645084482,3.756498815188052,-0.06475688594074769,1.2717497653960632,3.7514082094620425,2,5.449848321665708,5.327479911238497,0.509060572600939,7.638195572279429,8,1,23,634,120,251419.99999999997,68,84.0,0,0,5,0,0,0
1778196559.006523,12.741894960403442,wait_slave,2,-0.010258402724090612,1.3250245645084482,3.756498815188052,-0.06076218840177683,1.267737976258677,3.7545169757585866,2,5.050378567768622,5.728658824977129,0.1981839429465282,7.639576721651979,2,-1,1,638,120,251415.0,68,84.0,0,-1,5,0,0,0
1778196559.076687,12.812059164047241,wait_slave,2,-0.010258402724090612,1.3250245645084482,3.756498815188052,-0.05056634073580568,1.3420000790613185,3.7403885891222655,2,4.030793801171507,-1.6975514552870274,1.6110226065786382,4.660941262214874,0,-8,-30,641,120,251423.0,68,84.0,0,0,5,0,0,0
1778196559.14786,12.883232116699219,wait_slave,2,-0.010258402724090612,1.3250245645084482,3.756498815188052,-0.06073440212305736,1.2682745361425332,3.7541513991854925,2,5.047599939896675,5.675002836591503,0.23474160025593882,7.598620004149256,7,2,25,645,120,251411.0,68,83.5,0,0,5,0,0,0
1778196559.21877,12.954142093658447,wait_slave,2,-0.010258402724090612,1.3250245645084482,3.756498815188052,-0.05056882148129804,1.342494289706326,3.7400126995725245,2,4.031041875720743,-1.7469725197877706,1.6486115615527375,4.692454759461533,0,-8,-30,648,120,251411.0,68,83.5,0,0,5,0,0,0
1778196559.290326,13.025698184967041,wait_slave,2,-0.010258402724090612,1.3250245645084482,3.756498815188052,-0.061190298035746826,1.2686436910419356,3.75331132855038,2,5.0931895311656215,5.638087346651255,0.3187486637671988,7.604617626120161,7,2,25,652,120,251417.99999999997,68,83.5,0,0,5,0,0,0
1778196559.361759,13.09713101387024,wait_slave,2,-0.010258402724090612,1.3250245645084482,3.756498815188052,-0.06118124958562321,1.2691579519387388,3.752961186043486,2,5.09228468615326,5.586661256970937,0.35376291445659014,7.5675158093403345,3,-2,0,656,120,251423.99999999997,68,83.5,0,0,5,0,0,0
1778196559.4341388,13.169510841369629,wait_slave,2,-0.010258402724090612,1.3250245645084482,3.756498815188052,-0.05147545825711908,1.3430665589090052,3.738400385730107,2,4.121705553302847,-1.8041994400556982,1.8098429457944931,4.84965192318654,0,-8,-30,659,120,251423.99999999997,68,83.5,0,0,5,0,0,0
1778196559.504927,13.240298986434937,wait_slave,2,-0.010258402724090612,1.3250245645084482,3.756498815188052,-0.06207645810999174,1.2693309971795563,3.7517088445740456,2,5.181805538590113,5.569356732889186,0.47899706140062115,7.62222285444159,7,2,25,663,120,251429.0,68,83.5,0,0,5,0,0,0
1778196559.5750132,13.31038522720337,wait_slave,2,-0.010258402724090612,1.3250245645084482,3.756498815188052,-0.04963660688264104,1.3341319933379279,3.722128556304745,2,3.937820415855043,-0.910742882947968,3.4370258883306803,5.305565868351882,-1,-14,-27,666,120,251417.0,68,83.5,0,0,5,0,0,0
1778196559.645403,13.380774974822998,wait_slave,2,-0.010258402724090612,1.3250245645084482,3.756498815188052,-0.06292408308874231,1.2694943179707576,3.7505207730081445,2,5.26656803646517,5.553024653769056,0.5978042179907384,7.676600261257002,8,7,22,670,120,251417.0,68,83.5,0,0,5,0,0,0
1778196559.71714,13.45251202583313,wait_slave,2,-0.010258402724090612,1.3250245645084482,3.756498815188052,-0.06333325032908621,1.2693490594511712,3.750103390284903,2,5.30748476049956,5.567550505727703,0.6395424903149038,7.7185508817188,4,-2,0,673,120,251419.0,68,83.5,0,0,5,0,0,0
1778196559.788171,13.523543119430542,wait_slave,2,-0.010258402724090612,1.3250245645084482,3.756498815188052,-0.12633493902167614,1.267617326718707,3.7121593925990117,2,11.607653629758554,5.740723778974122,4.433942258904011,13.687708948184888,30,-18,0,677,120,251417.99999999997,68,83.5,0,0,5,0,0,0
1778196559.85939,13.594762086868286,wait_slave,2,-0.010258402724090612,1.3250245645084482,3.756498815188052,-0.04671829040231623,1.330625298233346,3.723492155547747,2,3.645988767822562,-0.5600733724897777,3.3006659640304914,4.949880007007209,-24,0,-26,680,120,251417.99999999997,68,83.5,0,0,5,0,0,0
1778196559.931089,13.666460990905762,wait_slave,2,-0.010258402724090612,1.3250245645084482,3.756498815188052,-0.0644872397582541,1.2693824335882287,3.748618057628722,2,5.422883703416349,5.564213092021952,0.7880757559330043,7.809558143153586,10,6,21,684,120,251423.0,68,83.5,0,0,5,0,0,0
1778196560.000885,13.736257076263428,wait_slave,2,-0.010258402724090612,1.3250245645084482,3.756498815188052,-0.1452338591456217,1.204539985541398,3.734666014773992,2,13.497545642153108,12.048457896705012,2.183280041405977,18.22404422157391,30,-8,27,687,120,251419.99999999997,68,83.5,0,0,5,0,0,0
1778196560.071157,13.80652904510498,wait_slave,2,-0.010258402724090612,1.3250245645084482,3.756498815188052,-0.1282417332386212,1.271728953632298,3.7086244459608944,2,11.79833305145306,5.32956108761502,4.787436922715749,13.803058953312194,2,-14,-24,691,120,251426.00000000003,68,83.5,0,0,5,0,0,0
1778196560.141068,13.876440048217773,wait_slave,2,-0.010258402724090612,1.3250245645084482,3.756498815188052,-0.1277026202180236,1.267553371052276,3.710332711284553,2,11.744421749393299,5.747119345617224,4.616610390349862,13.866286975851768,8,-4,1,694,120,251426.00000000003,68,83.5,0,0,5,0,0,0
1778196560.210641,13.9460129737854,wait_slave,2,-0.010258402724090612,1.3250245645084482,3.756498815188052,-0.052281480280433446,1.3338656296479185,3.718862509437375,2,4.202307755634283,-0.8841065139470361,3.763630575067678,5.710161986025605,-23,-1,-28,698,120,251419.99999999997,68,83.5,0,0,5,0,0,0
1778196560.2813509,14.016722917556763,wait_slave,2,-0.010258402724090612,1.3250245645084482,3.756498815188052,-0.06521505373668202,1.2691529898781182,3.747872931041003,2,5.49566510125914,5.587157463032999,0.862588414704879,7.884333972829033,9,7,22,702,120,251423.0,68,83.5,0,0,5,0,0,0
1778196560.35113,14.086502075195312,wait_slave,2,-0.010258402724090612,1.3250245645084482,3.756498815188052,-0.05846385836838963,1.260351820790925,3.7340498276425778,2,4.820545564429902,6.4672743717523185,2.2448987545474086,8.372745532765084,1,-8,3,705,120,251423.0,68,83.5,0,0,5,0,0,0
1778196560.421293,14.156665086746216,wait_slave,2,-0.010258402724090612,1.3250245645084482,3.756498815188052,-0.07837372280457844,1.1931945567708286,3.7586842480450016,2,6.811532008048784,13.183000773761954,-0.21854328569497206,14.840358448009392,12,6,29,709,120,251421.99999999997,68,83.5,0,0,5,0,0,0
1778196560.493537,14.228909015655518,wait_slave,2,-0.010258402724090612,1.3250245645084482,3.756498815188052,-0.12865044972352657,1.2708792805163056,3.708784605946862,2,11.839204699943597,5.414528399214258,4.771420924118974,13.865437005308726,25,-22,-26,712,120,251436.0,68,83.5,0,0,5,0,0,0
1778196560.565398,14.300770044326782,wait_slave,2,-0.010258402724090612,1.3250245645084482,3.756498815188052,-0.058543597996568275,1.2595639815205608,3.734597208827831,2,4.828519527247766,6.546058298788737,2.190160636022087,8.423911424494833,-20,5,4,716,120,251436.0,68,83.5,0,0,5,0,0,0
