timestamp,elapsed,target_x,target_y,target_z,pos_x,pos_y,pos_z,marker_id,err_x_cm,err_y_cm,err_z_cm,err_3d_cm,cmd_lr,cmd_fb,cmd_ud,feedback,tello_height_cm,tello_baro_cm,tello_battery,tello_temp_c,tello_pitch,tello_roll,tello_yaw,tello_vgx,tello_vgy,tello_vgz,tello_agx,tello_agy,tello_agz,perturbation
1777593978.174659,9.5367431640625e-07,1.0423149158017695,1.2666830033646022,2.85153953025697,1.0260165192605024,1.258906534414932,2.856143872904777,2,1.629839654126708,0.7776468949670212,-0.4604342647806625,1.86362863886554,9,2,4,ok,60,252556.0,69,79.0,0,0,5,0,0,0,-16.0,49.0,-1012.0,0
1777593978.247181,0.07252287864685059,1.0423149158017695,1.2666830033646022,2.85153953025697,0.9914637589919936,1.2967271333523924,2.8554657543179416,2,5.085115680977593,-3.004412998779027,-0.39262240609714283,5.919379301069166,15,0,-15,ok,60,252552.0,69,79.0,0,0,5,0,0,0,-11.0,-25.0,-974.0,0
1777593978.3182971,0.14363908767700195,1.0423149158017695,1.2666830033646022,2.85153953025697,1.0255848344508582,1.2651228119778237,2.8655910989295816,2,1.6730081350911252,0.15601913867784312,-1.405156867261148,2.1903798787712656,-10,4,11,ok,60,252552.0,69,79.0,0,0,5,0,0,0,-11.0,-25.0,-974.0,0
1777593978.3891652,0.2145071029663086,1.0423149158017695,1.2666830033646022,2.85153953025697,1.0240578961089384,1.2658763255146406,2.8653722767847842,2,1.8257019692831111,0.0806677849961579,-1.3832746527814077,2.2919737645112654,1,0,0,ok,60,252558.0,69,79.0,0,0,5,0,0,0,-26.0,3.0,-1023.0,0
1777593978.460376,0.2857179641723633,1.0423149158017695,1.2666830033646022,2.85153953025697,1.0218139158854105,1.3271368828583605,2.836644588653691,2,2.050099991635901,-6.045387949375836,1.489494160327931,6.555014743523854,2,-10,-25,ok,60,252554.0,69,79.0,0,0,5,0,0,0,-10.0,-6.0,-1013.0,0
1777593978.531569,0.35691094398498535,1.0423149158017695,1.2666830033646022,2.85153953025697,1.0196888587783801,1.2677661140187508,2.865575311974118,2,2.262605702338938,-0.10831106541486779,-1.40357817171477,2.6647978413497255,2,10,20,ok,60,252555.00000000003,69,79.0,0,0,5,0,0,0,-13.0,0.0,-998.0,0
1777593978.602685,0.4280269145965576,1.0423149158017695,1.2666830033646022,2.85153953025697,1.0192840426636625,1.3815535246495991,2.8078715870606263,2,2.3030873138107033,-11.487052128499698,4.366794319634382,12.503018451873785,1,-22,-30,ok,60,252555.00000000003,69,79.0,0,0,5,0,0,0,-13.0,0.0,-998.0,0
1777593978.673185,0.49852705001831055,1.0423149158017695,1.2666830033646022,2.85153953025697,1.0197670433725796,1.3866755508233197,2.817001076397359,2,2.2547872429189875,-11.999254745871756,3.4538453859611185,12.688389492653549,1,1,-10,ok,60,252552.0,69,79.0,0,0,5,0,0,0,29.0,2.0,-1028.0,0
1777593978.744737,0.5700788497924805,1.0423149158017695,1.2666830033646022,2.85153953025697,0.9872231943419479,1.3006971145264603,2.855708099127064,2,5.509172145982156,-3.401411116185815,-0.41685688700936474,6.4880154885469565,14,13,27,ok,60,252555.00000000003,69,79.0,0,0,5,0,0,0,12.0,-4.0,-1012.0,0
1777593978.8153448,0.6406867504119873,1.0423149158017695,1.2666830033646022,2.85153953025697,0.9848193730518928,1.3573978085818978,2.8270325862949863,2,5.749554274987667,-9.071480521729569,2.450694396198383,11.016126190304199,4,-11,-26,ok,60,252555.00000000003,69,79.0,0,0,5,0,0,0,12.0,-4.0,-1012.0,0
1777593978.887887,0.7132289409637451,1.0423149158017695,1.2666830033646022,2.85153953025697,1.050283355963502,1.2998900323130553,2.855149633156022,2,-0.7968440161732593,-3.3207028948453177,-0.3610102899052059,3.434000077367885,-23,9,17,ok,60,252557.00000000003,69,79.0,0,0,5,0,0,0,3.0,30.0,-1000.0,0
1777593978.9598541,0.78519606590271,1.0423149158017695,1.2666830033646022,2.85153953025697,1.016395046210125,1.3293414403015462,2.8459243462040678,2,2.5919869591644495,-6.265843693694406,0.56151840529024,6.804005916353118,13,-3,-15,ok,60,252564.0,69,79.0,0,0,5,0,0,0,-21.0,20.0,-996.0,0
1777593979.032094,0.857435941696167,1.0423149158017695,1.2666830033646022,2.85153953025697,1.0146153402791185,1.3833929732703467,2.8173539906820175,2,2.769957552265101,-11.670996990574455,3.418553957495263,12.47282432954361,2,-11,-27,ok,60,252564.0,69,79.0,0,0,5,0,0,0,-21.0,20.0,-996.0,0
1777593979.104407,0.9297490119934082,1.0423149158017695,1.2666830033646022,2.85153953025697,0.983896926350115,1.3534259167638218,2.8271471546565783,2,5.8417989451654435,-8.674291339921968,2.439237560039187,10.738706860692645,14,1,3,ok,60,252560.0,69,79.0,0,0,5,0,0,0,-22.0,19.0,-971.0,0
1777593979.175765,1.0011069774627686,1.0423149158017695,1.2666830033646022,2.85153953025697,0.985424739052246,1.295577122622372,2.856214536195393,2,5.689017674952346,-2.8894119257769857,-0.46750059384228493,6.397826208016701,3,10,17,ok,60,252558.0,69,79.0,0,0,5,0,0,0,-11.0,26.0,-975.0,0
1777593979.247433,1.072774887084961,1.0423149158017695,1.2666830033646022,2.85153953025697,1.018541858924832,1.3215009640406046,2.8370579292620937,2,2.3773056876937426,-5.481796067600242,1.4481600994876498,6.148075970028882,-9,-7,-13,ok,60,252562.0,69,79.0,0,0,5,0,0,0,-6.0,-3.0,-994.0,0
1777593979.3214238,1.1467657089233398,1.0423149158017695,1.2666830033646022,2.85153953025697,0.9861150522224676,1.3501616574795603,2.8273137662415646,2,5.619986357930184,-8.347865411495814,2.422576401540555,10.35084441063002,14,-4,-16,ok,60,252562.0,69,79.0,0,0,5,0,0,0,-6.0,-3.0,-994.0,0
1777593979.3929641,1.218306064605713,1.0423149158017695,1.2666830033646022,2.85153953025697,0.9860236157858634,1.348937591478407,2.8271623346513137,2,5.62913000159061,-8.22545881138048,2.437719560565643,10.260982111303413,3,-1,-6,ok,60,252560.0,69,79.0,0,0,5,0,0,0,-31.0,21.0,-1021.0,0
1777593979.463817,1.289158821105957,1.0423149158017695,1.2666830033646022,2.85153953025697,1.0130308853324101,1.3721890866578272,2.808894387794479,2,2.9284030469359346,-10.550608329322507,4.264514246249096,11.750615400077336,-7,-9,-16,ok,60,252553.00000000003,69,78.5,0,0,5,0,0,0,-45.0,20.0,-992.0,0
1777593979.532681,1.358022928237915,1.0423149158017695,1.2666830033646022,2.85153953025697,0.9521111553333977,1.317353940107258,2.8362092467181728,2,9.020376046837175,-5.067093674265588,1.5330283538797396,10.459101216831943,27,8,15,ok,60,252553.00000000003,69,78.5,0,0,5,0,0,0,-45.0,20.0,-992.0,0
1777593979.603491,1.4288330078125,1.0423149158017695,1.2666830033646022,2.85153953025697,1.0168782980822235,1.3148064429641302,2.8373771240401444,2,2.5436617719545973,-4.812343959952803,1.416240621682574,5.624465049895969,-21,0,-3,ok,60,252548.0,69,78.5,0,0,5,0,0,0,-24.0,11.0,-980.0,0
1777593979.6746528,1.4999947547912598,1.0423149158017695,1.2666830033646022,2.85153953025697,1.013171802473461,1.3128285655012966,2.8376182929634424,2,2.9143113328308434,-4.614556213669441,1.3921237293527788,5.6325259050987615,3,0,-3,ok,60,252541.0,69,78.5,0,0,5,0,0,0,-27.0,20.0,-996.0,0
1777593979.7464561,1.5717980861663818,1.0423149158017695,1.2666830033646022,2.85153953025697,1.0135843853154625,1.306641833647192,2.828353958588708,2,2.8730530486307027,-3.995883028258995,2.3185571668262295,5.440332924703757,2,-4,-1,ok,60,252541.0,69,78.5,0,0,5,0,0,0,-27.0,20.0,-996.0,0
1777593979.8189921,1.644334077835083,1.0423149158017695,1.2666830033646022,2.85153953025697,1.0121991887155082,1.3044486537182287,2.8288626661447593,2,3.0115727086261312,-3.7765650353626556,2.2676864112210815,5.336142361791167,2,-1,-2,ok,60,252538.0,69,78.5,0,0,5,0,0,0,-43.0,58.0,-989.0,0
1777593979.889848,1.7151899337768555,1.0423149158017695,1.2666830033646022,2.85153953025697,0.9825171414708135,1.2716038923032569,2.838469515334996,2,5.979777433095601,-0.49208889386547217,1.3070014921974238,6.14069560631623,14,2,10,ok,60,252539.0,69,78.5,0,0,5,0,0,0,10.0,-7.0,-1007.0,0
1777593979.960656,1.7859978675842285,1.0423149158017695,1.2666830033646022,2.85153953025697,0.9459718977833198,1.2444961247284194,2.8560039994341038,2,9.63430180184497,2.218687863618274,-0.4464469177133612,9.896547978741678,19,6,10,ok,60,252537.0,69,78.5,0,0,5,0,0,0,7.0,-22.0,-1016.0,0
1777593980.032299,1.8576409816741943,1.0423149158017695,1.2666830033646022,2.85153953025697,0.9842262514420761,1.3294083048979735,2.8096556447724477,2,5.80886643596934,-6.27253015333713,4.188388548452249,9.519987522484502,-9,-18,-30,ok,60,252537.0,69,78.5,0,0,5,0,0,0,7.0,-22.0,-1016.0,0
1777593980.105272,1.9306139945983887,1.0423149158017695,1.2666830033646022,2.85153953025697,0.982202905753392,1.2711722036848965,2.8381753811870682,2,6.011201004837751,-0.44892003202943176,1.336414906990191,6.174307371628441,4,8,18,ok,60,252541.0,69,78.5,0,0,5,0,0,0,31.0,4.0,-1048.0,0
1777593980.17713,2.002471923828125,1.0423149158017695,1.2666830033646022,2.85153953025697,0.9823621252646267,1.2699295030003204,2.838180034092415,2,5.995279053714276,-0.3246499635718214,1.3359496164555118,6.150896675157204,4,-1,0,ok,60,252538.0,69,78.5,0,0,5,0,0,0,-38.0,43.0,-954.0,0
1777593980.2492108,2.0745527744293213,1.0423149158017695,1.2666830033646022,2.85153953025697,0.9505168494486607,1.2967821438827314,2.8185352105363743,2,9.179806635310882,-3.009914051812923,3.300431972059581,10.20888258641423,17,-9,-12,ok,60,252538.0,69,78.5,0,0,5,0,0,0,-38.0,43.0,-954.0,0
1777593980.320182,2.145524024963379,1.0423149158017695,1.2666830033646022,2.85153953025697,0.9791002159654851,1.2624737738143748,2.8294198293433253,2,6.321469983628436,0.42092295502274,2.21197009136449,6.710511945676828,-5,2,11,ok,60,252554.0,69,78.5,0,0,5,0,0,0,-30.0,12.0,-982.0,0
1777593980.391305,2.216646909713745,1.0423149158017695,1.2666830033646022,2.85153953025697,0.980973100846328,1.1964342934423704,2.857843971255438,2,6.134181495544144,7.024870992223176,-0.6304440998468053,9.347430387046831,3,10,27,ok,60,252553.00000000003,69,78.5,0,0,5,0,0,0,23.0,-4.0,-1003.0,0
1777593980.461909,2.2872509956359863,1.0423149158017695,1.2666830033646022,2.85153953025697,0.9817897153313205,1.1930367301670022,2.858087809181104,2,6.052520047044895,7.364627319759998,-0.654827892413401,9.555078966053513,4,0,5,ok,60,252553.00000000003,69,78.5,0,0,5,0,0,0,23.0,-4.0,-1003.0,0
1777593980.533665,2.359006881713867,1.0423149158017695,1.2666830033646022,2.85153953025697,0.9810701009115197,1.2566582667715034,2.829304086512354,2,6.12448148902498,1.002473659309877,2.2235443744615946,6.592296756989901,4,-11,-22,ok,60,252558.0,69,79.0,0,0,5,0,0,0,3.0,-6.0,-1023.0,0
1777593980.605263,2.430604934692383,1.0423149158017695,1.2666830033646022,2.85153953025697,0.9823399747996795,1.2556244058408605,2.8291715039900684,2,5.997494100209,1.105859752374161,2.236802626690171,6.495856161025339,4,-1,0,ok,60,252553.00000000003,69,79.0,0,0,5,0,0,0,-20.0,20.0,-1028.0,0
1777593980.677331,2.5026729106903076,1.0423149158017695,1.2666830033646022,2.85153953025697,1.0199551079569718,1.2867013549236561,2.8192876857993543,2,2.235980784479774,-2.001835155905396,3.2251844457615864,4.405538419894218,-10,-5,-13,ok,60,252552.0,69,79.0,0,0,5,0,0,0,34.0,0.0,-1032.0,0
1777593980.74929,2.574631929397583,1.0423149158017695,1.2666830033646022,2.85153953025697,0.9854442588302202,1.19048580422151,2.8574684172952587,2,5.6870656971549245,7.619719914309209,-0.5928887038288533,9.526508533109306,16,13,30,ok,60,252552.0,69,79.0,0,0,5,0,0,0,34.0,0.0,-1032.0,0
1777593980.8212092,2.6465511322021484,1.0423149158017695,1.2666830033646022,2.85153953025697,0.9848197861238572,1.2535691032658387,2.8289295452918073,2,5.749512967791226,1.3113900098763454,2.2609984965162866,6.315754691725436,4,-11,-21,ok,60,252551.00000000003,69,79.0,0,0,5,0,0,0,17.0,-20.0,-1004.0,0
1777593980.891783,2.7171249389648438,1.0423149158017695,1.2666830033646022,2.85153953025697,0.9872421634850814,1.1885027633330232,2.8576154574558443,2,5.507275231668807,7.818024003157897,-0.6075927198874176,9.582314370994407,3,10,27,ok,60,252546.99999999997,69,79.0,0,0,5,0,0,0,-12.0,2.0,-988.0,0
1777593980.9643168,2.789658784866333,1.0423149158017695,1.2666830033646022,2.85153953025697,1.0261981228710235,1.1545468383972444,2.8763621999669864,2,1.6116792930745971,11.213616496735778,-2.482266971001623,11.597601234518965,-11,7,18,ok,60,252546.99999999997,69,79.0,0,0,5,0,0,0,-12.0,2.0,-988.0,0
1777593981.036028,2.8613698482513428,1.0423149158017695,1.2666830033646022,2.85153953025697,1.0219910157059922,1.2224116969153176,2.847356899530356,2,2.0323900095777336,4.427130644928456,0.4182630726614178,4.889277952443305,3,-10,-21,ok,60,252541.0,69,79.0,0,0,5,0,0,0,-3.0,-12.0,-1012.0,0
1777593981.107454,2.932796001434326,1.0423149158017695,1.2666830033646022,2.85153953025697,1.0666377152596138,1.1158536044009302,2.884374278937373,2,-2.4322799457844324,15.082939896367197,-3.2834748680402814,15.626652516170653,-16,14,30,ok,60,252538.0,69,79.0,0,0,5,0,0,0,-20.0,-1.0,-1001.0,0
1777593981.17904,3.0043818950653076,1.0423149158017695,1.2666830033646022,2.85153953025697,1.0261418556393314,1.2167865602901262,2.838179238078592,2,1.6173060162438135,4.989644307447594,1.3360292178377975,5.412689085467489,16,-17,-30,ok,60,252538.0,69,79.0,0,0,5,0,0,0,-20.0,-1.0,-1001.0,0
1777593981.250838,3.0761799812316895,1.0423149158017695,1.2666830033646022,2.85153953025697,0.9884920223512844,1.2494211632629262,2.8286305399145535,2,5.382289345048507,1.7261840101675974,2.290899034241667,6.098931727431484,17,-4,-10,ok,60,252550.0,69,79.0,0,0,5,0,0,0,-25.0,18.0,-1008.0,0
1777593981.322892,3.1482338905334473,1.0423149158017695,1.2666830033646022,2.85153953025697,0.9915935432924278,1.1878867527920698,2.8665121905224837,2,5.072137250934173,7.879625057253237,-1.4972660265513582,9.489829971578628,3,13,26,ok,60,252550.0,69,79.0,0,0,5,0,0,0,-25.0,18.0,-1008.0,0
1777593981.393366,3.218708038330078,1.0423149158017695,1.2666830033646022,2.85153953025697,0.9930195612846342,1.2489667780892009,2.8285711346559586,2,4.929535451713529,1.7716225275401287,2.2968395601011604,5.719653670864511,3,-15,-20,ok,60,252551.00000000003,69,79.0,-1,-1,5,0,0,0,-16.0,35.0,-1006.0,0
1777593981.4646652,3.2900071144104004,1.0423149158017695,1.2666830033646022,2.85153953025697,1.026942419178051,1.2766289066714438,2.8097821027093954,2,1.5372496623718535,-0.9945903306841641,4.175742754757472,4.5595146676222384,-9,-9,-10,ok,60,252554.0,69,79.0,0,-1,5,0,0,0,-8.0,11.0,-972.0,0
1777593981.536454,3.3617959022521973,1.0423149158017695,1.2666830033646022,2.85153953025697,1.022925469571548,1.27592358946747,2.8098943544377337,2,1.938944623022154,-0.9240586102867931,4.1645175819236435,4.685786727598988,3,-2,0,ok,60,252535.0,69,79.0,0,0,5,0,0,0,-32.0,13.0,-993.0,0
1777593981.607581,3.432922840118408,1.0423149158017695,1.2666830033646022,2.85153953025697,1.0289883942619518,1.2138523773860457,2.838184466190568,2,1.3326521539817726,5.283062597855648,1.335506406640219,5.609838637478853,0,8,24,ok,60,252535.0,69,79.0,0,0,5,0,0,0,-32.0,13.0,-993.0,0
1777593981.6794932,3.5048351287841797,1.0423149158017695,1.2666830033646022,2.85153953025697,1.026797869296198,1.2134293834067233,2.8382475684053925,2,1.5517046505571397,5.325361995787881,1.329196185157766,5.703860991239223,2,-1,3,ok,60,252544.0,69,79.0,0,0,5,0,0,0,-24.0,16.0,-1009.0,0
1777593981.752819,3.5781610012054443,1.0423149158017695,1.2666830033646022,2.85153953025697,0.9946200878765844,1.1775872087416652,2.847925389299109,2,4.7694827925185095,8.909579462293692,0.3614140957861167,10.112328735345217,14,2,18,ok,50,252536.0,69,79.0,0,0,5,0,0,0,-10.0,14.0,-1017.0,0
1777593981.82481,3.6501519680023193,1.0423149158017695,1.2666830033646022,2.85153953025697,1.0660512198121985,1.1788690117445997,2.8458690036726204,2,-2.3736304010429032,8.781399162000248,0.5670526584349744,9.114199978087594,-25,-1,5,ok,50,252536.0,69,79.0,0,0,5,0,0,0,-10.0,14.0,-1017.0,0
1777593981.895821,3.721163034439087,1.0423149158017695,1.2666830033646022,2.85153953025697,1.03454691692405,1.140178916020102,2.8570226881922687,2,0.7767998877719506,12.650408734450025,-0.5483157935298522,12.68609117986018,12,3,22,ok,50,252534.0,69,79.0,0,0,5,0,0,0,-29.0,9.0,-988.0,0
1777593981.9676712,3.793013095855713,1.0423149158017695,1.2666830033646022,2.85153953025697,0.9968960354090541,1.1765627898904438,2.8478078223101915,2,4.5418880392715355,9.012021347415832,0.3731707946778684,10.098739137613022,17,-3,-6,ok,50,252546.0,69,79.0,0,0,5,0,0,0,-7.0,2.0,-1031.0,0
1777593982.038885,3.864227056503296,1.0423149158017695,1.2666830033646022,2.85153953025697,1.062744969829391,1.2429019184986085,2.8176520771023,2,-2.0430054027621436,2.378108486599362,3.3887453154670233,4.616585953153143,-23,-12,-21,ok,50,252546.0,69,79.0,0,0,5,0,0,0,-7.0,2.0,-1031.0,0
1777593982.109855,3.935196876525879,1.0423149158017695,1.2666830033646022,2.85153953025697,1.0374996626891924,1.143339562708205,2.8662219574321393,2,0.48152531125771336,12.334344065639712,-1.46824271751691,12.430754073365978,10,17,30,ok,50,252548.99999999997,69,79.0,0,0,5,0,0,0,-7.0,16.0,-1033.0,0
1777593982.181964,4.007305860519409,1.0423149158017695,1.2666830033646022,2.85153953025697,1.0299362111273949,1.2082577001355648,2.8287355489511423,2,1.237870467437463,5.842530322903738,2.2803981305827836,6.392784956665519,4,-14,-18,ok,50,252541.0,69,79.0,0,0,5,0,0,0,-16.0,18.0,-986.0,0
1777593982.255221,4.0805628299713135,1.0423149158017695,1.2666830033646022,2.85153953025697,0.7594820659515772,1.1413580582087248,2.790199150100912,3,28.28328498501923,12.532494515587732,6.134038015605814,31.537819371414187,30,-17,30,ok,50,252542.99999999997,69,79.0,0,0,5,0,0,0,-16.0,-12.0,-1000.0,0
1777593982.327318,4.152659893035889,1.0423149158017695,1.2666830033646022,2.85153953025697,0.6710010187952901,1.144413857286767,2.7811203719323716,3,37.131389700647944,12.226914607783513,7.041915832459855,39.72185947962233,30,-7,7,ok,50,252542.99999999997,69,79.0,0,0,5,0,0,0,-16.0,-12.0,-1000.0,0
1777593982.398879,4.2242209911346436,1.0423149158017695,1.2666830033646022,2.85153953025697,0.9060133664071709,0.9998492798186878,2.7818800833232116,3,13.63015493945986,26.68337235459144,6.965944693375858,30.76211743945186,-30,-4,30,ok,50,252532.00000000003,69,79.0,0,0,5,0,0,0,-9.0,8.0,-1001.0,0
1777593982.470845,4.296186923980713,1.0423149158017695,1.2666830033646022,2.85153953025697,0.6566231161751215,1.2291323272513381,2.7841119056726327,3,38.569179962664805,3.7550676113264014,6.742762458433749,39.33378981650408,30,-3,-30,ok,50,252542.99999999997,69,79.5,0,0,5,0,0,0,-19.0,-2.0,-1028.0,0
1777593982.5423172,4.367659091949463,1.0423149158017695,1.2666830033646022,2.85153953025697,0.6624664724667605,1.2321105079293346,2.7861982106443546,3,37.9848443335009,3.4572495435267525,6.534131961261558,38.69749157159533,22,-3,1,ok,50,252542.99999999997,69,79.5,0,0,5,0,0,0,-19.0,-2.0,-1028.0,0
1777593982.613325,4.438667058944702,1.0423149158017695,1.2666830033646022,2.85153953025697,0.8427772422200408,1.0348743077538336,2.7820794556995754,3,19.95376735817287,23.180869561076854,6.946007455739478,31.36483006437199,-30,-6,30,ok,50,252531.0,69,79.5,0,0,5,0,0,0,2.0,7.0,-1008.0,0
1777593982.683576,4.508918046951294,1.0423149158017695,1.2666830033646022,2.85153953025697,0.8392301348719058,1.0369224468521887,2.7903865367420613,3,20.30847809298637,22.976055651241346,6.115299351490888,31.2686792477807,15,-1,16,ok,50,252541.0,69,79.5,0,0,5,0,0,0,-8.0,26.0,-982.0,0
1777593982.7559628,4.5813047885894775,1.0423149158017695,1.2666830033646022,2.85153953025697,0.7805767709497761,1.164087550830653,2.8044288623204894,3,26.173814485199344,10.259545253394919,4.711066793648078,28.504753706115455,30,1,-30,ok,50,252541.0,69,79.5,0,0,5,0,0,0,-8.0,26.0,-982.0,0
1777593982.828567,4.653908967971802,1.0423149158017695,1.2666830033646022,2.85153953025697,0.8574110560349357,1.0443561738385536,2.8020508268462625,3,18.490385976683378,22.232682952604854,4.948870341070766,29.33731212109429,-12,-4,30,ok,50,252542.99999999997,69,79.5,0,0,5,0,0,0,-37.0,12.0,-981.0,0
1777593982.9004831,4.725825071334839,1.0423149158017695,1.2666830033646022,2.85153953025697,0.6892740335140274,1.1762281878876344,2.8056481891542,3,35.30408822877421,9.045481547696777,4.589134110277016,36.73226829338075,30,-2,-30,ok,50,252548.0,69,79.5,0,0,5,0,0,0,-38.0,28.0,-1049.0,0
1777593982.971832,4.797173976898193,1.0423149158017695,1.2666830033646022,2.85153953025697,,,,,,,,,0,0,0,lost,50,252535.0,69,79.5,0,0,5,0,0,0,-12.0,14.0,-988.0,0
1777593983.0426612,4.8680031299591064,1.0423149158017695,1.2666830033646022,2.85153953025697,,,,,,,,,0,0,0,lost,50,252535.0,69,79.5,0,0,5,0,0,0,-12.0,14.0,-988.0,0
1777593983.1153548,4.940696716308594,1.0423149158017695,1.2666830033646022,2.85153953025697,,,,,,,,,0,0,0,lost,50,252531.0,69,79.5,0,0,5,0,0,0,-5.0,13.0,-1015.0,0
1777593983.187445,5.012786865234375,1.0423149158017695,1.2666830033646022,2.85153953025697,,,,,,,,,0,0,0,lost,50,252539.0,69,79.5,0,0,5,0,0,0,10.0,26.0,-999.0,0
1777593983.258694,5.084035873413086,1.0423149158017695,1.2666830033646022,2.85153953025697,,,,,,,,,0,0,0,lost,50,252539.0,69,79.5,0,0,5,0,0,0,10.0,26.0,-999.0,0
1777593983.330975,5.1563169956207275,1.0423149158017695,1.2666830033646022,2.85153953025697,,,,,,,,,0,0,0,lost,50,252538.0,69,79.5,0,0,5,0,0,0,-23.0,19.0,-979.0,0
1777593983.402781,5.22812294960022,1.0423149158017695,1.2666830033646022,2.85153953025697,1.1281776185823715,1.2252143979404573,2.8590785184386815,2,-8.586270278060205,4.146860542414488,-0.7538988181711392,9.564980557961112,-24,2,1,ok,50,252542.99999999997,69,79.5,0,0,5,0,0,0,-9.0,1.0,-1037.0,0
1777593983.47265,5.297991991043091,1.0423149158017695,1.2666830033646022,2.85153953025697,1.0970484451890787,1.1857373834627198,2.872327852387829,2,-5.473352938730924,8.094561990188232,-2.0788322130858905,9.990048527163324,10,5,21,ok,50,252542.99999999997,69,79.5,0,0,5,0,0,0,-9.0,1.0,-1037.0,0
1777593983.543375,5.3687169551849365,1.0423149158017695,1.2666830033646022,2.85153953025697,1.0986369397757416,1.1845968504283664,2.8728175182989584,2,-5.632202397397212,8.208615293623577,-2.1277988041988216,10.179911425700507,-1,0,7,ok,50,252542.0,69,79.0,0,0,5,0,0,0,-3.0,5.0,-1012.0,0
1777593983.6138308,5.439172744750977,1.0423149158017695,1.2666830033646022,2.85153953025697,1.1289342652844323,1.2237859712968677,2.8594300380135733,2,-8.661934948266282,4.289703206773443,-0.789050775660316,9.698106607826565,-13,-4,-9,ok,50,252534.0,69,79.0,0,-1,5,0,0,0,14.0,0.0,-1038.0,0
1777593983.686524,5.511865854263306,1.0423149158017695,1.2666830033646022,2.85153953025697,1.17295228464567,1.197445568927602,2.872984101390617,2,-13.063736884390043,6.9237434437000145,-2.144457113364684,14.9398173004161,-20,5,15,ok,50,252529.0,69,79.0,0,-1,5,0,0,0,-13.0,24.0,-1010.0,0
1777593983.757809,5.583150863647461,1.0423149158017695,1.2666830033646022,2.85153953025697,1.159962372144256,1.2605672826079801,2.846030146945315,2,-11.764745634248651,0.6115720756622034,0.5509383311655291,11.793506403400558,0,-10,-20,ok,50,252529.0,69,79.0,0,-1,5,0,0,0,-13.0,24.0,-1010.0,0
1777593983.827692,5.653033971786499,1.0423149158017695,1.2666830033646022,2.85153953025697,1.1325042334536275,1.226320209081428,2.869100666069048,2,-9.018931765185801,4.036279428317413,-1.7561135812077744,10.035766872473584,6,8,16,ok,50,252537.0,69,79.0,0,0,5,0,0,0,8.0,12.0,-1000.0,0
1777593983.899832,5.7251739501953125,1.0423149158017695,1.2666830033646022,2.85153953025697,1.104714712215549,1.1878524283263396,2.8922616046420537,2,-6.239979641377946,7.883057503826252,-4.072207438508357,10.847249188420326,8,9,20,ok,50,252533.0,69,79.0,0,-1,5,0,0,0,-14.0,5.0,-991.0,0
1777593983.970855,5.796196937561035,1.0423149158017695,1.2666830033646022,2.85153953025697,1.1620947617886674,1.2627325475890543,2.854912932801163,2,-11.977984598689794,0.39504557755478675,-0.33734025441929383,11.98924411720969,-25,-13,-24,ok,50,252533.0,69,79.0,0,-1,5,0,0,0,-14.0,5.0,-991.0,0
1777593984.0425978,5.867939710617065,1.0423149158017695,1.2666830033646022,2.85153953025697,1.1229658922122205,1.2890788516400842,2.85049075320975,2,-8.065097641045105,-2.239584827548202,0.1048777047220284,8.370934206665536,10,-2,-9,ok,50,252531.0,69,79.0,0,0,5,0,0,0,-30.0,46.0,-992.0,0
1777593984.114708,5.940049886703491,1.0423149158017695,1.2666830033646022,2.85153953025697,1.1495092674616152,1.1563053981184055,2.9063960152223864,2,-10.71943516598457,11.037760524619667,-5.485648496541629,16.334955987213686,-13,22,30,ok,50,252538.0,69,79.0,0,0,5,0,0,0,-12.0,-7.0,-1009.0,0
1777593984.185931,6.01127290725708,1.0423149158017695,1.2666830033646022,2.85153953025697,1.149351670708422,1.1552422040662351,2.906418206770232,2,-10.703675490665244,11.144079929836703,-5.487867651326184,16.397435099750492,-4,2,9,ok,50,252538.0,69,79.0,0,0,5,0,0,0,-12.0,-7.0,-1009.0,0
1777593984.259284,6.084625959396362,1.0423149158017695,1.2666830033646022,2.85153953025697,1.136421203127827,1.2268346317230259,2.8879339179693586,2,-9.41062873260574,3.9848371641576286,-3.6394387712388454,10.848242942402841,0,-4,-20,ok,50,252530.00000000003,69,79.0,0,0,5,0,0,0,-16.0,23.0,-975.0,0
1777593984.330128,6.15546989440918,1.0423149158017695,1.2666830033646022,2.85153953025697,1.1464647785692805,1.156742859033769,2.9160990998189287,2,-10.414986276751105,10.994014433083322,-6.455956956195852,16.462675138628345,-8,13,30,ok,50,252538.0,69,79.0,0,-1,5,0,0,0,-6.0,23.0,-1008.0,0
1777593984.4002602,6.225602149963379,1.0423149158017695,1.2666830033646022,2.85153953025697,1.1495062026095169,1.1569118002641723,2.9156391205887844,2,-10.719128680774737,10.977120310042988,-6.409959033181423,16.62782200960877,-5,3,9,ok,50,252533.0,69,79.0,-1,-1,5,0,0,0,2.0,-7.0,-978.0,0
1777593984.47221,6.297551870346069,1.0423149158017695,1.2666830033646022,2.85153953025697,1.1036005425298916,1.1881594353503249,2.9113198220462344,2,-6.12856267281221,7.852356801427729,-5.978029178926425,11.61704009787395,13,1,-3,ok,50,252533.0,69,79.0,-1,-1,5,0,0,0,2.0,-7.0,-978.0,0
1777593984.543373,6.368715047836304,1.0423149158017695,1.2666830033646022,2.85153953025697,1.1436557098642988,1.153663125702193,2.9164805490120145,2,-10.134079406252926,11.301987766240916,-6.494101875504432,16.510840440447883,-18,5,22,ok,50,252535.0,69,78.5,-1,0,5,0,0,0,-8.0,3.0,-986.0,0
1777593984.6151779,6.4405198097229,1.0423149158017695,1.2666830033646022,2.85153953025697,1.1440588227264508,1.1539731206389543,2.91594950814326,2,-10.174390692468126,11.270988272564786,-6.440997788628966,16.493630743908337,-4,3,9,ok,50,252535.0,69,78.5,-1,0,5,0,0,0,11.0,4.0,-1043.0,0
1777593984.687773,6.513114929199219,1.0423149158017695,1.2666830033646022,2.85153953025697,1.1421657988078044,1.156241501286322,2.9259009463192096,2,-9.985088300603495,11.044150207828007,-7.436141606223945,16.64245907826518,-3,7,9,ok,50,252535.0,69,78.5,-1,0,5,0,0,0,11.0,4.0,-1043.0,0
1777593984.7589078,6.58424973487854,1.0423149158017695,1.2666830033646022,2.85153953025697,1.1421485031396394,1.1541743693745403,2.91577103368803,2,-9.983358733786996,11.250863399006183,-6.423150343105988,16.35561796939268,-4,0,10,ok,50,252533.0,69,78.5,0,0,5,0,0,0,-22.0,6.0,-1004.0,0
1777593984.8300118,6.655353784561157,1.0423149158017695,1.2666830033646022,2.85153953025697,1.106710022831336,1.1113785999492771,2.939950012077819,2,-6.439510702956652,15.530440341532504,-8.841048182084865,18.995420717987262,9,13,28,ok,50,252538.0,69,78.5,0,-1,5,0,0,0,9.0,0.0,-1034.0,0
1777593984.902006,6.7273478507995605,1.0423149158017695,1.2666830033646022,2.85153953025697,1.1436633885653427,1.1588485722691688,2.9251217526475597,2,-10.134847276357316,10.783443109543335,-7.358222239058954,16.52698427212983,-17,0,-6,ok,50,252535.0,69,78.5,-1,-1,5,0,0,0,-29.0,29.0,-989.0,0
1777593984.973217,6.798558950424194,1.0423149158017695,1.2666830033646022,2.85153953025697,1.1406172714822747,1.1600549732866408,2.9252083647310863,2,-9.830235568050515,10.662803007796139,-7.36688344741161,16.266526089924028,-3,4,9,ok,50,252544.99999999997,69,78.5,-1,0,5,0,0,0,-8.0,-16.0,-1029.0,0
1777593985.043357,6.868698835372925,1.0423149158017695,1.2666830033646022,2.85153953025697,1.103861847046779,1.1138067596627343,2.93966859262922,2,-6.154693124500943,15.28762437018678,-8.812906237224993,18.688472989702156,10,10,29,ok,50,252544.99999999997,69,78.5,-1,0,5,0,0,0,-8.0,-16.0,-1029.0,0
1777593985.115181,6.940522909164429,1.0423149158017695,1.2666830033646022,2.85153953025697,1.095223578553156,1.193985450920243,2.9197895459492305,2,-5.2908662751386615,7.269755244435916,-6.82500156922603,11.288190894706775,1,-2,-20,ok,50,252540.0,69,78.5,-1,0,5,0,0,0,-11.0,0.0,-1025.0,0
1777593985.188301,7.013643026351929,1.0423149158017695,1.2666830033646022,2.85153953025697,1.136826424477574,1.163219156523514,2.9250678784334125,2,-9.45115086758046,10.346384684108823,-7.352834817644238,15.825173256836397,-18,6,20,ok,50,252531.0,69,78.5,0,0,5,0,0,0,-2.0,20.0,-997.0,0
1777593985.259727,7.085068941116333,1.0423149158017695,1.2666830033646022,2.85153953025697,1.133766654927821,1.1627657603382493,2.925436376171791,2,-9.145173912605141,10.391724302635286,-7.389684591482082,15.69170412145737,-3,4,10,ok,50,252531.0,69,78.5,0,0,5,0,0,0,-2.0,20.0,-997.0,0
1777593985.330652,7.155993938446045,1.0423149158017695,1.2666830033646022,2.85153953025697,1.0916775300391448,1.1944723847734107,2.9100584079798524,2,-4.936261423737531,7.221061859119149,-5.851887772288222,10.524020225947925,12,-1,-3,ok,50,252541.0,69,78.5,0,0,5,0,0,0,2.0,-10.0,-1016.0,0
1777593985.4027221,7.228064060211182,1.0423149158017695,1.2666830033646022,2.85153953025697,1.132769028931544,1.1662930915256562,2.9251112935045978,2,-9.045411312977446,10.038991183894597,-7.35717632476276,15.38599536217607,-18,9,19,ok,50,252535.0,69,78.5,0,0,5,0,0,0,19.0,-13.0,-1004.0,0
1777593985.474777,7.300118923187256,1.0423149158017695,1.2666830033646022,2.85153953025697,1.0785071281626282,1.2633659316759114,2.8807844616694984,2,-3.6192212360858678,0.3317071688690776,-2.9244931412528263,4.664917162699556,17,-13,-30,ok,50,252540.0,69,78.5,0,0,5,0,0,0,3.0,-15.0,-1005.0,0
1777593985.5462341,7.3715760707855225,1.0423149158017695,1.2666830033646022,2.85153953025697,1.0849947548275392,1.1985488105927997,2.9097468840663465,2,-4.267983902576966,6.813419277180244,-5.820735380937636,9.925690364614779,-3,13,30,ok,50,252540.0,69,78.5,0,0,5,0,0,0,3.0,-15.0,-1005.0,0
1777593985.61802,7.44336199760437,1.0423149158017695,1.2666830033646022,2.85153953025697,1.087597869501757,1.2033918564614234,2.9193025006689406,2,-4.528295369998747,6.329114690317872,-6.776297041197044,10.318980245726097,-2,7,5,ok,50,252542.99999999997,69,78.5,0,0,5,0,0,0,17.0,18.0,-1032.0,0
1777593985.689549,7.514890909194946,1.0423149158017695,1.2666830033646022,2.85153953025697,1.040401448607718,1.2992362149886678,2.872440638740377,2,0.1913467194051499,-3.255321162406566,-2.0901108483406983,3.873279333560984,17,-15,-30,ok,50,252544.0,69,78.5,0,0,5,0,0,0,-6.0,11.0,-1003.0,0
1777593985.7606552,7.585997104644775,1.0423149158017695,1.2666830033646022,2.85153953025697,1.1238559951320677,1.1721890774084192,2.925736354474587,2,-8.15410793302982,9.4493925956183,-7.4196824217616975,14.520061427191875,-30,23,30,ok,50,252544.0,69,78.5,0,0,5,0,0,0,-6.0,11.0,-1003.0,0
1777593985.8315399,7.656881809234619,1.0423149158017695,1.2666830033646022,2.85153953025697,1.078035673609949,1.2025810556577405,2.910403525837408,2,-3.5720757808179515,6.410194770686162,-5.886399558043776,9.407445037786633,15,-1,-3,ok,50,252541.0,69,78.5,0,0,5,0,0,0,-29.0,19.0,-1002.0,0
1777593985.901207,7.726548910140991,1.0423149158017695,1.2666830033646022,2.85153953025697,1.1201076125604499,1.1751845925324047,2.9261648222085457,2,-7.779269675868039,9.149841083219744,-7.462529195157552,14.13951804435479,-19,10,19,ok,50,252540.0,69,78.5,0,0,5,0,0,0,10.0,-12.0,-969.0,0
1777593985.9696572,7.794999122619629,1.0423149158017695,1.2666830033646022,2.85153953025697,1.0365858845726348,1.167996533833179,2.9323267536195656,2,0.5729031229134707,9.868646953142314,-8.078722336259547,12.766525183478391,30,7,12,ok,50,252540.0,69,78.5,0,0,5,0,0,0,10.0,-12.0,-969.0,0
1777593986.03618,7.86152195930481,1.0423149158017695,1.2666830033646022,2.85153953025697,1.0340041541609302,1.2405409492617188,2.9021951171797298,2,0.8310761640839326,2.6142054102883394,-5.065558692275962,5.760611285495823,2,-7,-21,ok,50,252541.0,69,78.5,0,0,5,0,0,0,3.0,29.0,-1008.0,0
1777593986.106185,7.9315268993377686,1.0423149158017695,1.2666830033646022,2.85153953025697,1.0734044140908456,1.2055372335970156,2.9107930471184837,2,-3.1089498289076145,6.114576976758657,-5.925351686151359,9.06440363443445,-15,7,20,ok,50,252539.0,69,78.5,0,0,5,0,0,0,-22.0,42.0,-983.0,0
1777593986.177581,8.002923011779785,1.0423149158017695,1.2666830033646022,2.85153953025697,1.0723150293501955,1.2054158999065911,2.9109100443807936,2,-3.000011354842602,6.126710345801101,-5.937051412382344,9.043518522334212,0,4,7,ok,50,252539.0,69,78.5,0,0,5,0,0,0,-22.0,42.0,-983.0,0
1777593986.250505,8.075846910476685,1.0423149158017695,1.2666830033646022,2.85153953025697,1.0327568223604888,1.3039471780545435,2.8727215414360714,2,0.9558093441280668,-3.7264174689941365,-2.1182011179101234,4.391643727747378,14,-11,-30,ok,50,252536.0,69,78.5,0,0,5,0,0,0,10.0,15.0,-987.0,0
1777593986.3239381,8.149280071258545,1.0423149158017695,1.2666830033646022,2.85153953025697,0.9972917188022232,1.2033120409302591,2.9129718221722665,2,4.502319699954627,6.337096243434304,-6.143229191529631,9.90802383822377,15,18,30,ok,50,252542.99999999997,69,78.5,0,0,5,0,0,0,-32.0,36.0,-1003.0,0
1777593986.396616,8.221957921981812,1.0423149158017695,1.2666830033646022,2.85153953025697,1.0348903622006502,1.2355315951457402,2.892968008670548,2,0.7424553601119266,3.1151408218861976,-4.1428478413577885,5.236270670867162,-11,-3,-5,ok,50,252528.00000000003,69,78.5,0,0,5,0,0,0,-23.0,2.0,-976.0,0
1777593986.46783,8.293171882629395,1.0423149158017695,1.2666830033646022,2.85153953025697,1.0348903622006502,1.2355315951457402,2.892968008670548,2,0.7424553601119266,3.1151408218861976,-4.1428478413577885,5.236270670867162,1,3,5,ok,50,252528.00000000003,69,78.5,0,0,5,0,0,0,-23.0,2.0,-976.0,0
1777593986.539923,8.365264892578125,1.0423149158017695,1.2666830033646022,2.85153953025697,1.0348903622006502,1.2355315951457402,2.892968008670548,2,0.7424553601119266,3.1151408218861976,-4.1428478413577885,5.236270670867162,1,3,5,ok,50,252531.0,69,79.0,0,0,5,0,0,0,-48.0,16.0,-985.0,0
1777593986.611617,8.436959028244019,1.0423149158017695,1.2666830033646022,2.85153953025697,1.0654927051230512,1.2664462474963043,2.8722579833130397,2,-2.317778932128167,0.023675586829785544,-2.0718453056069563,3.1088909086673504,-11,-5,-7,ok,50,252535.0,69,79.0,0,0,5,0,0,0,-5.0,36.0,-962.0,0
1777593986.683554,8.508895874023438,1.0423149158017695,1.2666830033646022,2.85153953025697,0.9934945985887065,1.1985603246508365,2.9036712313640267,2,4.882031721306301,6.812267871376565,-5.213170110705656,9.870074461846029,28,14,30,ok,50,252535.0,69,79.0,0,0,5,0,0,0,-5.0,36.0,-962.0,0
1777593986.755321,8.580662965774536,1.0423149158017695,1.2666830033646022,2.85153953025697,1.0315534126444008,1.2340050221141805,2.8931223375099826,2,1.076150315736868,3.267798125042165,-4.158280725301244,5.397027207500579,-11,0,-6,ok,50,252533.0,69,79.0,0,0,5,0,0,0,-7.0,28.0,-983.0,0
1777593986.826314,8.651655912399292,1.0423149158017695,1.2666830033646022,2.85153953025697,1.031280204862577,1.2294235074192121,2.8835194746722643,2,1.1034710939192394,3.725949594539002,-3.197994441529417,5.032645157788668,1,0,7,ok,50,252532.00000000003,69,79.0,0,0,5,0,0,0,-13.0,9.0,-992.0,0
1777593986.896448,8.721789836883545,1.0423149158017695,1.2666830033646022,2.85153953025697,0.9962204323833415,1.191581204251852,2.894375291002857,2,4.609448341842803,7.510179911275006,-4.283576074588691,9.797899790395116,16,7,22,ok,50,252534.0,69,79.0,0,0,5,0,0,0,-25.0,29.0,-974.0,0
1777593986.965572,8.790914058685303,1.0423149158017695,1.2666830033646022,2.85153953025697,0.9962204323833415,1.191581204251852,2.894375291002857,2,4.609448341842803,7.510179911275006,-4.283576074588691,9.797899790395116,3,3,8,ok,50,252534.0,69,79.0,0,0,5,0,0,0,-25.0,29.0,-974.0,0
1777593987.037365,8.862706899642944,1.0423149158017695,1.2666830033646022,2.85153953025697,0.9912936056086226,1.1167815785283182,2.9239926740359024,2,5.102131019314693,14.9901424836284,-7.245314377893219,17.413520409504805,5,15,30,ok,50,252538.0,69,79.0,-1,0,5,0,0,0,-24.0,-4.0,-1008.0,0
1777593987.109101,8.93444299697876,1.0423149158017695,1.2666830033646022,2.85153953025697,0.995782368599018,1.192547477846507,2.8940521481584405,2,4.653254720275147,7.41355255180951,-4.251261790147032,9.730712601786593,2,-7,-17,ok,50,252536.0,69,79.0,-1,0,5,0,0,0,-9.0,-2.0,-1034.0,0
1777593987.180353,9.00569486618042,1.0423149158017695,1.2666830033646022,2.85153953025697,1.0274978532177663,1.2930641703366206,2.8545371749743285,2,1.4817062584003171,-2.638116697201842,-0.29976447173583054,3.0405545354018706,-9,-12,-30,ok,50,252536.0,69,79.0,-1,0,5,0,0,0,-9.0,-2.0,-1034.0,0
1777593987.251467,9.07680892944336,1.0423149158017695,1.2666830033646022,2.85153953025697,1.028455417990572,1.230404911443644,2.8840817841152364,2,1.385949781119744,3.627809192095821,-3.2542253858266257,5.066738516225131,1,13,28,ok,50,252537.0,69,79.0,-1,0,5,0,0,0,-27.0,7.0,-1020.0,0
1777593987.3233228,9.148664712905884,1.0423149158017695,1.2666830033646022,2.85153953025697,0.966098321624222,1.2954181005846253,2.8541250167108534,2,7.621659417754745,-2.87350972200231,-0.25854864538832345,8.149453834750126,27,-9,-20,ok,50,252529.0,69,79.0,-1,0,5,0,0,0,53.0,-9.0,-1004.0,0
1777593987.395166,9.220507860183716,1.0423149158017695,1.2666830033646022,2.85153953025697,1.027806222480001,1.355107921908914,2.8251466673813033,2,1.4508693321768407,-8.842491854431177,2.639286287566689,9.34133374430389,-19,-10,-23,ok,50,252529.0,69,79.0,-1,0,5,0,0,0,53.0,-9.0,-1004.0,0
1777593987.467365,9.292706966400146,1.0423149158017695,1.2666830033646022,2.85153953025697,1.026889364312109,1.2991476591516065,2.8545437686647883,2,1.5425551489660405,-3.2464655787004304,-0.30042384078181605,3.606836512152785,2,11,20,ok,50,252533.0,69,79.0,0,0,5,0,0,0,-42.0,11.0,-959.0,0
1777593987.539361,9.364702939987183,1.0423149158017695,1.2666830033646022,2.85153953025697,1.0321783200841006,1.2388893844597673,2.8835305175469292,2,1.0136595717668895,2.7793618904834894,-3.1990987289959083,4.357360545510301,0,12,26,ok,50,252537.0,69,78.5,0,0,5,0,0,0,-34.0,7.0,-996.0,0
1777593987.610738,9.436079978942871,1.0423149158017695,1.2666830033646022,2.85153953025697,0.9967578953977485,1.3279774151521742,2.835882030900245,2,4.555702040402099,-6.1294411787572,1.5657499356725335,7.795899121065308,16,-16,-30,ok,60,252533.0,69,78.5,0,0,5,0,0,0,0.0,0.0,-965.0,0
1777593987.682163,9.507504940032959,1.0423149158017695,1.2666830033646022,2.85153953025697,1.0626057941331286,1.2710709907288384,2.8630410323158495,2,-2.029087833135912,-0.438798736423629,-1.1501502058879343,2.373307241334594,-23,10,23,ok,60,252533.0,69,78.5,0,0,5,0,0,0,0.0,0.0,-965.0,0
1777593987.755947,9.581289052963257,1.0423149158017695,1.2666830033646022,2.85153953025697,0.9969047732487315,1.2681931535701252,2.855695210766719,2,4.541014255303799,-0.1510150205523031,-0.41556805097489047,4.562489759801746,26,-1,4,ok,60,252541.0,69,78.5,0,0,5,0,0,0,-34.0,-2.0,-1017.0,0
1777593987.8277051,9.65304708480835,1.0423149158017695,1.2666830033646022,2.85153953025697,0.9643746387057675,1.298515517301365,2.8357858785816275,2,7.794027709600204,-3.1832513936762785,1.5753651675342706,8.565146395972345,17,-7,-9,ok,60,252533.0,69,78.5,0,0,5,0,0,0,-11.0,-35.0,-957.0,0
1777593987.89836,9.72370195388794,1.0423149158017695,1.2666830033646022,2.85153953025697,0.9700503533780797,1.4016961090648214,2.770755628593661,2,7.226456242368984,-13.501310570021928,8.078390166330918,17.313793478337775,3,-27,-30,ok,60,252533.0,69,78.5,0,0,5,0,0,0,-11.0,-35.0,-957.0,0
1777593987.9690108,9.794352769851685,1.0423149158017695,1.2666830033646022,2.85153953025697,1.0304287466112878,1.2992549197258483,2.8364490444669928,2,1.1886169190481688,-3.2571916361246123,1.5090485789977404,3.7814461715675383,-19,23,30,ok,60,252550.0,69,78.5,0,0,3,0,1,0,27.0,168.0,-1017.0,0
1777593988.040565,9.865906953811646,1.0423149158017695,1.2666830033646022,2.85153953025697,0.9343552996717113,1.270560444797439,2.844482321493606,2,10.795961613005822,-0.3877441432836859,0.705720876336402,10.825949132775524,30,3,13,ok,60,252552.0,69,78.5,0,-4,4,0,1,0,-60.0,86.0,-1073.0,0
1777593988.111685,9.937026977539062,1.0423149158017695,1.2666830033646022,2.85153953025697,1.0411818066337388,1.2381777172574553,2.8554055837246337,2,0.1133109168030666,2.8505286107146866,-0.3866053467663555,2.8788567902065023,-30,4,16,ok,60,252552.0,69,78.5,0,-4,4,0,1,0,-60.0,86.0,-1073.0,0
1777593988.18294,10.008281946182251,1.0423149158017695,1.2666830033646022,2.85153953025697,1.047209021342222,1.2381307947716131,2.8554130392875607,2,-0.48941055404525535,2.8552208592989015,-0.3873509030590583,2.9226442766589145,-1,0,5,ok,60,252554.0,69,78.5,0,-4,4,0,2,0,-46.0,262.0,-939.0,0
1777593988.255609,10.08095097541809,1.0423149158017695,1.2666830033646022,2.85153953025697,1.0528121929089478,1.2984997810649048,2.8275053836721735,2,-1.0497277107178293,-3.1816777700302667,2.4034146584796634,4.123275848102887,-1,-10,-19,ok,60,252553.00000000003,69,78.5,0,-5,5,0,2,0,-59.0,184.0,-1031.0,10
1777593988.326731,10.15207290649414,1.0423149158017695,1.2666830033646022,2.85153953025697,1.1505499066343354,1.5805199478931313,2.8158719761321516,3,-10.823499083256593,-31.383694452852918,3.566755412481859,33.388712974413316,-30,-5,-30,ok,60,252544.0,69,78.5,0,-7,5,0,3,0,-29.0,80.0,-1004.0,9
1777593988.3981812,10.223523139953613,1.0423149158017695,1.2666830033646022,2.85153953025697,1.3562698831108488,1.518940089576426,2.79345817459058,3,-31.395496730907936,-25.225708621182385,5.808135566639017,40.69088385844799,-30,-10,7,ok,60,252544.0,69,78.5,0,-7,5,0,3,0,-29.0,80.0,-1004.0,8
1777593988.467836,10.293177843093872,1.0423149158017695,1.2666830033646022,2.85153953025697,,,,,,,,,0,0,0,lost,60,252541.0,69,78.5,0,-7,6,0,3,0,-31.0,186.0,-954.0,7
1777593988.539823,10.365164995193481,1.0423149158017695,1.2666830033646022,2.85153953025697,1.2695311494773152,1.367760816483457,2.8110604874706997,3,-22.721623367554567,-10.107781311885478,4.047904278627046,25.195732586190665,2,1,22,ok,60,252548.99999999997,69,79.0,0,-7,5,0,3,0,42.0,67.0,-990.0,6
1777593988.611933,10.437274932861328,1.0423149158017695,1.2666830033646022,2.85153953025697,0.829137398463305,1.1582535336064268,2.8174946233015934,3,21.317751733846446,10.842946975817537,3.4044906955376764,24.157950968621208,30,0,30,ok,60,252548.99999999997,69,79.0,0,-7,5,0,3,0,42.0,67.0,-990.0,5
1777593988.6979752,10.523317098617554,1.0423149158017695,1.2666830033646022,2.85153953025697,1.1605031873562623,1.4030271264739076,2.8324917287175055,3,-11.818827155449284,-13.634412310930543,1.9047801539464615,18.144146764995813,-30,3,-30,ok,60,252538.0,69,79.0,0,-7,5,0,2,0,-17.0,-11.0,-1018.0,4
1777593988.769579,10.594920873641968,1.0423149158017695,1.2666830033646022,2.85153953025697,0.8946588645786834,1.2152596014332886,2.8334077455331337,3,14.765605122308612,5.142340193131356,1.8131784723836475,15.740215165700755,30,0,30,ok,60,252538.0,69,79.0,0,-6,5,0,0,0,-14.0,-5.0,-1039.0,3
1777593988.841398,10.66673994064331,1.0423149158017695,1.2666830033646022,2.85153953025697,1.3433002530779614,1.59519837485061,2.8043307069631997,3,-30.09853372761919,-32.851537148600784,4.720882329377041,44.804374290311785,-30,-12,-30,ok,60,252544.0,69,79.0,0,-3,5,0,0,0,-6.0,-8.0,-1089.0,2
1777593988.9127839,10.738125801086426,1.0423149158017695,1.2666830033646022,2.85153953025697,1.3493064748549608,1.5990268178830092,2.801375814428014,3,-30.69915590531913,-33.2343814518407,5.016371582895607,45.52061365626815,-19,-3,-22,ok,60,252544.0,69,79.0,0,-3,5,0,0,0,-6.0,-8.0,-1089.0,1
1777593988.9837692,10.80911111831665,1.0423149158017695,1.2666830033646022,2.85153953025697,,,,,,,,,0,0,0,lost,60,252544.0,69,79.0,0,0,4,0,0,0,-20.0,-3.0,-988.0,0
1777593989.0557199,10.881061792373657,1.0423149158017695,1.2666830033646022,2.85153953025697,1.2475310370200412,1.306811178550471,2.823204537484739,2,-20.52161212182717,-4.012817518586886,2.833499277223117,21.10137404697205,5,2,30,ok,60,252542.99999999997,69,79.0,0,0,4,0,0,0,-30.0,31.0,-974.0,0
1777593989.126273,10.95161485671997,1.0423149158017695,1.2666830033646022,2.85153953025697,1.2090329705710374,1.3309666147013761,2.821474173930399,2,-16.671805476926792,-6.428361133677396,3.006535632657137,18.119386889072636,3,-1,-10,ok,60,252546.99999999997,69,79.0,0,0,4,0,0,0,-9.0,-5.0,-961.0,0
1777593989.1975482,11.022890090942383,1.0423149158017695,1.2666830033646022,2.85153953025697,1.246690288081882,1.3133085440659829,2.8316166256603936,2,-20.437537228011248,-4.66255407013807,1.992290459657653,21.057102357137122,-25,2,5,ok,60,252540.0,69,79.0,0,0,4,0,0,0,-32.0,41.0,-979.0,0
1777593989.269556,11.094897985458374,1.0423149158017695,1.2666830033646022,2.85153953025697,1.2852950552340472,1.2957178781488432,2.8403519368418957,2,-24.29801394322777,-2.903487478424105,1.118759341507447,24.49643532408066,-28,2,6,ok,60,252540.0,69,79.0,0,0,4,0,0,0,-32.0,41.0,-979.0,0
1777593989.3407738,11.166115760803223,1.0423149158017695,1.2666830033646022,2.85153953025697,1.2449683153035087,1.3165467665079797,2.830671055467521,2,-20.26533995017392,-4.986376314337759,2.08684747894492,20.973861934433593,1,-4,-8,ok,60,252538.0,69,79.0,0,0,4,0,0,0,0.0,-5.0,-993.0,0
1777593989.412274,11.237615823745728,1.0423149158017695,1.2666830033646022,2.85153953025697,1.2137999675201303,1.1847004012674947,2.8953009243750203,2,-17.14850517183608,8.19826020971075,-4.376139411805013,19.50469933749732,0,25,30,ok,60,252542.0,69,79.0,0,-1,5,0,0,0,2.0,-3.0,-998.0,0
1777593989.4827578,11.308099746704102,1.0423149158017695,1.2666830033646022,2.85153953025697,1.2577450417847713,1.266537327062871,2.864489811619149,2,-21.54301259830018,0.014567630173112356,-1.2950281362178906,21.581906817979853,-28,-9,-26,ok,60,252542.0,69,79.0,0,-1,5,0,0,0,2.0,-3.0,-998.0,0
1777593989.5534909,11.378832817077637,1.0423149158017695,1.2666830033646022,2.85153953025697,1.2413758128327919,1.324244264764554,2.8385403397633295,2,-19.906089703102236,-5.756126139995188,1.2999190493640622,20.76235017868614,-6,-9,-22,ok,60,252544.0,69,78.0,0,-2,5,0,0,0,-27.0,2.0,-982.0,0
1777593989.6249259,11.450267791748047,1.0423149158017695,1.2666830033646022,2.85153953025697,1.2773622835345435,1.3028488926978405,2.8379907110540716,2,-23.5047367732774,-3.616588933323839,1.354881920289852,23.819909137350372,-27,0,7,ok,60,252544.0,68,78.0,0,-1,5,0,0,0,0.0,-14.0,-1016.0,0
1777593989.6944041,11.51974606513977,1.0423149158017695,1.2666830033646022,2.85153953025697,1.2225264764148878,1.3801092214706743,2.8109230047452716,2,-18.021156061311828,-11.342621810607213,4.061652551169859,21.67750347182634,8,-11,-30,ok,60,252544.0,68,78.0,0,-1,5,0,0,0,0.0,-14.0,-1016.0,0
1777593989.7660348,11.591376781463623,1.0423149158017695,1.2666830033646022,2.85153953025697,1.2334153456175079,1.3300142674182802,2.8356302204993846,2,-19.110042981573837,-6.333126405367806,1.5909309757585532,20.19488287149976,-16,8,15,ok,60,252529.0,68,78.0,-1,-1,5,0,0,0,-23.0,19.0,-963.0,0
1777593989.8380458,11.663387775421143,1.0423149158017695,1.2666830033646022,2.85153953025697,1.2168030599724022,1.3825110583761426,2.809315158520281,2,-17.448814417063275,-11.582805501154048,4.222437173668903,21.364725215276245,-5,-11,-24,ok,60,252540.0,68,78.0,-1,-1,5,0,-1,0,-18.0,22.0,-992.0,0
1777593989.90892,11.734261989593506,1.0423149158017695,1.2666830033646022,2.85153953025697,1.1988064295046672,1.300251678305551,2.8586452147434454,2,-15.649151370289772,-3.356867494094895,-0.7105684486475194,16.020905264789707,-4,18,28,ok,60,252535.0,68,78.0,0,-1,5,0,-1,0,-29.0,24.0,-963.0,0
1777593989.980302,11.805644035339355,1.0423149158017695,1.2666830033646022,2.85153953025697,1.2000121389138867,1.298733005529125,2.858195337601808,2,-15.76972231121172,-3.2050002164522917,-0.665580734483795,16.105873645173798,-11,0,0,ok,60,252535.0,68,78.0,0,-1,5,0,-1,0,-29.0,24.0,-963.0,0
1777593990.051826,11.87716794013977,1.0423149158017695,1.2666830033646022,2.85153953025697,1.1957690833471188,1.2980104394542504,2.8575518520727523,2,-15.345416754534934,-3.1327436089648275,-0.6012321815782151,15.67346094600796,-8,0,0,ok,60,252529.0,68,78.0,0,-1,5,0,-1,0,12.0,19.0,-998.0,0
1777593990.124924,11.950265884399414,1.0423149158017695,1.2666830033646022,2.85153953025697,1.1625504965238933,1.2607360206979874,2.87093915324475,2,-12.023558072212381,0.5946982666614753,-1.9399622987779974,12.193566683498053,2,6,15,ok,60,252539.0,68,78.0,0,0,5,0,-1,0,-10.0,21.0,-1005.0,0
1777593990.1948678,12.020209789276123,1.0423149158017695,1.2666830033646022,2.85153953025697,1.1457297511798115,1.317617872567169,2.8430450509270195,2,-10.341483537804198,-5.093486920256685,0.8494479329950622,11.559042026066466,-1,-10,-21,ok,60,252539.0,68,78.0,0,0,5,0,-1,0,-10.0,21.0,-1005.0,0
1777593990.2660081,12.091350078582764,1.0423149158017695,1.2666830033646022,2.85153953025697,1.1201498473059608,1.2208345632762034,2.8839295090693704,2,-7.78349315041913,4.584844008839872,-3.2389978812400244,9.596596661457317,2,16,30,ok,60,252539.0,68,78.0,0,0,5,0,-1,0,6.0,-2.0,-997.0,0
1777593990.336849,12.162190914154053,1.0423149158017695,1.2666830033646022,2.85153953025697,1.1196788539808362,1.219511788754049,2.8828616791356025,2,-7.736393817906673,4.717121461055318,-3.1322148878632383,9.587168210052715,-5,1,5,ok,60,252546.0,68,78.0,0,0,5,0,0,0,-16.0,26.0,-1044.0,0
1777593990.407994,12.233335971832275,1.0423149158017695,1.2666830033646022,2.85153953025697,1.1065030124930582,1.2818101030972229,2.8546110386548893,2,-6.4188096691288665,-1.512709973262072,-0.30715083979191427,6.601799047993937,0,-9,-21,ok,60,252546.0,68,78.0,0,0,5,0,0,0,-16.0,26.0,-1044.0,0
1777593990.478165,12.303506851196289,1.0423149158017695,1.2666830033646022,2.85153953025697,1.169617523482319,1.2892467454832675,2.8457332691023987,2,-12.730260768054947,-2.2563742118665298,0.5806261154571501,12.941711266003662,-30,-3,-2,ok,60,252544.0,68,78.0,0,0,5,0,0,0,-28.0,15.0,-1003.0,0
1777593990.54931,12.374651908874512,1.0423149158017695,1.2666830033646022,2.85153953025697,1.1284992587739628,1.3127976969687754,2.831577534859555,2,-8.618434297219334,-4.61146936041732,1.9961995397415055,9.976365670925382,7,-5,-9,ok,60,252530.00000000003,68,78.0,-1,0,5,0,0,0,-20.0,38.0,-1013.0,0
1777593990.6210392,12.446381092071533,1.0423149158017695,1.2666830033646022,2.85153953025697,1.1238310852345417,1.3130886634834247,2.8312613012253167,2,-8.151616943277219,-4.640566011882252,2.027822903165344,9.596654491392451,-4,0,-1,ok,60,252523.99999999997,68,78.0,-1,-1,5,0,0,0,-4.0,14.0,-987.0,0
1777593990.692041,12.517382860183716,1.0423149158017695,1.2666830033646022,2.85153953025697,1.1203455896492207,1.3132340657535502,2.831111901285455,2,-7.8030673847451215,-4.655106238894802,2.0427628971515066,9.312934819929172,-5,0,-1,ok,60,252523.99999999997,68,78.0,-1,-1,5,0,0,0,-4.0,14.0,-987.0,0
1777593990.763891,12.589232921600342,1.0423149158017695,1.2666830033646022,2.85153953025697,1.0949635284396588,1.2170099448122809,2.872263349360494,2,-5.264861263788934,4.967305855232129,-2.0723819103523944,7.529120690274824,3,16,30,ok,60,252538.0,68,78.0,-1,-1,5,0,0,0,-1.0,14.0,-1023.0,0
1777593990.835408,12.660749912261963,1.0423149158017695,1.2666830033646022,2.85153953025697,1.0909883142547177,1.21707136421951,2.8722269540201726,2,-4.867339845294816,4.961163914509226,-2.068742376320243,7.2514715455420635,-3,1,5,ok,60,252542.99999999997,68,78.0,0,-1,5,0,0,0,-1.0,17.0,-1002.0,0
1777593990.904704,12.730046033859253,1.0423149158017695,1.2666830033646022,2.85153953025697,1.0461702200176708,1.245854890507251,2.8553783332780234,2,-0.38553042159013007,2.082811285735109,-0.38388030210532165,2.1526961337591226,14,-5,-6,ok,60,252542.99999999997,68,78.0,0,-1,5,0,0,0,-1.0,17.0,-1002.0,0
1777593990.975966,12.801307916641235,1.0423149158017695,1.2666830033646022,2.85153953025697,1.0442066410218542,1.2449789666873248,2.8556370594228255,2,-0.1891725220084739,2.1704036677277383,-0.40975291658553736,2.216830119025682,-1,0,3,ok,60,252542.0,68,78.0,0,0,5,0,0,0,-31.0,27.0,-1009.0,0
1777593991.047169,12.87251091003418,1.0423149158017695,1.2666830033646022,2.85153953025697,1.0040997472605036,1.2112073581112441,2.865894650434465,2,3.8215168541265943,5.547564525335802,-1.435512017749474,6.887681611561399,14,4,17,ok,60,252536.0,68,78.0,-1,0,5,0,0,0,-17.0,17.0,-968.0,0
1777593991.1197639,12.945105791091919,1.0423149158017695,1.2666830033646022,2.85153953025697,1.0001170853122194,1.2126372417292646,2.8658787636953296,2,4.219783048955006,5.404576163533759,-1.4339233438359411,7.00515157892268,2,1,5,ok,60,252536.0,68,78.0,-1,0,5,0,0,0,-17.0,17.0,-968.0,0
1777593991.192141,13.017482995986938,1.0423149158017695,1.2666830033646022,2.85153953025697,1.0249383372520071,1.3043769794573432,2.8181937530031207,2,1.7376578549762378,-3.7693976092741055,3.3345777253849462,5.324210905326291,-9,-18,-30,ok,60,252550.0,68,78.0,-1,0,5,0,0,0,-19.0,33.0,-987.0,0
1777593991.264116,13.089457988739014,1.0423149158017695,1.2666830033646022,2.85153953025697,0.9915223013601332,1.273993922340237,2.828288879911206,2,5.079261444163629,-0.731091897563485,2.3250650345764345,5.633766022463135,12,2,12,ok,60,252541.0,68,78.0,0,0,5,0,0,0,-20.0,19.0,-1017.0,0
1777593991.335123,13.160465002059937,1.0423149158017695,1.2666830033646022,2.85153953025697,0.9887382299745255,1.2695979796287884,2.8197808864480423,2,5.357668582724395,-0.2914976264186242,3.17586438089279,6.235037936880838,2,-4,3,ok,60,252539.0,68,78.0,0,0,5,0,0,0,-15.0,24.0,-1007.0,0
1777593991.405495,13.230836868286133,1.0423149158017695,1.2666830033646022,2.85153953025697,0.9806720856097423,1.2700082845755123,2.8199547813281813,2,6.1642830192027205,-0.3325281210910136,3.158474892878882,6.9343293649129185,4,-1,1,ok,60,252539.0,68,78.0,0,0,5,0,0,0,-15.0,24.0,-1007.0,0
1777593991.4764621,13.301804065704346,1.0423149158017695,1.2666830033646022,2.85153953025697,0.9794205711134442,1.2705647622377545,2.819942825774575,2,6.289434468832534,-0.3881758873152341,3.1596704482395044,7.049197386845525,2,-1,1,ok,60,252542.0,68,78.0,0,0,5,0,0,0,-17.0,0.0,-967.0,0
1777593991.548105,13.373446941375732,1.0423149158017695,1.2666830033646022,2.85153953025697,0.9783810173619532,1.2654694412605196,2.8115737166777377,2,6.393389843981634,0.12135621040825217,3.9965813579232456,7.540744232330902,2,-4,4,ok,60,252542.99999999997,68,78.0,0,0,5,0,0,0,-16.0,5.0,-958.0,0
1777593991.6196249,13.444966793060303,1.0423149158017695,1.2666830033646022,2.85153953025697,0.9433735994583856,1.2927488577513606,2.7925279783200687,2,9.894131634338388,-2.606585438675846,5.901155193690144,11.811509686181049,16,-9,-9,ok,60,252542.99999999997,68,78.0,0,0,5,0,0,0,-16.0,5.0,-958.0,0
1777593991.6899478,13.515289783477783,1.0423149158017695,1.2666830033646022,2.85153953025697,0.9409496689254011,1.2925118962103541,2.7928364441125835,2,10.13652468763684,-2.582889284575196,5.8703086144386685,11.995039517575476,5,-3,0,ok,60,252539.0,68,78.0,0,0,5,0,0,0,-40.0,-4.0,-996.0,0
1777593991.7603781,13.58572006225586,1.0423149158017695,1.2666830033646022,2.85153953025697,0.9330829103966488,1.234041807194878,2.8210149760402548,2,10.923200540512068,3.2641196169724163,3.0524554216715405,11.802045205109124,7,8,25,ok,60,252537.0,68,78.0,0,0,5,0,0,0,-10.0,22.0,-1031.0,0
1777593991.832136,13.657477855682373,1.0423149158017695,1.2666830033646022,2.85153953025697,0.9372010407161112,1.2870224720938657,2.784830359238102,2,10.511387508565829,-2.033946872926351,6.670917101886831,12.614568649675137,3,-16,-17,ok,60,252537.0,68,78.0,0,0,5,0,0,0,-10.0,22.0,-1031.0,0
1777593991.9035032,13.728845119476318,1.0423149158017695,1.2666830033646022,2.85153953025697,0.9155471027142674,1.369241546611562,2.746661343318637,2,12.676781308750208,-10.255854324695978,10.487818693833306,19.38756491243764,14,-19,-30,ok,60,252539.0,68,78.0,0,0,5,0,0,0,2.0,13.0,-1029.0,0
1777593991.974495,13.799836874008179,1.0423149158017695,1.2666830033646022,2.85153953025697,0.8877332766016379,1.2012739629281395,2.827764608289054,2,15.458163920013156,6.540904043646267,2.3774921967916196,16.95260235574437,17,27,30,ok,60,252534.0,68,78.0,0,0,5,0,0,0,-11.0,-2.0,-1016.0,0
1777593992.0449018,13.870243787765503,1.0423149158017695,1.2666830033646022,2.85153953025697,0.9286849820413949,1.285168249614987,2.785942818624348,2,11.362993376037455,-1.8485246250384835,6.559671163262237,13.25005462341114,-8,-18,-28,ok,60,252534.0,68,78.0,0,0,5,0,0,0,-11.0,-2.0,-1016.0,0
1777593992.117304,13.942646026611328,1.0423149158017695,1.2666830033646022,2.85153953025697,0.927476464891457,1.284963485172367,2.7861844794298687,2,11.483845091031252,-1.828048180776487,6.535505082710147,13.339163576183216,6,-3,0,ok,60,252534.0,68,78.0,0,0,5,0,0,0,-16.0,4.0,-1001.0,0
1777593992.188253,14.01359486579895,1.0423149158017695,1.2666830033646022,2.85153953025697,0.8841349050001172,1.1950144492037746,2.819795693861394,2,15.818001080165233,7.166855416082751,3.1743836395575986,17.65360264133738,23,9,30,ok,60,252540.0,68,78.0,0,0,5,0,0,0,-22.0,20.0,-1045.0,0
1777593992.2585611,14.083903074264526,1.0423149158017695,1.2666830033646022,2.85153953025697,0.8841349050001172,1.1950144492037746,2.819795693861394,2,15.818001080165233,7.166855416082751,3.1743836395575986,17.65360264133738,8,-1,7,ok,60,252536.0,68,78.0,-1,0,5,0,0,0,-41.0,18.0,-951.0,0
1777593992.3281941,14.153536081314087,1.0423149158017695,1.2666830033646022,2.85153953025697,0.9013441293923751,1.3102575425453642,2.76620578940606,2,14.097078640939442,-4.357453918076204,8.533374085091028,17.045043389005844,1,-24,-30,ok,60,252536.0,68,78.0,-1,0,5,0,0,0,-41.0,18.0,-951.0,0
1777593992.397171,14.22251296043396,1.0423149158017695,1.2666830033646022,2.85153953025697,0.8934483931226556,1.2509244183673602,2.784079234434468,2,14.886652267911394,1.575858499724192,6.7460295822502125,16.419642532085142,11,2,24,ok,60,252548.0,68,78.0,-1,0,5,0,0,0,-29.0,23.0,-1031.0,0
1777593992.466887,14.292228937149048,1.0423149158017695,1.2666830033646022,2.85153953025697,0.8934483931226556,1.2509244183673602,2.784079234434468,2,14.886652267911394,1.575858499724192,6.7460295822502125,16.419642532085142,8,-4,3,ok,60,252540.0,68,78.0,-1,0,5,0,0,0,0.0,-9.0,-1002.0,0
1777593992.537874,14.363215923309326,1.0423149158017695,1.2666830033646022,2.85153953025697,0.8938900843818637,1.2501798040935048,2.784319401827348,2,14.84248314199058,1.6503199271097335,6.722012842962233,16.377066841868825,8,-4,3,ok,60,252540.0,68,78.0,-1,0,5,0,0,0,0.0,-9.0,-1002.0,0
1777593992.609306,14.434648036956787,1.0423149158017695,1.2666830033646022,2.85153953025697,0.8938900843818637,1.2501798040935048,2.784319401827348,2,14.84248314199058,1.6503199271097335,6.722012842962233,16.377066841868825,8,-4,3,ok,60,252535.0,68,78.5,0,0,5,0,0,0,-30.0,6.0,-1035.0,0
1777593992.68175,14.507091999053955,1.0423149158017695,1.2666830033646022,2.85153953025697,0.8899709668660206,1.2499534703869637,2.7838237167093327,2,15.234394893574887,1.6729532977638462,6.771581354763745,16.755293926221153,10,-4,3,ok,60,252532.00000000003,68,78.5,0,0,5,0,0,0,-11.0,5.0,-1000.0,0
1777593992.7536361,14.578978061676025,1.0423149158017695,1.2666830033646022,2.85153953025697,0.8440717267594235,1.1608367788073846,2.8146658494981063,2,19.824318904234595,10.58462245572176,3.687368075886388,22.773549039928508,27,8,30,ok,60,252532.00000000003,68,78.5,0,0,5,0,0,0,-11.0,5.0,-1000.0,0
1777593992.825099,14.65044093132019,1.0423149158017695,1.2666830033646022,2.85153953025697,0.931611191414927,1.2746623858808364,2.7687403831915693,2,11.07037243868425,-0.7979382516234201,8.279914706540081,13.84726828411158,-23,-21,-30,ok,60,252530.00000000003,68,78.5,0,0,5,0,0,0,21.0,-6.0,-1019.0,0
1777593992.8950028,14.72034478187561,1.0423149158017695,1.2666830033646022,2.85153953025697,0.9327994581648464,1.2748583851134767,2.7685018080336525,2,10.951545763692305,-0.8175381748874555,8.303772222331762,13.767983018656501,6,-5,1,ok,60,252538.0,68,78.5,0,0,5,0,0,0,-14.0,2.0,-989.0,0
