timestamp,phase,command,axis,repeat,t_send,t_since_cmd,marker_id,pos_x,pos_y,pos_z,marker_dist,tello_height_cm,tello_baro_cm,tello_battery,tello_temp_c,tello_pitch,tello_roll,tello_yaw,tello_vgx,tello_vgy,tello_vgz,tello_agx,tello_agy,tello_agz
1776458632.477066,init_hover,none,-,0,,,,,,,,0,252896.99999999997,94,56.5,0,0,0,0,0,0,-2.0,-5.0,-1002.0
1776458632.746809,init_hover,none,-,0,,,,,,,,0,252903.00000000003,94,57.0,0,0,0,0,0,0,-7.0,-1.0,-995.0
1776458632.798965,init_hover,none,-,0,,,,,,,,0,252903.00000000003,94,57.0,0,0,0,0,0,0,0.0,-5.0,-995.0
1776458632.849128,init_hover,none,-,0,,,,,,,,0,252903.00000000003,94,57.0,0,0,0,0,0,0,0.0,-5.0,-995.0
1776458632.89875,init_hover,none,-,0,,,,,,,,0,252903.00000000003,94,57.0,0,0,0,0,0,0,3.0,-5.0,-998.0
1776458632.9473531,init_hover,none,-,0,,,,,,,,0,252903.00000000003,94,57.0,0,0,0,0,0,0,3.0,-5.0,-998.0
1776458632.996812,init_hover,none,-,0,,,,,,,,0,252903.00000000003,94,57.0,0,0,0,0,0,0,11.0,-10.0,-1002.0
1776458633.047296,init_hover,none,-,0,,,,,,,,0,252903.00000000003,94,57.0,0,0,0,0,0,0,11.0,-10.0,-1002.0
1776458633.1122339,init_hover,none,-,0,,,,,,,,0,252903.00000000003,94,57.0,0,0,-1,0,0,0,27.0,-17.0,-994.0
1776458633.1632938,init_hover,none,-,0,,,,,,,,0,252903.00000000003,94,57.0,0,0,-1,0,0,0,27.0,-17.0,-994.0
1776458633.2136378,init_hover,none,-,0,,,,,,,,0,252903.00000000003,94,57.0,0,0,-1,0,0,0,-5.0,13.0,-1061.0
1776458633.263415,init_hover,none,-,0,,,,,,,,0,252903.00000000003,94,57.0,0,0,-1,0,0,0,-5.0,13.0,-1061.0
1776458633.3124769,init_hover,none,-,0,,,,,,,,0,252903.00000000003,94,57.0,0,0,0,0,0,0,-2.0,0.0,-1173.0
1776458633.362978,init_hover,none,-,0,,,,,,,,0,252903.00000000003,94,57.0,0,0,0,0,0,0,-2.0,0.0,-1173.0
1776458633.412809,init_hover,none,-,0,,,,,,,,0,252903.00000000003,94,57.0,0,0,0,0,0,-2,-2.0,34.0,-1265.0
1776458633.462683,init_hover,none,-,0,,,,,,,,0,252903.00000000003,94,57.0,0,0,0,0,0,-2,-2.0,34.0,-1265.0
1776458633.5123498,init_hover,none,-,0,,,,,,,,0,252903.00000000003,94,57.0,0,0,0,0,0,-5,14.0,10.0,-1208.0
1776458633.5619452,init_hover,none,-,0,,,,,,,,0,252903.00000000003,94,57.0,0,0,0,0,0,-5,14.0,10.0,-1208.0
1776458633.610823,init_hover,none,-,0,,,,,,,,10,252934.0,94,57.0,0,0,0,0,0,-7,-3.0,22.0,-1123.0
1776458633.660789,init_hover,none,-,0,,,,,,,,10,252934.0,94,57.0,0,0,0,0,0,-7,-3.0,22.0,-1123.0
1776458633.70981,init_hover,none,-,0,,,,,,,,20,252946.99999999997,94,58.0,0,-1,0,0,0,-7,0.0,9.0,-1046.0
1776458633.7603588,init_hover,none,-,0,,,,,,,,20,252946.99999999997,94,58.0,0,-1,0,0,0,-7,0.0,9.0,-1046.0
1776458633.8095648,init_hover,none,-,0,,,,,,,,20,252956.0,94,58.0,0,-1,0,0,0,-8,-1.0,28.0,-1003.0
1776458633.859956,init_hover,none,-,0,,,,,,,,20,252956.0,94,58.0,0,-1,0,0,0,-8,-1.0,28.0,-1003.0
1776458633.910781,init_hover,none,-,0,,,,,,,,30,252955.00000000003,94,58.0,0,-1,0,0,0,-7,0.0,14.0,-963.0
1776458633.961629,init_hover,none,-,0,,,0,0.8048970210070641,0.5386246316009955,2.2026880515834493,2.3459456095273503,30,252955.00000000003,94,58.0,0,-1,0,0,0,-7,0.0,14.0,-963.0
1776458634.0170188,init_hover,none,-,0,,,0,-0.7214827212447638,0.7005366911000639,2.2430725635117796,2.3583934083378466,30,252973.0,93,58.0,0,-1,0,0,0,-6,9.0,18.0,-923.0
1776458634.0677319,init_hover,none,-,0,,,0,-0.8112092095206671,0.6153464216545015,2.179401962920344,2.3255297913055837,30,252973.0,93,58.0,0,-1,0,0,0,-6,9.0,18.0,-923.0
1776458634.1186419,init_hover,none,-,0,,,0,0.8864796211306574,0.6385211101000358,2.130089677932403,2.307512086780362,40,252975.0,93,58.0,0,-1,0,0,0,-5,5.0,19.0,-916.0
1776458634.1701288,init_hover,none,-,0,,,0,0.8098617002583479,0.6318920873122247,2.1801497112651136,2.325929027788215,40,252975.0,93,58.0,0,-1,0,0,0,-5,5.0,19.0,-916.0
1776458634.220682,init_hover,none,-,0,,,0,0.8098617002583479,0.6318920873122247,2.1801497112651136,2.325929027788215,40,252990.0,93,58.0,0,-1,0,0,0,-4,3.0,-5.0,-913.0
1776458634.271914,init_hover,none,-,0,,,0,0.8040734711102157,0.6977810197869865,2.1749339288578824,2.320868990199791,40,252990.0,93,58.0,0,-1,0,0,0,-4,3.0,-5.0,-913.0
1776458634.3225741,init_hover,none,-,0,,,0,0.7020999771463144,0.7940810213121565,2.219672635051098,2.336141782413283,50,252984.0,93,58.0,1,-2,0,0,0,-3,5.0,1.0,-906.0
1776458634.372389,init_hover,none,-,0,,,0,0.7127715261451898,0.7985001425890427,2.2087372768687943,2.3293702825701605,50,252984.0,93,58.0,1,-2,0,0,0,-3,5.0,1.0,-906.0
1776458634.423657,init_hover,none,-,0,,,0,0.5519253016661294,0.8299112834195381,2.2754101610768,2.3526521498076196,50,252998.0,93,58.0,0,-1,0,0,0,-3,-4.0,11.0,-923.0
1776458634.4740522,init_hover,none,-,0,,,0,0.7361039249378624,0.8067367505764211,2.18131491175936,2.3114332818862775,50,252998.0,93,58.0,0,-1,0,0,0,-3,-4.0,11.0,-923.0
1776458634.523828,init_hover,none,-,0,,,0,0.6968834570877128,0.792104850261059,2.227943907401926,2.342281981484234,50,252992.99999999997,93,58.0,0,-1,0,0,0,-2,5.0,14.0,-930.0
1776458634.573334,init_hover,none,-,0,,,0,0.7534029010769331,0.8352521923743512,2.180969785192689,2.3193940435578257,50,252992.99999999997,93,58.0,0,-1,0,0,0,-2,5.0,14.0,-930.0
1776458634.6245792,init_hover,none,-,0,,,0,0.5589652727970833,0.942574436990672,2.2475653109006792,2.3412281494627263,60,252985.0,93,58.0,0,-1,0,0,0,-1,-12.0,15.0,-960.0
1776458634.6759832,init_hover,none,-,0,,,0,0.5710873656450564,0.9454459923758364,2.2390097724764706,2.3363729312960877,60,252985.0,93,58.0,0,-1,0,0,0,-1,-12.0,15.0,-960.0
1776458634.7272909,init_hover,none,-,0,,,0,0.7595151516894428,0.8986516611402111,2.1690132137842775,2.3174715536373784,60,252994.99999999997,93,58.0,0,-1,0,0,0,-1,-5.0,14.0,-952.0
1776458634.777786,init_hover,none,-,0,,,0,0.6631794288321354,0.9783917549303027,2.1965340002083136,2.3254567054874378,60,252994.99999999997,93,58.0,0,-1,0,0,0,-1,-5.0,14.0,-952.0
1776458634.8289611,init_hover,none,-,0,,,0,0.8537646898002291,0.8790248907441511,2.133701117095602,2.315048485950021,60,253005.00000000003,93,58.0,0,-1,0,0,0,0,-9.0,20.0,-977.0
1776458634.879909,init_hover,none,-,0,,,0,0.7012568230345166,0.9024081078200274,2.2050094565291984,2.3335120524460433,60,253005.00000000003,93,58.0,0,-1,0,0,0,0,-9.0,20.0,-977.0
1776458634.930323,init_hover,none,-,0,,,0,0.6760504077115875,0.9837699894554304,2.184757131790189,2.3189409831821326,60,253009.0,93,58.0,0,-1,0,0,0,0,-11.0,29.0,-969.0
1776458634.9820302,init_hover,none,-,0,,,0,0.5972076945467157,0.9746910922009552,2.2328168888941127,2.3414785295473735,60,252996.99999999997,93,58.0,0,-1,0,0,0,0,4.0,26.0,-978.0
1776458635.0337799,init_hover,none,-,0,,,0,0.7110955879889276,0.9090064765551555,2.1955999817886918,2.3284761578854214,60,252996.99999999997,93,58.0,0,-1,0,0,0,0,4.0,26.0,-978.0
1776458635.083843,init_hover,none,-,0,,,0,0.5468219642883524,1.0396550282791017,2.2341644673401815,2.3417518381854014,60,253007.00000000003,93,58.0,0,-1,0,0,0,0,20.0,8.0,-982.0
1776458635.134502,init_hover,none,-,0,,,0,0.5272244189828628,1.0443190718242503,2.2389497697012715,2.342708069052556,60,253007.00000000003,93,58.0,0,-1,0,0,0,0,20.0,8.0,-982.0
1776458635.1860979,init_hover,none,-,0,,,0,0.7087638336264229,0.9894239090324684,2.185926142229874,2.330723117847105,60,253007.00000000003,93,58.0,0,-1,0,0,0,0,0.0,23.0,-1006.0
1776458635.2367492,init_hover,none,-,0,,,0,0.6353873492105256,0.9784362291558195,2.2345466850514963,2.353748064417491,60,253007.00000000003,93,58.0,0,-1,0,0,0,0,0.0,23.0,-1006.0
1776458635.287912,init_hover,none,-,0,,,0,0.5379323750017334,1.047536230304054,2.2323003679586106,2.339406944141596,70,253008.0,93,58.0,0,-1,0,0,0,0,2.0,2.0,-988.0
1776458635.337536,init_hover,none,-,0,,,0,-0.705045270291219,0.2231333175995457,2.1887529051221937,2.3301838144542124,70,253008.0,93,58.0,0,-1,0,0,0,0,2.0,2.0,-988.0
1776458635.3884711,init_hover,none,-,0,,,0,0.7167934975441447,0.9947270395093987,2.178335902840493,2.3269614649678516,70,253011.0,93,58.0,0,-1,0,0,0,0,-10.0,10.0,-984.0
1776458635.437781,init_hover,none,-,0,,,0,0.7827055105989796,1.002963828388348,2.1505379642268183,2.3237515570499854,70,253011.0,93,58.0,0,-1,0,0,0,0,-10.0,10.0,-984.0
1776458635.489564,init_hover,none,-,0,,,0,0.626313015328704,1.0672340482206053,2.1983779317863803,2.3331183381800655,70,253004.0,93,58.0,0,-1,0,0,0,0,-12.0,11.0,-1009.0
1776458635.539839,init_hover,none,-,0,,,0,0.6272607811293565,1.067808007774447,2.19750519635273,2.3326657513836304,70,253004.0,93,58.0,0,-1,0,0,0,0,-12.0,11.0,-1009.0
1776458635.589507,init_hover,none,-,0,,,0,0.7229462405066948,0.9989127309598953,2.1728201857607528,2.3244203994187536,70,253012.0,93,58.0,0,-1,0,0,0,0,0.0,28.0,-991.0
1776458635.6405098,init_hover,none,-,0,,,0,0.72365958744756,0.9996461221669737,2.1719846743554383,2.3239874455561873,70,253012.0,93,58.0,0,-1,0,0,0,0,0.0,28.0,-991.0
1776458635.6914198,init_hover,none,-,0,,,0,0.7082355608543962,1.003137329706541,2.1788048249114094,2.326221782487409,70,253003.00000000003,93,58.0,0,-1,0,0,0,0,-3.0,33.0,-982.0
1776458635.741847,init_hover,none,-,0,,,0,0.6337472430231423,1.0704270390978265,2.1930082093617065,2.3307128037322875,70,253003.00000000003,93,58.0,0,-1,0,0,0,0,-3.0,33.0,-982.0
1776458635.7936032,init_hover,none,-,0,,,0,0.7274756433422107,1.0018166869166567,2.1691564594515746,2.3229113644565373,70,253009.0,93,58.0,0,-1,0,0,0,0,1.0,27.0,-996.0
1776458635.843486,init_hover,none,-,0,,,0,0.8015003289177758,0.942449115221814,2.142996118181664,2.3134620239617476,70,253009.0,93,58.0,0,-1,0,0,0,0,1.0,27.0,-996.0
1776458635.895495,init_hover,none,-,0,,,0,0.5599204713784796,1.0550251171332785,2.2194865057399764,2.333812147678708,70,253017.99999999997,93,58.0,0,-1,0,0,0,0,2.0,24.0,-972.0
1776458635.948134,init_hover,none,-,0,,,0,0.6396439229440076,1.0509631592953896,2.19768059725097,2.3328763633622462,70,253017.99999999997,93,58.0,0,-1,0,0,0,0,2.0,24.0,-972.0
1776458635.999604,init_hover,none,-,0,,,0,0.5548674544272273,1.0723363575327098,2.236645579249237,2.352352646565768,70,253008.0,92,58.0,0,-1,0,0,0,0,8.0,18.0,-980.0
1776458636.0496051,init_hover,none,-,0,,,0,0.7071216157479769,1.085033692841566,2.163442082351606,2.3271786150485765,70,253008.0,92,58.0,0,-1,0,0,0,0,8.0,18.0,-980.0
1776458636.1006458,init_hover,none,-,0,,,0,0.7921432733714853,1.0158225044132532,2.138243453724842,2.3178620295697807,70,253016.0,92,58.0,0,-1,0,0,0,0,-6.0,13.0,-990.0
1776458636.151873,init_hover,none,-,0,,,0,0.5609034576536247,1.053974480812416,2.220186863541078,2.334509633108646,70,253016.0,92,58.0,0,-1,0,0,0,0,-6.0,13.0,-990.0
1776458636.201776,init_hover,none,-,0,,,0,0.6374730851463574,1.0698367247932303,2.1925904549610546,2.3312167178185663,70,253013.0,92,58.0,0,-1,0,0,0,0,-12.0,20.0,-992.0
1776458636.251711,init_hover,none,-,0,,,0,0.6580328489316136,1.0473969671329455,2.191019967246563,2.3310383466056375,70,253013.0,92,58.0,0,-1,0,0,0,0,-12.0,20.0,-992.0
1776458636.301566,init_hover,none,-,0,,,0,0.5598327751264004,1.053277231741022,2.221044657789699,2.3349330518917863,70,253010.0,92,58.0,0,-1,0,0,0,0,-2.0,10.0,-994.0
1776458636.351156,init_hover,none,-,0,,,0,0.6385598898615759,1.054237265670515,2.176391819624094,2.313173486574349,70,253010.0,92,58.0,0,-1,0,0,0,0,-2.0,10.0,-994.0
1776458636.401342,init_hover,none,-,0,,,0,0.7075931939571454,1.0537774403435607,2.153757375237869,2.3119846290342725,70,253017.0,92,58.0,0,-1,0,0,0,0,-16.0,23.0,-1012.0
1776458636.452398,init_hover,none,-,0,,,0,0.6347500228704555,1.0679580284343242,2.1951407661415008,2.332495507195347,70,253017.0,92,58.0,0,-1,0,0,0,0,-16.0,23.0,-1012.0
1776458636.503808,init_hover,none,-,0,,,0,0.6338286135770106,1.0673403211777082,2.1960006307757487,2.332930444217085,70,253014.0,92,58.0,0,-1,0,0,0,0,10.0,14.0,-992.0
1776458636.556652,init_hover,none,-,0,,,0,0.6538362583772585,0.9859737969386901,2.223109151644421,2.349189631514923,70,253014.0,92,58.0,0,-1,0,0,0,0,10.0,14.0,-992.0
1776458636.606652,init_hover,none,-,0,,,0,0.727689419049565,0.9793733648465441,2.1779809070716634,2.3274571686972862,70,253008.0,92,58.0,0,0,0,0,0,0,11.0,-4.0,-1004.0
1776458636.6581109,init_hover,none,-,0,,,0,0.7242573452861762,0.9965173196040599,2.1746097613975497,2.3260916364822073,70,253008.0,92,58.0,0,0,0,0,0,0,11.0,-4.0,-1004.0
1776458636.708941,init_hover,none,-,0,,,0,0.7242573452861762,0.9965173196040599,2.1746097613975497,2.3260916364822073,70,253015.0,92,58.0,0,0,0,0,0,0,-4.0,20.0,-998.0
1776458636.7602959,init_hover,none,-,0,,,0,0.7252913097380992,0.9885988078211659,2.1753309469180593,2.3257517593331105,70,253015.0,92,58.0,0,0,0,0,0,0,-4.0,20.0,-998.0
1776458636.8116128,init_hover,none,-,0,,,0,0.6332726752336646,1.0502351783461066,2.181555774282415,2.315800421738216,70,253009.0,92,58.0,0,-1,0,0,0,0,14.0,-2.0,-1005.0
1776458636.86359,init_hover,none,-,0,,,0,0.7238196859122638,0.9941865646879376,2.1767998281069976,2.327607242887266,70,253009.0,92,58.0,0,-1,0,0,0,0,14.0,-2.0,-1005.0
1776458636.915457,init_hover,none,-,0,,,0,0.5509674005672778,1.0478659415012166,2.228071523427471,2.338472084835106,70,253009.0,92,58.0,0,-1,0,0,0,0,3.0,4.0,-979.0
1776458636.967513,init_hover,none,-,0,,,0,0.7230789117559081,0.9934427009449518,2.177666360166931,2.328061650333954,70,253009.0,92,58.0,0,-1,0,0,0,0,3.0,4.0,-979.0
1776458637.0191202,init_hover,none,-,0,,,0,0.5486656017336523,1.0465605836723,2.2298737418428782,2.339398897575156,70,253002.0,92,58.0,0,-1,0,0,0,0,-4.0,21.0,-1000.0
1776458637.069998,init_hover,none,-,0,,,0,0.6296119530999686,1.0476444613477485,2.1850977306263033,2.3176386404376963,70,253002.0,92,58.0,0,-1,0,0,0,0,-4.0,21.0,-1000.0
1776458637.121717,init_hover,none,-,0,,,0,0.6252181242082832,1.061976884961867,2.203959038470998,2.337039962930801,70,253003.00000000003,92,58.0,0,-1,0,0,0,0,-1.0,16.0,-981.0
1776458637.171983,init_hover,none,-,0,,,0,0.5601404659031797,0.9773234857057864,2.256426029531478,2.355331989583334,70,253003.00000000003,92,58.0,0,-1,0,0,0,0,-1.0,16.0,-981.0
1776458637.2229388,init_hover,none,-,0,,,0,0.6254579331921425,1.0408992295138435,2.211040727552963,2.3397202515849673,70,253017.99999999997,92,58.0,0,-1,0,0,0,0,13.0,-1.0,-1015.0
1776458637.2744691,init_hover,none,-,0,,,0,0.6212950809109467,1.0612980258055889,2.206006762225232,2.3377915392865387,70,253017.99999999997,92,58.0,0,-1,0,0,0,0,13.0,-1.0,-1015.0
1776458637.326035,init_hover,none,-,0,,,0,0.6950933066589848,1.010787626871959,2.1871003230318156,2.3313749167302737,70,253010.0,92,58.0,0,-1,0,0,0,0,12.0,7.0,-974.0
1776458637.377565,init_hover,none,-,0,,,0,0.5310748621130376,1.062626607148387,2.2527756644015593,2.360309742582506,70,253010.0,92,58.0,0,-1,0,0,0,0,12.0,7.0,-974.0
1776458637.4301472,init_hover,none,-,0,,,0,0.6421301924658255,0.960992216015002,2.2161619935509127,2.3353844535234822,70,253014.0,92,58.0,0,-1,0,0,0,0,-1.0,0.0,-1018.0
1776458637.4821591,pre_hover,right,x,1,,,0,0.711530943219363,0.988238106997403,2.1860344877084974,2.3314698995128627,70,253014.0,92,58.0,0,-1,0,0,0,0,-1.0,0.0,-1018.0
1776458637.5343611,pre_hover,right,x,1,,,0,0.6162349826378152,1.0440687631511034,2.193176151677164,2.3209834666620606,70,253007.00000000003,92,58.0,0,-1,0,0,0,0,1.0,24.0,-1014.0
1776458637.585259,pre_hover,right,x,1,,,0,0.7081007782672621,0.9871312255150394,2.1883087104154795,2.332374821942592,70,253007.00000000003,92,58.0,0,-1,0,0,0,0,1.0,24.0,-1014.0
1776458637.634399,pre_hover,right,x,1,,,0,0.7072723460487267,0.986457456041877,2.1892497885000317,2.332894805443028,70,253008.0,92,58.0,0,-1,0,0,0,0,16.0,-2.0,-997.0
1776458637.681818,pre_hover,right,x,1,,,0,0.7173496413614237,0.9110195424658856,2.1917223130554353,2.327008887241757,70,253008.0,92,58.0,0,-1,0,0,0,0,16.0,-2.0,-997.0
1776458637.7283251,pre_hover,right,x,1,,,0,0.6103040942110107,1.0368673433755622,2.220377519912487,2.343800438188258,70,253009.0,92,58.5,0,-1,0,0,0,0,-8.0,28.0,-993.0
1776458637.775303,pre_hover,right,x,1,,,0,0.7541810292061999,0.9931125094926365,2.150439363021078,2.3125129024428426,70,253009.0,92,58.5,0,-1,0,0,0,0,-8.0,28.0,-993.0
1776458637.824533,pre_hover,right,x,1,,,0,0.6060457323100071,1.058329223730588,2.215133773240172,2.3418314927265578,70,253010.0,92,58.5,0,-1,0,0,0,0,4.0,2.0,-1003.0
1776458637.877117,pre_hover,right,x,1,,,0,0.5476771899106485,1.0383632395866047,2.234965535452233,2.3424738160390555,70,253008.0,92,58.5,0,0,0,0,0,0,-1.0,10.0,-996.0
1776458637.9295738,pre_hover,right,x,1,,,0,0.7772261995322791,0.9394705423613451,2.163549338992901,2.323847360871001,70,253008.0,92,58.5,0,0,0,0,0,0,-1.0,10.0,-996.0
1776458637.979218,pre_hover,right,x,1,,,0,0.6271849133772922,0.9790501927683499,2.219314528841434,2.33717713109907,70,253003.00000000003,91,58.5,0,0,0,0,0,0,-4.0,27.0,-1003.0
1776458638.031855,pre_hover,right,x,1,,,0,0.7911449389111553,0.9360672332924707,2.1566964052451087,2.3216784626762523,70,253003.00000000003,91,58.5,0,0,0,0,0,0,-4.0,27.0,-1003.0
1776458638.0820858,pre_hover,right,x,1,,,0,0.7003285254097475,0.9828350951522009,2.1954516402153144,2.336028822190963,70,253010.0,91,58.5,0,0,0,0,0,0,1.0,11.0,-979.0
1776458638.13463,pre_hover,right,x,1,,,0,0.6994479922016777,0.9821920794459522,2.1964359999231626,2.336584982649816,70,253010.0,91,58.5,0,0,0,0,0,0,1.0,11.0,-979.0
1776458638.18669,pre_hover,right,x,1,,,0,0.7750448151291244,0.9374912683313039,2.1663803730023923,2.3254674244522104,70,253007.00000000003,91,58.5,0,0,0,0,0,0,0.0,13.0,-1005.0
1776458638.238265,pre_hover,right,x,1,,,0,0.7743539968555481,0.9262558084299013,2.1480704199785454,2.3065718055519566,70,253007.00000000003,91,58.5,0,0,0,0,0,0,0.0,13.0,-1005.0
1776458638.289686,pre_hover,right,x,1,,,0,0.7095801063844025,0.9056856861842741,2.198914604203069,2.3307022767166106,70,253006.0,91,58.5,0,-1,0,0,0,0,-3.0,5.0,-1009.0
1776458638.341671,pre_hover,right,x,1,,,0,0.6998513141329172,0.9749440751947978,2.1972595046639998,2.336305684676887,70,253006.0,91,58.5,0,-1,0,0,0,0,-3.0,5.0,-1009.0
1776458638.394391,pre_hover,right,x,1,,,0,0.775288253686007,0.9359292172156575,2.1677603374492302,2.326608088161954,60,253008.0,91,58.5,0,-1,0,0,0,0,-2.0,5.0,-1013.0
1776458638.446244,pre_hover,right,x,1,,,0,0.7294603247238692,0.9027629590773812,2.1896949170524342,2.3277761070388214,60,253008.0,91,58.5,0,-1,0,0,0,0,-2.0,5.0,-1013.0
1776458638.4990468,pre_hover,right,x,1,,,0,0.7787238048979288,0.9199135265477667,2.16987492176492,2.327469141554245,60,253011.0,91,58.5,0,-1,0,0,0,0,5.0,-8.0,-1013.0
1776458638.551012,pre_hover,right,x,1,,,0,0.7012873214001045,0.9818201963110226,2.195999227952086,2.3366649692743033,60,253011.0,91,58.5,0,-1,0,0,0,0,5.0,-8.0,-1013.0
1776458638.603389,pre_hover,right,x,1,,,0,0.606922655115943,1.039114623094044,2.2018198353615777,2.3257659703632463,60,252998.0,91,58.5,0,-1,0,0,0,0,-8.0,2.0,-992.0
1776458638.6555362,pre_hover,right,x,1,,,0,0.7031312260165979,0.9814650467960964,2.1955616762405206,2.336749917535643,60,252998.0,91,58.5,0,-1,0,0,0,0,-8.0,2.0,-992.0
1776458638.7072582,pre_hover,right,x,1,,,0,0.7142753107612693,0.906062254982659,2.1968520889908154,2.3302408511549806,60,252998.99999999997,91,59.0,0,-1,0,0,0,0,-9.0,15.0,-1011.0
1776458638.759496,pre_hover,right,x,1,,,0,0.609924089621862,1.0390560394372077,2.2005830713697323,2.3253695308200784,60,252998.99999999997,91,59.0,0,-1,0,0,0,0,-9.0,15.0,-1011.0
1776458638.81109,pre_hover,right,x,1,,,0,0.6133597975483932,0.9572831376599219,2.2108777389615146,2.322033991641876,60,253017.0,91,59.0,0,-1,0,0,0,0,8.0,18.0,-1001.0
1776458638.863161,pre_hover,right,x,1,,,0,0.7170319940384161,0.9066955617039305,2.1953547564572897,2.3297595486966554,60,253017.0,91,59.0,0,-1,0,0,0,0,8.0,18.0,-1001.0
1776458638.9143722,pre_hover,right,x,1,,,0,0.7067022007367314,0.9824803720748218,2.1931773265726284,2.3357538443382464,60,253008.0,91,59.0,0,-1,0,0,0,0,1.0,6.0,-995.0
1776458638.964855,pre_hover,right,x,1,,,0,0.6900181420032347,0.9846783396016597,2.177770257802316,2.316632417329226,60,253008.0,91,59.0,0,-1,0,0,0,0,1.0,6.0,-995.0
1776458639.0163321,pre_hover,right,x,1,,,0,0.6929792273131262,0.965331462304958,2.1821337886323695,2.3184898443444677,70,253011.0,91,59.0,0,-1,0,0,0,0,-2.0,8.0,-993.0
1776458639.067323,pre_hover,right,x,1,,,0,0.6918920076046629,0.9843345865804268,2.1773543641776554,2.3167433288633075,70,253011.0,91,59.0,0,-1,0,0,0,0,-2.0,8.0,-993.0
1776458639.118518,pre_hover,right,x,1,,,0,0.6169246706093775,1.0396681400408703,2.197158025963508,2.324092836706259,70,253007.00000000003,91,59.0,0,0,0,0,0,0,17.0,8.0,-988.0
1776458639.168898,pre_hover,right,x,1,,,0,0.621801553818689,0.9576437977354832,2.2076935621686378,2.321305047345317,70,253007.00000000003,91,59.0,0,0,0,0,0,0,17.0,8.0,-988.0
1776458639.221494,pre_hover,right,x,1,,,0,0.7235988522469234,0.9071335585801699,2.1928059091636265,2.3294471612470846,70,253002.0,91,59.0,0,-1,0,0,0,0,-19.0,21.0,-1005.0
1776458639.2723572,pre_hover,right,x,1,,,0,0.6947765162083709,0.9830270010402227,2.1774721142408926,2.3175005715850885,70,253002.0,91,59.0,0,-1,0,0,0,0,-19.0,21.0,-1005.0
1776458639.3243148,pre_hover,right,x,1,,,0,0.7133310325239638,0.9797501748517379,2.169353283317988,2.3149827267399132,70,253010.0,91,59.0,0,-1,0,0,0,0,1.0,18.0,-990.0
1776458639.375951,pre_hover,right,x,1,,,0,0.6207388852646177,1.0369812923005557,2.19828467892327,2.325666558879198,70,253010.0,91,59.0,0,-1,0,0,0,0,1.0,18.0,-990.0
1776458639.427594,pre_hover,right,x,1,,,0,0.6216879173806638,1.0358824941812097,2.1989793268613567,2.3263704553046503,70,253015.0,91,59.0,0,-1,0,0,0,0,-7.0,25.0,-1014.0
1776458639.4793,pre_hover,right,x,1,,,0,0.6976929399271915,0.9817439866865123,2.1775816651382796,2.3182678486624364,70,253015.0,91,59.0,0,-1,0,0,0,0,-7.0,25.0,-1014.0
1776458639.531797,pre_hover,right,x,1,,,0,0.6987250741189753,0.9807651204455263,2.178111542024412,2.31891541364717,70,253010.0,91,59.0,0,-1,0,0,0,0,0.0,26.0,-1002.0
1776458639.58336,pre_hover,right,x,1,,,0,0.6242873728792848,1.028723841458824,2.1995839374345603,2.326307880309881,70,253010.0,91,59.0,0,-1,0,0,0,0,0.0,26.0,-1002.0
1776458639.6331131,pre_hover,right,x,1,,,0,0.6282774486392979,0.9528591052775872,2.209520790913612,2.3240534043187386,70,253005.00000000003,91,59.0,0,-1,0,0,0,0,11.0,-7.0,-989.0
1776458639.680751,pre_hover,right,x,1,,,0,0.7027137717709574,0.9606781697724323,2.1828672870283405,2.321379973198146,70,253005.00000000003,91,59.0,0,-1,0,0,0,0,11.0,-7.0,-989.0
1776458639.729024,pre_hover,right,x,1,,,0,0.7008137833033633,0.9788010445927315,2.1791695010989356,2.3202176416819826,70,253001.00000000003,91,58.5,0,-1,0,0,0,0,7.0,3.0,-1002.0
1776458639.778665,pre_hover,right,x,1,,,0,0.6112440472327937,1.0912938655407887,2.1770964925520655,2.3140307010664403,70,253001.00000000003,91,58.5,0,-1,0,0,0,0,7.0,3.0,-1002.0
1776458639.830053,pre_hover,right,x,1,,,0,0.7675230178650375,0.9735663118288163,2.1352295238719163,2.299532233281441,70,253006.0,91,58.5,0,-1,0,0,0,0,-9.0,8.0,-1014.0
1776458639.879264,pre_hover,right,x,1,,,0,0.6807825935421641,1.032489704790272,2.1639291499039057,2.309350915349032,70,253006.0,91,58.5,0,-1,0,0,0,0,-9.0,8.0,-1014.0
1776458639.932151,pre_hover,right,x,1,,,0,0.6079425912059263,1.032079318099828,2.188125607202597,2.3117483436195045,70,253008.0,91,58.5,0,-1,0,0,0,0,-2.0,17.0,-999.0
1776458639.980761,pre_hover,right,x,1,,,0,0.5479511099684061,1.0011037687551365,2.232982278771459,2.333954693119076,70,253008.0,91,58.5,0,-1,0,0,0,0,-2.0,17.0,-999.0
1776458640.03441,pre_hover,right,x,1,,,0,0.545265489922205,1.026914703758897,2.226745602619608,2.3319448101469744,70,253009.0,90,58.5,0,-1,0,0,0,0,11.0,6.0,-1013.0
1776458640.086832,pre_hover,right,x,1,,,0,0.7777521040735806,0.9188869744545667,2.134300277251774,2.293866803313712,70,253009.0,90,58.5,0,-1,0,0,0,0,11.0,6.0,-1013.0
1776458640.1378071,pre_hover,right,x,1,,,0,0.680538169796427,1.033074418573505,2.1452919616833195,2.2919343911717274,70,253000.0,90,58.5,0,-1,0,0,0,0,-15.0,25.0,-1006.0
1776458640.188965,pre_hover,right,x,1,,,0,0.7677532704304291,0.9657135950188052,2.1183478045457567,2.282671447857099,70,253000.0,90,58.5,0,-1,0,0,0,0,-15.0,25.0,-1006.0
1776458640.239367,pre_hover,right,x,1,,,0,0.6876572965876165,0.9598844269287573,2.152892807601316,2.2885228422101247,70,253007.00000000003,90,58.5,0,-1,0,0,0,0,5.0,-8.0,-1009.0
1776458640.291886,pre_hover,right,x,1,,,0,0.6287253241969666,1.0230788570822769,2.185599415497588,2.3132522684783052,70,253007.00000000003,90,58.5,0,-1,0,0,0,0,5.0,-8.0,-1009.0
1776458640.343804,pre_hover,right,x,1,,,0,0.6887485735428426,0.9588697770990956,2.15341284874955,2.289180860402277,70,253004.0,90,58.5,0,-1,0,0,0,0,-8.0,16.0,-1032.0
1776458640.3951292,pre_hover,right,x,1,,,0,0.5959472284545032,1.0834693167993168,2.1702740700920318,2.301952479679551,70,252998.99999999997,90,58.5,0,-1,0,0,0,0,-3.0,8.0,-1020.0
1776458640.44626,pre_hover,right,x,1,,,0,0.6825960502956336,1.029435521639221,2.1481960352987666,2.294580232024604,70,252998.99999999997,90,58.5,0,-1,0,0,0,0,-3.0,8.0,-1020.0
1776458640.497911,response,right,x,1,1776458640.497685,0.00022602081298828125,0,0.7544269425937258,0.95438864658365,2.110391641739967,2.2690315568683963,70,253003.00000000003,90,58.5,0,-1,0,0,0,0,-1.0,6.0,-1006.0
1776458640.5486789,response,right,x,1,1776458640.497685,0.050993919372558594,0,0.6682650566981168,1.01131949862319,2.1397420984919435,2.279091521639725,70,253003.00000000003,90,58.5,0,-1,0,0,0,0,-1.0,6.0,-1006.0
1776458640.598186,response,right,x,1,1776458640.497685,0.10050106048583984,0,0.7554672716122409,0.9534954651036083,2.110861090454751,2.269674951512194,70,253005.00000000003,90,58.5,0,-1,0,0,0,0,4.0,12.0,-1018.0
1776458640.6480472,response,right,x,1,1776458640.497685,0.15036225318908691,0,0.7317048913932024,1.0184684223983838,2.0943820013197167,2.2576412106633135,70,253005.00000000003,90,58.5,0,-1,0,0,0,0,4.0,12.0,-1018.0
1776458640.69808,response,right,x,1,1776458640.497685,0.2003951072692871,0,0.6860873893847144,1.0081651641341989,2.1323017886980247,2.276845542668678,70,253009.0,90,59.5,0,1,0,0,0,0,11.0,11.0,-1030.0
1776458640.749147,response,right,x,1,1776458640.497685,0.2514619827270508,0,0.7527626152115364,0.9693839911765446,2.107435983841411,2.268123125799665,70,253009.0,90,59.5,0,1,0,0,0,0,11.0,11.0,-1030.0
1776458640.799225,response,right,x,1,1776458640.497685,0.3015401363372803,0,0.6851862552599375,1.007505198512802,2.1332990929631075,2.277390109588015,70,253006.0,90,59.5,0,5,0,0,0,0,26.0,4.0,-980.0
1776458640.8492138,response,right,x,1,1776458640.497685,0.3515288829803467,0,0.6941519144005946,0.940653283898043,2.1387483945533545,2.274233109270262,70,253006.0,90,59.5,0,5,0,0,0,0,26.0,4.0,-980.0
1776458640.899731,response,right,x,1,1776458640.497685,0.40204596519470215,0,0.6234267977820419,0.9984639585482459,2.1610411493713624,2.284192055789313,70,253011.0,90,59.5,0,3,0,0,1,0,-10.0,19.0,-993.0
1776458640.9509718,response,right,x,1,1776458640.497685,0.45328688621520996,0,0.7761867434472999,0.894138164106635,2.11108663275251,2.268406906018776,70,253011.0,90,59.5,0,3,0,0,1,0,-10.0,19.0,-993.0
1776458641.001773,response,right,x,1,1776458640.497685,0.5040881633758545,0,0.7165250631009829,0.9232752023041648,2.1464264605604617,2.2858393585444228,70,252994.0,90,59.5,0,1,0,0,2,0,11.0,-12.0,-983.0
1776458641.052563,response,right,x,1,1776458640.497685,0.5548779964447021,0,0.627339851257226,0.9583635071558176,2.185470063082876,2.3017947538535934,70,252994.0,90,59.5,0,1,0,0,2,0,11.0,-12.0,-983.0
1776458641.103334,response,right,x,1,1776458640.497685,0.6056489944458008,0,0.712424873490462,0.9613948607302913,2.1426240930707,2.2866992478105224,70,253010.0,90,59.5,0,0,0,0,2,0,14.0,-16.0,-1016.0
1776458641.153478,response,right,x,1,1776458640.497685,0.6557929515838623,0,0.7955684537771883,0.91195845225945,2.1176446628658674,2.2835643539751254,70,253010.0,90,59.5,0,0,0,0,2,0,14.0,-16.0,-1016.0
1776458641.204316,response,right,x,1,1776458640.497685,0.7066309452056885,0,0.8426716587483313,0.9762053388123022,2.0756662498651797,2.2715669398540563,70,253006.0,90,59.5,0,0,0,0,2,0,-3.0,6.0,-1002.0
1776458641.25599,response,right,x,1,1776458640.497685,0.7583050727844238,0,0.7912539703216304,0.9596709061895516,2.113798856468558,2.285517799518687,70,253006.0,90,59.5,0,0,0,0,2,0,-3.0,6.0,-1002.0
1776458641.306449,response,right,x,1,1776458640.497685,0.8087639808654785,2,-0.4050477583727696,1.3214809934556406,2.1364116569942007,2.1981056580284615,70,253008.0,90,59.5,0,0,0,0,2,0,9.0,-16.0,-1007.0
1776458641.3585,response,right,x,1,1776458640.497685,0.8608150482177734,2,-0.38586460737416595,1.4103693965338384,2.0986571332617823,2.1729372517001333,70,253008.0,90,59.5,0,0,0,0,2,0,9.0,-16.0,-1007.0
1776458641.409281,response,right,x,1,1776458640.497685,0.9115960597991943,2,-0.4779237991917272,1.2820984726729197,2.086729529948432,2.159266272898517,70,253002.0,90,59.5,0,0,0,0,2,0,-4.0,-2.0,-984.0
1776458641.4602811,response,right,x,1,1776458640.497685,0.9625961780548096,2,-0.45847371273903686,1.301178308184082,2.078100239479338,2.1492806061371845,70,253002.0,90,59.5,0,0,0,0,2,0,-4.0,-2.0,-984.0
1776458641.511391,response,right,x,1,1776458640.497685,1.0137059688568115,2,-0.3378309867334113,1.4046774277947096,2.0809498450090227,2.1466825227794835,70,253007.00000000003,90,59.5,0,0,0,0,2,0,-14.0,-8.0,-1013.0
1776458641.5634801,response,right,x,1,1776458640.497685,1.0657951831817627,2,-0.4326568374791791,1.3309784252079893,2.06299153831035,2.133699309675744,70,253007.00000000003,90,59.5,0,0,0,0,2,0,-14.0,-8.0,-1013.0
1776458641.6136,response,right,x,1,1776458640.497685,1.115915060043335,2,-0.33138921838082347,1.3525757748267153,2.0723544251081494,2.1280933612788324,70,253003.00000000003,90,59.5,0,-1,0,0,2,0,4.0,-12.0,-998.0
1776458641.662552,response,right,x,1,1776458640.497685,1.1648671627044678,2,-0.14769996596213547,1.4649721821364867,2.0528891556083377,2.1100635761323154,70,253003.00000000003,90,59.5,0,-1,0,0,2,0,4.0,-12.0,-998.0
1776458641.711514,response,right,x,1,1776458640.497685,1.2138290405273438,2,-0.4885152712101608,1.2986018037398552,2.013303949476969,2.09313234182213,70,253000.0,90,59.5,0,-1,0,0,2,0,4.0,0.0,-991.0
1776458641.761674,response,right,x,1,1776458640.497685,1.263988971710205,2,-0.41527826929234424,1.3036803241871913,2.036473274797312,2.1004526129404995,70,253000.0,90,59.5,0,-1,0,0,2,0,4.0,0.0,-991.0
1776458641.81345,response,right,x,1,1776458640.497685,1.315765142440796,2,-0.49198828816597623,1.2451126869293734,2.017325246738808,2.0908691628401854,70,253007.00000000003,90,59.5,3,-3,0,0,2,0,-7.0,6.0,-1002.0
1776458641.862581,response,right,x,1,1776458640.497685,1.3648960590362549,2,-0.40502071632205255,1.3998718669294994,1.9898070634675153,2.0696065907406,70,253007.00000000003,90,59.5,3,-3,0,0,2,0,-7.0,6.0,-1002.0
1776458641.912558,response,right,x,1,1776458640.497685,1.4148731231689453,2,0.3496457354966515,0.6789913559861398,2.0207521435677256,2.0757499646190936,70,253004.0,89,59.5,4,-4,-1,0,1,0,-5.0,-13.0,-1042.0
1776458641.964612,response,right,x,1,1776458640.497685,1.4669270515441895,2,-0.09947630250613967,1.3077151880584088,2.0677792974601767,2.0929155249859033,70,253004.0,89,59.5,4,-4,-1,0,1,0,-5.0,-13.0,-1042.0
1776458642.016248,response,right,x,1,1776458640.497685,1.5185630321502686,2,-0.2624093801958348,1.1032634775343906,2.0749710118827007,2.094045541233709,70,253005.00000000003,89,59.5,4,-3,0,-1,0,0,2.0,0.0,-1021.0
1776458642.065299,response,right,x,1,1776458640.497685,1.5676140785217285,2,-0.048061071100726424,1.3230078307463713,2.0642764221379917,2.089947624289579,70,253005.00000000003,89,59.5,4,-3,0,-1,0,0,2.0,0.0,-1021.0
1776458642.1151092,response,right,x,1,1776458640.497685,1.6174242496490479,2,-0.18202566841965606,1.3786553728035407,2.0387874865163043,2.0816262033545025,70,253007.00000000003,89,59.5,3,-2,0,-1,0,0,11.0,9.0,-990.0
1776458642.166174,response,right,x,1,1776458640.497685,1.6684889793395996,2,0.7775004473702576,0.9881951848272232,1.811236791990976,1.9710974141284787,70,253007.00000000003,89,59.5,3,-2,0,-1,0,0,11.0,9.0,-990.0
1776458642.217726,response,right,x,1,1776458640.497685,1.720041036605835,2,0.7775004473702576,0.9881951848272232,1.811236791990976,1.9710974141284787,70,252994.0,89,59.5,-2,-1,0,-1,0,0,13.0,12.0,-1009.0
1776458642.268539,response,right,x,1,1776458640.497685,1.7708539962768555,2,-0.25376584852012585,1.2872102000938939,2.059433496756093,2.0947919067234677,70,252994.0,89,59.5,-2,-1,0,-1,0,0,13.0,12.0,-1009.0
1776458642.3195179,response,right,x,1,1776458640.497685,1.8218328952789307,2,-0.285137903967012,1.3902094065084056,2.0327204092752655,2.0893825086590887,70,252994.99999999997,89,59.5,-3,-1,0,0,0,0,26.0,3.0,-967.0
1776458642.369899,response,right,x,1,1776458640.497685,1.8722140789031982,2,-0.17626961368726904,1.4190171555195945,2.0501730158558544,2.099965654069771,70,252994.99999999997,89,59.5,-3,-1,0,0,0,0,26.0,3.0,-967.0
1776458642.421099,response,right,x,1,1776458640.497685,1.9234139919281006,2,0.15245471107236092,0.6827446098910608,2.0867346989302895,2.11621244803092,70,253003.00000000003,89,59.5,0,-1,0,0,0,0,16.0,9.0,-992.0
1776458642.471236,response,right,x,1,1776458640.497685,1.9735510349273682,2,-0.0944231391794248,1.4808250813697885,2.026865578749398,2.0852559944538926,70,253003.00000000003,89,59.5,0,-1,0,0,0,0,16.0,9.0,-992.0
1776458642.5219572,response,right,x,1,1776458640.497685,2.0242722034454346,2,-0.2444236023126252,1.3078068083974626,2.049155687828586,2.086510714476098,70,253006.0,89,59.5,0,-1,0,0,0,0,21.0,10.0,-989.0
1776458642.572673,response,right,x,1,1776458640.497685,2.0749881267547607,2,-0.06364572604652734,1.41145796073372,2.04147530388703,2.083499423632217,70,253006.0,89,59.5,0,-1,0,0,0,0,21.0,10.0,-989.0
1776458642.6220129,response,right,x,1,1776458640.497685,2.1243278980255127,2,-0.27427832280961795,1.2009991992311964,2.0532051660284467,2.081172921758483,70,253006.0,89,59.5,0,-1,-1,0,0,0,4.0,16.0,-1002.0
1776458642.671499,response,right,x,1,1776458640.497685,2.173814058303833,2,-0.038505116396188005,1.3856848081274018,2.0317274103495793,2.0683693299734363,70,253006.0,89,59.5,0,-1,-1,0,0,0,4.0,16.0,-1002.0
1776458642.7209878,response,right,x,1,1776458640.497685,2.2233028411865234,2,-0.13984036693556937,1.118598436298566,2.073068816421773,2.081161991517602,70,253007.00000000003,89,59.5,0,-1,-1,0,0,0,0.0,18.0,-986.0
1776458642.770653,response,right,x,1,1776458640.497685,2.272968053817749,2,-0.16259378503985406,1.335705009971673,2.026275479693667,2.060322040910466,70,253007.00000000003,89,59.5,0,-1,-1,0,0,0,0.0,18.0,-986.0
1776458642.822199,response,right,x,1,1776458640.497685,2.324514150619507,2,0.15367314041501964,0.9945493499446966,2.0668822828042095,2.0725943922149797,70,253004.0,89,59.5,0,-1,-1,0,0,0,5.0,23.0,-1003.0
1776458642.872112,response,right,x,1,1776458640.497685,2.374427080154419,2,-0.07185049527573069,1.2259183093747859,2.046832424236884,2.0605156027289793,70,253004.0,89,59.5,0,-1,-1,0,0,0,5.0,23.0,-1003.0
1776458642.923548,response,right,x,1,1776458640.497685,2.425863027572632,2,-0.03456874571494368,1.512229971629746,1.9671137866310828,2.033005457830891,70,253012.0,89,59.5,1,-1,-1,0,0,0,-1.0,19.0,-990.0
1776458642.9747431,response,right,x,1,1776458640.497685,2.477058172225952,2,-0.04598883205238002,1.3889441438609758,1.9932909314284417,2.0314037651417687,70,253012.0,89,59.5,1,-1,-1,0,0,0,-1.0,19.0,-990.0
1776458643.025281,response,right,x,1,1776458640.497685,2.5275959968566895,2,-0.10377482324052269,1.3408609279915797,1.9943936403253144,2.025971712225998,70,253006.0,89,59.5,1,-1,-1,0,0,0,25.0,-5.0,-986.0
1776458643.0767848,response,right,x,1,1776458640.497685,2.5790998935699463,2,-0.04842904929975631,1.3927713617843294,1.9904463137562076,2.029406623473884,70,253006.0,89,59.5,1,-1,-1,0,0,0,25.0,-5.0,-986.0
1776458643.128296,response,right,x,1,1776458640.497685,2.630610942840576,2,-0.1632965139772119,1.3441648436732656,1.9865679665304015,2.022762338175814,70,253007.00000000003,89,59.5,1,-1,-1,0,0,0,-4.0,-1.0,-1007.0
1776458643.179945,response,right,x,1,1776458640.497685,2.682260036468506,2,-0.04975250143618349,1.3862285954799867,1.9601277115298743,1.9984365100930637,70,253007.00000000003,89,59.5,1,-1,-1,0,0,0,-4.0,-1.0,-1007.0
1776458643.231074,response,right,x,1,1776458640.497685,2.733389139175415,2,-0.1603505425478121,1.3393975074848605,1.9562714782656472,1.991959101301524,70,253009.0,89,59.5,1,-1,-1,0,0,0,0.0,23.0,-1011.0
1776458643.2822778,response,right,x,1,1776458640.497685,2.784592866897583,2,-0.05169202888699451,1.3885421364008987,1.9582757728648796,1.9971181888408531,70,253009.0,89,59.5,1,-1,-1,0,0,0,0.0,23.0,-1011.0
1776458643.3327591,response,right,x,1,1776458640.497685,2.8350741863250732,2,-0.16220983941906006,1.3423524715933843,1.9541949728912376,1.990576609649536,70,253009.0,89,59.5,1,-1,-1,0,0,0,7.0,3.0,-1016.0
1776458643.383807,response,right,x,1,1776458640.497685,2.886121988296509,2,-0.006532320126264665,1.4383866239117677,1.919817509467459,1.9692447214322617,70,253009.0,89,59.5,1,-1,-1,0,0,0,7.0,3.0,-1016.0
1776458643.4353101,response,right,x,1,1776458640.497685,2.9376251697540283,2,-0.0822375283594458,1.2447694863428325,1.9742495202511716,1.9910641076387232,70,253010.0,89,59.5,1,-1,0,0,0,0,1.0,1.0,-980.0
1776458643.48678,response,right,x,1,1776458640.497685,2.9890949726104736,2,0.012267624360688742,1.3437085364222932,1.94677149554346,1.9769181339846955,70,253010.0,89,59.5,1,-1,0,0,0,0,1.0,1.0,-980.0
1776458643.538075,response,right,x,1,1776458640.497685,3.0403900146484375,2,0.029066544083154892,1.3822008811889308,1.9282369263184294,1.9659654171893455,70,253010.0,89,59.5,1,-1,0,0,0,0,13.0,6.0,-984.0
1776458643.5885289,response,right,x,1,1776458640.497685,3.090843915939331,2,0.049476999107422884,1.3078736184363398,1.9392256200087594,1.964135978914932,70,253010.0,89,59.5,1,-1,0,0,0,0,13.0,6.0,-984.0
1776458643.6365829,response,right,x,1,1776458640.497685,3.1388978958129883,2,-0.07556545123076104,1.4055259357190484,1.9031496020046619,1.9473417341522317,70,253013.0,89,59.5,1,-1,0,0,0,0,15.0,-6.0,-1015.0
1776458643.683019,response,right,x,1,1776458640.497685,3.1853339672088623,2,-0.07783986641892007,1.245131489796655,1.9440983871224307,1.9610372334318589,70,253013.0,89,59.5,1,-1,0,0,0,0,15.0,-6.0,-1015.0
1776458643.730619,response,right,x,1,1776458640.497685,3.23293399810791,2,-0.008726293135748036,1.4357334524620307,1.8869081505185121,1.9365851797118463,70,253006.0,89,61.0,1,-1,0,0,0,0,5.0,-6.0,-981.0
1776458643.778914,response,right,x,1,1776458640.497685,3.281229019165039,2,0.006603687522127808,1.44948240648726,1.8675079700415906,1.9208498277063026,70,253006.0,89,61.0,1,-1,0,0,0,0,5.0,-6.0,-981.0
1776458643.8287292,response,right,x,1,1776458640.497685,3.3310441970825195,2,-0.024870653451514235,1.3061920976409551,1.9101893108540968,1.9347339231434704,70,253010.0,89,61.0,1,-1,0,0,0,0,4.0,18.0,-1003.0
1776458643.8773582,response,right,x,1,1776458640.497685,3.3796732425689697,2,0.10372239659136244,1.2411988337205564,1.9130159926771106,1.930949352308652,70,253010.0,89,61.0,1,-1,0,0,0,0,4.0,18.0,-1003.0
1776458643.928159,response,right,x,1,1776458640.497685,3.430474042892456,2,0.0237806694870562,1.4293006142982878,1.8587393947804576,1.907819874984785,70,253010.0,89,61.0,1,-1,0,0,0,0,4.0,18.0,-1003.0
1776458643.9792142,response,right,x,1,1776458640.497685,3.4815292358398438,2,0.005501063071131264,1.3388740601838225,1.8873781116180266,1.9175666941661271,70,253014.0,88,61.0,1,-1,0,0,0,0,11.0,17.0,-998.0
1776458644.030421,response,right,x,1,1776458640.497685,3.53273606300354,2,0.05185567134649282,1.2781314734686249,1.8935395717188457,1.9145595412130207,70,253014.0,88,61.0,1,-1,0,0,0,0,11.0,17.0,-998.0
1776458644.0803661,response,right,x,1,1776458640.497685,3.582681179046631,2,0.04020094051225519,1.3039027322529646,1.8808059406440374,1.9056242999738404,70,253009.0,88,61.0,1,-1,0,0,0,0,-10.0,23.0,-1004.0
1776458644.1312299,response,right,x,1,1776458640.497685,3.633544921875,2,0.09637040957226915,1.2396968400295145,1.8849561484054909,1.90257759693867,70,253009.0,88,61.0,1,-1,0,0,0,0,-10.0,23.0,-1004.0
1776458644.1836958,response,right,x,1,1776458640.497685,3.6860108375549316,2,-0.035254292751779506,1.3988970994659353,1.8461980488406522,1.8891291635732044,70,253008.0,88,61.0,1,-1,0,0,0,0,18.0,2.0,-1001.0
1776458644.235618,response,right,x,1,1776458640.497685,3.7379331588745117,2,0.050206307435963986,0.6298073375475213,1.8548604623242453,1.89210745343221,70,253008.0,88,61.0,1,-1,0,0,0,0,18.0,2.0,-1001.0
1776458644.286832,response,right,x,1,1776458640.497685,3.789147138595581,2,-0.012534386962181846,1.4246171133839933,1.8306780996005891,1.8793187883358953,70,253005.00000000003,88,61.0,1,-1,0,0,0,0,13.0,4.0,-992.0
1776458644.337923,response,right,x,1,1776458640.497685,3.840238094329834,2,0.08050260085791858,1.39693689782922,1.8434707910778547,1.8874385095044515,70,253012.0,88,61.0,1,-1,0,0,0,0,11.0,12.0,-1011.0
1776458644.3903732,response,right,x,1,1776458640.497685,3.892688274383545,2,0.06050894221437247,1.3733105165450432,1.8388816419656022,1.8773672435112794,70,253006.0,88,61.0,2,-1,0,0,0,0,22.0,-7.0,-991.0
1776458644.441696,response,right,x,1,1776458640.497685,3.9440109729766846,2,0.0020002099955100435,1.3392608310844651,1.8569541693044145,1.887691897329963,70,253006.0,88,61.0,2,-1,0,0,0,0,22.0,-7.0,-991.0
1776458644.493718,response,right,x,1,1776458640.497685,3.996032953262329,2,-0.05524170591164028,1.3782305219773339,1.8373648311111739,1.8767044243650803,70,253012.0,88,61.0,1,-1,0,0,0,0,-4.0,18.0,-985.0
1776458644.545475,response,right,x,1,1776458640.497685,4.047790050506592,2,0.05950403151066948,1.3748547931706279,1.8378143471700734,1.8765975648479298,70,253012.0,88,61.0,1,-1,0,0,0,0,-4.0,18.0,-985.0
1776458644.597901,response,right,x,1,1776458640.497685,4.1002161502838135,2,0.08722481240312266,1.240872230054371,1.8564253842909983,1.8740178245017058,70,253000.0,88,61.0,1,-1,0,0,0,0,-3.0,32.0,-1001.0
1776458644.64974,response,right,x,1,1776458640.497685,4.152055025100708,2,0.12127996781754065,1.279919710757339,1.8575484856792905,1.8824320045392666,70,253000.0,88,61.0,1,-1,0,0,0,0,-3.0,32.0,-1001.0
1776458644.701406,response,right,x,1,1776458640.497685,4.203721046447754,2,-0.056892255128832954,1.3806807328485438,1.83540130264587,1.8753273023154935,70,252996.99999999997,88,60.5,1,-1,0,0,0,0,29.0,4.0,-989.0
1776458644.7521029,response,right,x,1,1776458640.497685,4.254417896270752,2,0.022821803942609003,1.362006011142015,1.8345751633186504,1.8700896279867978,70,252996.99999999997,88,60.5,1,-1,0,0,0,0,29.0,4.0,-989.0
1776458644.803969,response,right,x,1,1776458640.497685,4.306283950805664,2,0.05593384923397369,1.3768877910006183,1.8357637438263594,1.8748870701039106,70,253002.0,88,60.5,1,-1,0,0,0,0,17.0,20.0,-975.0
1776458644.855708,response,right,x,1,1776458640.497685,4.358022928237915,2,0.08322657809307546,1.2437790087534064,1.8547655350873735,1.8725677714191888,70,253002.0,88,60.5,1,-1,0,0,0,0,17.0,20.0,-975.0
1776458644.9074109,response,right,x,1,1776458640.497685,4.409725904464722,2,0.11688739595531512,1.2825318852657146,1.856008970321505,1.881025312811847,70,253006.0,88,60.5,1,-1,0,0,0,0,-5.0,30.0,-1006.0
1776458644.958444,response,right,x,1,1776458640.497685,4.460759162902832,2,0.054660584343089146,1.4899211200429607,1.793760282177895,1.8602651513329487,70,253006.0,88,60.5,1,-1,0,0,0,0,-5.0,30.0,-1006.0
1776458645.0085142,response,right,x,1,1776458640.497685,4.510829210281372,2,-0.0027172193012261255,1.4437793390495408,1.806609730306038,1.8603188443609429,70,253005.00000000003,88,60.5,1,-1,0,0,0,0,10.0,23.0,-998.0
1776458645.059726,response,right,x,1,1776458640.497685,4.5620410442352295,2,-0.0006519362513471368,1.443961053660995,1.8058495762756535,1.859622148266581,70,253005.00000000003,88,60.5,1,-1,0,0,0,0,10.0,23.0,-998.0
1776458645.111511,response,right,x,1,1776458640.497685,4.613826036453247,2,-0.03196715030408134,1.313644400817883,1.8473819911196496,1.87409042737435,70,253001.00000000003,88,60.5,1,-1,0,0,0,0,39.0,13.0,-979.0
1776458645.163523,response,right,x,1,1776458640.497685,4.665838003158569,2,0.08104001095807684,1.2464268377904135,1.8535236655922764,1.8715885361558766,70,253001.00000000003,88,60.5,1,-1,0,0,0,0,39.0,13.0,-979.0
1776458645.213923,response,right,x,1,1776458640.497685,4.716238021850586,2,0.08104001095807684,1.2464268377904135,1.8535236655922764,1.8715885361558766,70,252996.99999999997,88,60.5,1,-1,0,0,0,0,9.0,27.0,-993.0
1776458645.2665029,response,right,x,1,1776458640.497685,4.768817901611328,2,0.08104001095807684,1.2464268377904135,1.8535236655922764,1.8715885361558766,70,252996.99999999997,88,60.5,1,-1,0,0,0,0,9.0,27.0,-993.0
1776458645.318058,response,right,x,1,1776458640.497685,4.820373058319092,2,0.08104001095807684,1.2464268377904135,1.8535236655922764,1.8715885361558766,70,253012.0,88,60.5,2,-1,0,0,0,0,16.0,17.0,-993.0
1776458645.367837,response,right,x,1,1776458640.497685,4.870151996612549,2,-0.002907905093001154,1.3389851280596101,1.82763934580839,1.8588127800573515,70,253012.0,88,60.5,2,-1,0,0,0,0,16.0,17.0,-993.0
1776458645.419564,response,right,x,1,1776458640.497685,4.921879053115845,2,-0.002907905093001154,1.3389851280596101,1.82763934580839,1.8588127800573515,70,253004.0,88,60.5,2,-1,0,0,0,0,14.0,24.0,-992.0
1776458645.4708722,response,right,x,1,1776458640.497685,4.973187208175659,2,0.07526134543721005,1.3125545730137804,1.838757296061899,1.86665021497058,70,253004.0,88,60.5,2,-1,0,0,0,0,14.0,24.0,-992.0
1776458645.523124,response,right,x,1,1776458640.497685,5.025439023971558,2,0.2175513331063173,1.2147823593302716,1.8365093966903048,1.861780547902357,70,253004.0,88,60.5,2,-1,0,0,0,0,14.0,24.0,-992.0
1776458645.575202,response,right,x,1,1776458640.497685,5.077517032623291,2,-0.0019316086922356247,1.3392933101590159,1.8277266143751736,1.8589535385065805,70,252991.0,88,60.5,1,-1,0,0,0,0,24.0,26.0,-979.0
1776458645.627442,response,right,x,1,1776458640.497685,5.129756927490234,2,0.028700582057729462,0.702301667705246,1.8385296062886982,1.8626967369009928,70,253002.0,88,60.5,1,-1,0,0,0,0,23.0,11.0,-998.0
1776458645.680026,response,right,x,1,1776458640.497685,5.1823410987854,2,0.08265832803749337,1.2462540204755637,1.8539051393889758,1.872014344936275,70,253002.0,88,60.5,1,-1,0,0,0,0,23.0,11.0,-998.0
1776458645.732953,response,right,x,1,1776458640.497685,5.2352681159973145,2,0.017304578282573597,1.42274818938369,1.8012095920343019,1.8502355186551527,70,252996.99999999997,88,60.5,1,-1,0,0,0,0,38.0,6.0,-985.0
1776458645.784311,response,right,x,1,1776458640.497685,5.286626100540161,2,0.07491451229746834,1.3947000281269952,1.8149920132250943,1.8589234261870764,70,252996.99999999997,88,60.5,1,-1,0,0,0,0,38.0,6.0,-985.0
1776458645.83503,response,right,x,1,1776458640.497685,5.337345123291016,2,0.018422155048569002,1.4224049997413921,1.8017916386815498,1.8507345754661588,70,253000.0,88,60.5,1,-1,0,0,0,0,17.0,21.0,-990.0
1776458645.885144,response,right,x,1,1776458640.497685,5.38745903968811,2,0.057726895028660484,1.3699937572575553,1.8120577024446192,1.8503461545905633,70,253000.0,88,60.5,1,-1,0,0,0,0,17.0,21.0,-990.0
1776458645.9350982,response,right,x,1,1776458640.497685,5.437413215637207,2,0.08674582151053613,1.245106555237033,1.8550754842291977,1.8732077068915487,70,253001.00000000003,87,60.5,1,-1,0,0,0,0,21.0,11.0,-1011.0
1776458645.986631,response,right,x,1,1776458640.497685,5.488945960998535,2,0.05822238690694131,1.3692766414528612,1.812554546160549,1.8507050189230914,70,253001.00000000003,87,60.5,1,-1,0,0,0,0,21.0,11.0,-1011.0
1776458646.037906,response,right,x,1,1776458640.497685,5.5402209758758545,2,0.04452222811992249,1.2780716308076783,1.8380969039052997,1.8595446455525215,70,252998.99999999997,87,60.5,1,-1,0,0,0,0,29.0,2.0,-980.0
1776458646.089105,response,right,x,1,1776458640.497685,5.59141993522644,2,0.12240727499124811,1.2756267376311798,1.8335273997239954,1.8581647841369253,70,252998.99999999997,87,60.5,1,-1,0,0,0,0,29.0,2.0,-980.0
1776458646.139224,response,right,x,1,1776458640.497685,5.641539096832275,2,0.06002861904943952,1.368325570675158,1.813549222937606,1.851547446093607,70,252996.99999999997,87,60.5,1,-1,0,0,0,0,9.0,12.0,-1013.0
1776458646.1906948,response,right,x,1,1776458640.497685,5.693009853363037,2,0.060543074127128636,1.367584261740805,1.8140604200299237,1.8519176171804832,70,252996.99999999997,87,60.5,1,-1,0,0,0,0,9.0,12.0,-1013.0
1776458646.242296,response,right,x,1,1776458640.497685,5.744611024856567,2,0.004601996336163199,1.333537289606,1.8322473636928842,1.8623637409720797,70,252998.0,87,60.5,1,-1,0,0,0,0,7.0,7.0,-1013.0
1776458646.292226,response,right,x,1,1776458640.497685,5.794541120529175,2,0.02037104096259682,0.7087157266508664,1.8431609313098136,1.8661467589440257,70,252998.0,87,60.5,1,-1,0,0,0,0,7.0,7.0,-1013.0
1776458646.343009,response,right,x,1,1776458640.497685,5.8453240394592285,2,0.020330159133211175,1.4183860845577376,1.8059142358258204,1.8538571838953217,70,252996.99999999997,87,60.5,1,-1,0,0,0,0,20.0,18.0,-989.0
1776458646.3956091,response,right,x,1,1776458640.497685,5.897924184799194,2,0.04166031263866076,1.3902298707627079,1.8211645311494438,1.8629694531047483,70,252996.99999999997,87,60.5,1,-1,0,0,0,0,20.0,18.0,-989.0
1776458646.447735,response,right,x,1,1776458640.497685,5.950050115585327,2,0.0060633309999086355,1.332150634684053,1.8325772932907305,1.8624447223981209,70,252994.0,87,60.5,1,-1,0,0,0,0,28.0,-1.0,-1018.0
1776458646.498456,response,right,x,1,1776458640.497685,6.0007710456848145,2,0.005599422481690897,1.3325039125386255,1.8333516555977027,1.8632682304135548,70,252994.0,87,60.5,1,-1,0,0,0,0,28.0,-1.0,-1018.0
1776458646.5492392,response,right,x,1,1776458640.497685,6.051554203033447,2,0.006633724768418134,1.3321168092673703,1.8334441895945697,1.8632936369934638,70,252994.99999999997,87,60.5,1,-1,0,0,0,0,-3.0,27.0,-995.0
1776458646.600508,response,right,x,1,1776458640.497685,6.10282301902771,2,0.006633724768418134,1.3321168092673703,1.8334441895945697,1.8632936369934638,70,252994.99999999997,87,60.5,1,-1,0,0,0,0,-3.0,27.0,-995.0
1776458646.651687,response,right,x,1,1776458640.497685,6.154001951217651,2,0.12704005355464287,1.2731997252495066,1.8350154903198448,1.859585737415017,70,253000.0,87,60.5,1,-1,0,0,0,0,14.0,12.0,-978.0
1776458646.702195,response,right,x,1,1776458640.497685,6.204509973526001,2,0.06294935153132997,1.3658421684247637,1.8156030060355404,1.8531641558645686,70,253000.0,87,60.5,1,-1,0,0,0,0,14.0,12.0,-978.0
1776458646.753442,response,right,x,1,1776458640.497685,6.255757093429565,2,0.06294935153132997,1.3658421684247637,1.8156030060355404,1.8531641558645686,70,253003.00000000003,87,60.5,1,-1,0,0,0,0,30.0,16.0,-992.0
1776458646.804823,response,right,x,1,1776458640.497685,6.307137966156006,2,-0.023020522487292333,1.2965379247880342,1.8302375354968647,1.8542475890869639,70,253003.00000000003,87,60.5,1,-1,0,0,0,0,30.0,16.0,-992.0
1776458646.8560572,response,right,x,1,1776458640.497685,6.358372211456299,2,0.016674640212696535,0.7092447329493005,1.8443413104654678,1.867193492499753,70,253000.0,87,60.5,1,-1,0,0,0,0,7.0,10.0,-989.0
1776458646.905941,response,right,x,1,1776458640.497685,6.4082560539245605,2,0.02408437208327695,1.4177599903990417,1.806386208813998,1.8542207532951036,70,253000.0,87,60.5,1,-1,0,0,0,0,7.0,10.0,-989.0
1776458646.9571168,response,right,x,1,1776458640.497685,6.459431886672974,2,0.06379010622390241,1.3663915019896213,1.8155795956429126,1.8532784945865937,70,253004.0,87,60.5,1,-1,0,0,0,0,8.0,21.0,-1026.0
1776458647.008723,response,right,x,1,1776458640.497685,6.511038064956665,2,0.06379010622390241,1.3663915019896213,1.8155795956429126,1.8532784945865937,70,253004.0,87,60.5,1,-1,0,0,0,0,8.0,21.0,-1026.0
1776458647.061343,response,right,x,1,1776458640.497685,6.563657999038696,2,-0.008754063886257293,1.4174613581124433,1.8069392224517045,1.8545565434318743,70,252996.99999999997,87,60.5,1,-1,0,0,0,0,25.0,-2.0,-989.0
1776458647.1128619,response,right,x,1,1776458640.497685,6.6151769161224365,2,0.06462694886498023,1.3669527458110493,1.815555265684623,1.853394691622113,70,252996.99999999997,87,60.5,1,-1,0,0,0,0,25.0,-2.0,-989.0
1776458647.165365,response,right,x,1,1776458640.497685,6.667680025100708,2,0.12914101258388677,1.2754039105237636,1.8348620892846774,1.8599041915531844,70,252996.0,87,60.5,1,-1,0,0,0,0,24.0,1.0,-989.0
1776458647.216379,response,right,x,1,1776458640.497685,6.718693971633911,2,0.12914101258388677,1.2754039105237636,1.8348620892846774,1.8599041915531844,70,252996.0,87,60.5,1,-1,0,0,0,0,24.0,1.0,-989.0
1776458647.267437,response,right,x,1,1776458640.497685,6.769752025604248,2,0.009924157589246505,1.3333258943026745,1.8336648252995658,1.8637412192301324,70,253001.00000000003,87,60.5,1,-1,0,0,0,0,23.0,12.0,-1008.0
1776458647.318391,response,right,x,1,1776458640.497685,6.820706129074097,2,-0.006151763283032468,1.4186710765141513,1.8071289892456934,1.8550036383449953,70,253001.00000000003,87,60.5,1,-1,0,0,0,0,23.0,12.0,-1008.0
1776458647.369101,response,right,x,1,1776458640.497685,6.871416091918945,2,0.2451040343197148,1.1546938576767325,1.8509953160322072,1.8735500626393413,70,253001.00000000003,87,60.5,1,-1,0,0,0,0,-7.0,24.0,-1016.0
1776458647.4188921,response,right,x,1,1776458640.497685,6.9212071895599365,2,0.09824730979486347,1.2458526977473685,1.8572320936426343,1.8760082975636831,70,253001.00000000003,87,60.5,1,-1,0,0,0,0,-7.0,24.0,-1016.0
1776458647.4689338,response,right,x,1,1776458640.497685,6.9712488651275635,2,0.09824730979486347,1.2458526977473685,1.8572320936426343,1.8760082975636831,70,252998.0,87,60.5,1,-1,0,0,0,0,20.0,20.0,-994.0
1776458647.5197928,response,right,x,1,1776458640.497685,7.022107839584351,2,0.09795948539823945,1.2476577428141145,1.8571870998399314,1.8761861160788729,70,252998.0,87,60.5,1,-1,0,0,0,0,20.0,20.0,-994.0
1776458647.57032,response,right,x,1,1776458640.497685,7.072634935379028,2,0.04494886408817225,1.3086143729790565,1.8523147674057185,1.8783858041258124,70,252994.0,87,60.5,1,-1,0,0,0,0,20.0,17.0,-979.0
1776458647.620095,response,right,x,1,1776458640.497685,7.12241005897522,2,0.0982354219898786,1.2476423357926387,1.856765533982951,1.8757812166661005,70,252994.0,87,60.5,1,-1,0,0,0,0,20.0,17.0,-979.0
1776458647.668406,response,right,x,1,1776458640.497685,7.170721054077148,2,0.0982354219898786,1.2476423357926387,1.856765533982951,1.8757812166661005,70,253000.0,87,60.5,1,-1,0,0,0,0,25.0,7.0,-1009.0
1776458647.717109,response,right,x,1,1776458640.497685,7.21942400932312,2,0.04515098500942526,1.30979285554504,1.852613097740945,1.8788787919169696,70,253000.0,87,60.5,1,-1,0,0,0,0,25.0,7.0,-1009.0
1776458647.7637131,response,right,x,1,1776458640.497685,7.266028165817261,2,0.038011767411193616,1.2091684685009416,1.8740239634117575,1.8860440498880888,70,253004.0,87,61.5,1,-1,0,0,0,0,29.0,2.0,-995.0
1776458647.815723,response,right,x,1,1776458640.497685,7.318037986755371,2,0.0460089498700564,1.3107905888130071,1.851833700638471,1.8782959480292916,70,253004.0,87,61.5,1,-1,0,0,0,0,29.0,2.0,-995.0
1776458647.863827,response,right,x,1,1776458640.497685,7.36614203453064,2,-0.014300143944544125,1.3112014271948924,1.8527615709614267,1.8787698797980623,70,252996.0,87,61.5,1,-1,0,0,0,0,31.0,10.0,-1014.0
1776458647.9155772,response,right,x,1,1776458640.497685,7.417892217636108,2,0.05925500563968685,1.2893614743346964,1.8634076983660128,1.886671531786132,70,252996.0,87,61.5,1,-1,0,0,0,0,31.0,10.0,-1014.0
1776458647.9642339,response,right,x,1,1776458640.497685,7.466548919677734,2,0.06787066762736908,1.3817456250732625,1.8370725938153967,1.8775441046043073,70,253001.00000000003,86,61.5,1,-1,0,0,0,0,28.0,10.0,-993.0
1776458648.021526,response,right,x,1,1776458640.497685,7.523841142654419,2,-0.07725482875961538,1.1362157239533628,1.8942436761224093,1.9007056943536933,70,253001.00000000003,86,61.5,1,-1,0,0,0,0,28.0,10.0,-993.0
1776458648.067928,response,right,x,1,1776458640.497685,7.5702431201934814,2,0.05699439684339634,1.2886332748667042,1.862581296501767,1.8856740478433764,70,253010.0,86,61.5,1,-1,0,0,0,0,30.0,1.0,-1001.0
1776458648.118741,response,right,x,1,1776458640.497685,7.621056079864502,2,0.02533050408833957,1.4339456993826745,1.8266203706270745,1.877629484972975,70,253007.00000000003,86,61.5,1,-1,0,0,0,0,24.0,14.0,-989.0
1776458648.1689222,response,right,x,1,1776458640.497685,7.671237230300903,2,-0.0471031540478825,1.3845366485400408,1.836437112950376,1.8768559910161402,70,253007.00000000003,86,61.5,1,-1,0,0,0,0,24.0,14.0,-989.0
1776458648.219955,response,right,x,1,1776458640.497685,7.7222700119018555,2,-0.0471031540478825,1.3845366485400408,1.836437112950376,1.8768559910161402,70,253001.00000000003,86,61.5,1,-1,0,0,0,0,8.0,18.0,-1001.0
1776458648.271905,response,right,x,1,1776458640.497685,7.774219989776611,2,0.009557902097469713,1.348526218182822,1.854394384401777,1.8868864330303956,70,253001.00000000003,86,61.5,1,-1,0,0,0,0,8.0,18.0,-1001.0
1776458648.322813,response,right,x,1,1776458640.497685,7.825128078460693,2,0.15594640294415987,1.2284899474257447,1.872509481780829,1.8928335098536666,70,253003.00000000003,86,61.5,1,-1,0,0,0,0,14.0,17.0,-1003.0
1776458648.373791,response,right,x,1,1776458640.497685,7.876106023788452,2,0.1965959311574275,1.1223839416522499,1.8746948456845494,1.8889437667009081,70,253003.00000000003,86,61.5,1,-1,0,0,0,0,14.0,17.0,-1003.0
1776458648.4227672,response,right,x,1,1776458640.497685,7.925082206726074,2,0.008762746837069972,1.3512925561066298,1.8520457133659518,1.8850879475783768,70,253002.0,86,61.5,1,-1,0,0,0,0,7.0,17.0,-1006.0
1776458648.473171,response,right,x,1,1776458640.497685,7.9754860401153564,2,0.0924644165031752,1.263460925741493,1.8776323360019826,1.8982793569209193,70,253002.0,86,61.5,1,-1,0,0,0,0,7.0,17.0,-1006.0
1776458648.525505,response,right,x,1,1776458640.497685,8.027820110321045,2,-0.008172860358088431,1.4388897742762263,1.8234223836091612,1.8755159873105813,70,252991.0,86,61.5,1,-1,0,0,0,0,17.0,4.0,-1010.0
1776458648.576917,response,right,x,1,1776458640.497685,8.079231977462769,2,-0.008559170301474453,1.4395280933025896,1.8228988725665574,1.875158261001691,70,252991.0,86,61.5,1,-1,0,0,0,0,17.0,4.0,-1010.0
1776458648.6277492,response,right,x,1,1776458640.497685,8.130064249038696,2,0.022025990494749025,0.6790337481240096,1.8595965100223832,1.887221147398477,70,252992.99999999997,86,61.5,1,-1,0,0,0,0,22.0,26.0,-991.0
1776458648.678664,response,right,x,1,1776458640.497685,8.180979013442993,2,0.08817559789044052,1.2672243301885846,1.875761213933495,1.896750882537117,70,252992.99999999997,86,61.5,1,-1,0,0,0,0,22.0,26.0,-991.0
1776458648.7313862,response,right,x,1,1776458640.497685,8.233701229095459,2,0.08650877289346853,1.2686726718391559,1.8750378364833202,1.8961634055705154,70,253002.0,86,61.5,1,-1,0,0,0,0,8.0,24.0,-1010.0
1776458648.7829099,response,right,x,1,1776458640.497685,8.285224914550781,2,0.003823207979671848,1.3582857161708113,1.8484415817405395,1.8828487863975576,70,253002.0,86,61.5,1,-1,0,0,0,0,8.0,24.0,-1010.0
1776458648.833727,response,right,x,1,1776458640.497685,8.336041927337646,2,0.0027336014418557902,1.3596995347252843,1.8475130327814708,1.8822049925966662,70,253001.00000000003,86,61.5,1,-1,0,0,0,0,21.0,10.0,-1023.0
1776458648.8838348,response,right,x,1,1776458640.497685,8.386149883270264,2,0.08245492883757206,1.2721454685482916,1.873295900528295,1.8947557896143488,70,253001.00000000003,86,61.5,1,-1,0,0,0,0,21.0,10.0,-1023.0
1776458648.934355,response,right,x,1,1776458640.497685,8.436670064926147,2,0.0011135521030196127,1.3617503805222064,1.8461610309491918,1.8812695527227432,70,253004.0,86,61.5,1,-2,0,0,0,0,17.0,11.0,-1007.0
1776458648.984801,response,right,x,1,1776458640.497685,8.48711609840393,2,0.037602953280261704,1.418142093472443,1.8333858224000381,1.8808403351178902,70,253004.0,86,61.5,1,-2,0,0,0,0,17.0,11.0,-1007.0
1776458649.034385,response,right,x,1,1776458640.497685,8.536700010299683,2,0.03710469159120159,1.4186376703986157,1.832987502784111,1.8805524301591778,70,253001.00000000003,86,61.5,1,-1,0,0,0,0,34.0,12.0,-995.0
1776458649.08554,response,right,x,1,1776458640.497685,8.587855100631714,2,0.00017676876600023752,1.3647280069547816,1.8436813130135092,1.8794114329384137,70,253001.00000000003,86,61.5,1,-1,0,0,0,0,34.0,12.0,-995.0
