timestamp,elapsed,target_x,target_y,target_z,pos_x,pos_y,pos_z,marker_id,publish_count,err_x_cm,err_y_cm,err_z_cm,err_3d_cm,cmd_lr,cmd_fb,cmd_ud,vel_x_pub,vel_y_pub,vel_z_pub,tello_height_cm,tello_baro_cm,tello_battery,tello_temp_c,tello_pitch,tello_roll,tello_yaw,tello_vgx,tello_vgy,tello_vgz
1778074308.9814558,7.867813110351562e-06,0.5145436074215456,1.4765558665199898,3.7719493710027567,0.3884358438617799,1.3544464978626725,3.770303308125456,2,0,12.610776355976572,12.210936865731735,0.16460628773007357,17.554650514017773,30,0,30,0.0,0.0,0.0,140,247929.0,76,67.0,0,0,22,0,0,0
1778074309.053132,0.07168412208557129,0.5145436074215456,1.4765558665199898,3.7719493710027567,0.5498297815454374,1.4079638430628032,3.784268843722312,2,3,-3.528617412389179,6.859202345718662,-1.2319472719555247,7.811369389768171,-30,5,-13,2.251707198176892,0.7466537662068214,0.19484187250869978,140,247929.0,76,67.0,0,0,22,0,0,0
1778074309.125105,0.14365696907043457,0.5145436074215456,1.4765558665199898,3.7719493710027567,0.47313261929091677,1.384551022777361,3.7879326363837906,2,7,4.141098813062882,9.200484374262885,-1.5983265381033895,10.215295385989183,29,2,14,-1.0656402444473387,-0.32530073862947523,0.05090520682402888,140,247917.99999999997,76,67.5,0,0,22,0,0,0
1778074309.194298,0.21285009384155273,0.5145436074215456,1.4765558665199898,3.7719493710027567,0.47313261929091677,1.384551022777361,3.7879326363837906,2,10,4.141098813062882,9.200484374262885,-1.5983265381033895,10.215295385989183,2,0,6,0.0,0.0,0.0,140,247930.00000000003,76,67.5,0,0,22,0,0,0
1778074309.265449,0.28400111198425293,0.5145436074215456,1.4765558665199898,3.7719493710027567,0.47313261929091677,1.384551022777361,3.7879326363837906,2,14,4.141098813062882,9.200484374262885,-1.5983265381033895,10.215295385989183,2,0,6,0.0,0.0,0.0,140,247930.00000000003,76,67.5,0,0,22,0,0,0
1778074309.335696,0.354248046875,0.5145436074215456,1.4765558665199898,3.7719493710027567,0.47313261929091677,1.384551022777361,3.7879326363837906,2,17,4.141098813062882,9.200484374262885,-1.5983265381033895,10.215295385989183,2,1,6,0.0,0.0,0.0,140,247923.99999999997,76,67.5,0,-1,22,0,0,0
1778074309.407307,0.4258589744567871,0.5145436074215456,1.4765558665199898,3.7719493710027567,0.45082700308208556,1.4510186152070417,3.7454983585891255,2,21,6.371660433946003,2.553725131294815,2.6451012413631236,7.356366583360323,11,-16,-21,-0.31148341408307934,0.9281766718322119,-0.5925670735964254,140,247921.99999999997,76,67.5,0,0,22,0,0,0
1778074309.477727,0.4962790012359619,0.5145436074215456,1.4765558665199898,3.7719493710027567,0.5507311110954238,1.4065728958342736,3.7849833327689923,2,24,-3.618750367387824,6.998297068571624,-1.3033961766235613,7.985634456615492,-30,14,20,1.4186888671119156,-0.6311516965499357,0.560706605575215,140,247921.99999999997,76,67.5,0,0,22,0,0,0
1778074309.5499048,0.5684568881988525,0.5145436074215456,1.4765558665199898,3.7719493710027567,0.46640934072105467,1.3778761583629375,3.7896639261429454,2,28,4.813426670049092,9.86797081570523,-1.7714555140188715,11.121329909938735,30,2,17,-1.1682493617154817,-0.39758350762041744,0.06484802438674286,140,247914.0,76,67.5,0,0,22,0,0,0
1778074309.619851,0.6384031772613525,0.5145436074215456,1.4765558665199898,3.7719493710027567,0.46640934072105467,1.3778761583629375,3.7896639261429454,2,32,4.813426670049092,9.86797081570523,-1.7714555140188715,11.121329909938735,3,1,7,0.0,0.0,0.0,140,247917.0,75,67.5,0,0,22,0,0,0
1778074309.6910982,0.7096502780914307,0.5145436074215456,1.4765558665199898,3.7719493710027567,0.4660829939847305,1.3742470930524182,3.7906274848073074,2,35,4.846061343681507,10.230877346757161,-1.8678113804550645,11.473616743820168,3,1,9,-0.004580491451890391,-0.05093632257647248,0.01352418067733007,140,247919.99999999997,75,67.5,0,0,22,0,0,0
1778074309.761742,0.7802941799163818,0.5145436074215456,1.4765558665199898,3.7719493710027567,0.4355645719450113,1.4735574844800587,3.727072451281384,0,39,7.897903547653429,0.299838203993108,4.487691972137275,9.088793244066881,15,-25,-30,-0.43200363019784704,1.4057885940915633,-0.8996534999355881,140,247919.99999999997,75,67.5,0,0,22,0,0,0
1778074309.833417,0.8519690036773682,0.5145436074215456,1.4765558665199898,3.7719493710027567,0.4322525947856637,1.4686256444529544,3.7114040268353614,0,42,8.22910126358819,0.793022206703542,6.054534416739532,10.247164428767464,6,-9,2,-0.046208375347974985,-0.06880854068857598,-0.21860429679285967,140,247921.0,75,67.5,0,0,22,0,0,0
1778074309.905561,0.9241130352020264,0.5145436074215456,1.4765558665199898,3.7719493710027567,0.4846749030142439,1.3721048239059392,3.7594524913554,0,46,2.9868704407301716,10.445104261405058,1.2496879647356796,10.935415770355279,-16,16,30,0.7266340280784377,-1.3378905850863794,0.6660074784372977,140,247919.99999999997,75,67.5,0,0,22,0,0,0
1778074309.975722,0.9942741394042969,0.5145436074215456,1.4765558665199898,3.7719493710027567,0.44258341637471044,1.4742669377222328,3.723728212921901,0,49,7.196019104683515,0.2288928797756995,4.822115808085581,8.665326524255795,19,-15,-30,-0.599926228615018,1.4561075538629775,-0.5091749743634013,140,247919.99999999997,75,67.5,0,0,22,0,0,0
1778074310.049292,1.0678441524505615,0.5145436074215456,1.4765558665199898,3.7719493710027567,0.46358733049708734,1.3776112532448042,3.7927943898540324,2,53,5.0956276924458255,9.894461327518567,-2.0845018851275654,11.32302674424474,-3,24,30,0.28549558784458207,-1.3137918626797926,0.9387816322487134,140,247917.0,75,67.5,0,0,22,0,0,0
1778074310.122008,1.1405601501464844,0.5145436074215456,1.4765558665199898,3.7719493710027567,0.4614157340227574,1.3765980875207549,3.793692808694252,2,57,5.312787339878822,9.995777899923496,-2.1743437691495338,11.526884052935342,4,1,8,-0.02986408140077988,-0.013933188791358778,0.012355174496492639,140,247913.0,75,68.0,0,0,22,0,0,0
1778074310.1927419,1.2112939357757568,0.5145436074215456,1.4765558665199898,3.7719493710027567,0.43884645707930137,1.4455940020501976,3.7508684293282943,2,60,7.569715034224423,3.096186446979221,2.1080941674462395,8.445769191295835,13,-16,-21,-0.31907350557688713,0.9754308201608468,-0.6054303326900589,140,247917.0,75,68.0,0,0,22,0,0,0
1778074310.264019,1.2825710773468018,0.5145436074215456,1.4765558665199898,3.7719493710027567,0.5102339410835173,1.4749526822137025,3.7632347939249082,2,64,0.43096663380283173,0.1603184306287364,0.8714577077848507,0.9853287649856931,-24,3,-9,1.0015480760134159,0.41189474656811004,0.1734969209488825,140,247917.0,75,68.0,0,0,22,0,0,0
1778074310.3341818,1.352733850479126,0.5145436074215456,1.4765558665199898,3.7719493710027567,0.45801869651738414,1.3776396565644373,3.7940982243690686,2,67,5.652491090416145,9.89162099555525,-2.2148853366311894,11.606056113140552,22,12,30,-0.7442015506949425,-1.3869609381849348,0.4398832752227907,140,247919.0,75,68.0,0,0,22,0,0,0
1778074310.40575,1.424302101135254,0.5145436074215456,1.4765558665199898,3.7719493710027567,0.4386873395479203,1.454001610830494,3.767754788831383,2,71,7.585626787362532,2.255425568949576,0.41945821713738063,7.924936810482945,11,-9,-24,-0.27011079343475114,1.0669808688347249,-0.3680882974806941,140,247916.0,75,68.0,0,0,22,0,0,0
1778074310.4782562,1.4968082904815674,0.5145436074215456,1.4765558665199898,3.7719493710027567,0.4830805039000282,1.5448521018991395,3.7364393860604403,2,75,3.1463103521517377,-6.829623537914964,3.5509984942316386,8.315805241089684,-12,-12,-30,0.612267238870761,1.253003252380476,-0.43189971853809456,140,247916.0,75,68.0,0,0,22,0,0,0
1778074310.551163,1.5697150230407715,0.5145436074215456,1.4765558665199898,3.7719493710027567,0.42924366496261046,1.4511381814718107,3.766777596479771,2,78,8.529994245893512,2.5417685048179095,0.5171774522985562,8.915652611235295,24,10,30,-0.7384343948441169,-1.2853946012630328,0.4161235780892334,140,247914.0,75,68.0,0,0,22,0,0,0
1778074310.6226408,1.64119291305542,0.5145436074215456,1.4765558665199898,3.7719493710027567,0.502757528289206,1.4815578166500187,3.779803556640673,2,82,1.1786079132339644,-0.5001950130028909,-0.7854185637916178,1.5020632425164961,-24,5,-10,1.0284839593268604,0.42558104571880767,0.18223761443199069,140,247921.99999999997,75,68.0,0,0,22,0,0,0
1778074310.6936169,1.7121689319610596,0.5145436074215456,1.4765558665199898,3.7719493710027567,0.3718192146492154,1.3575984701274626,3.792056647674484,2,85,14.272439277233017,11.895739639252723,-2.010727667172718,18.688343164623397,30,5,30,-1.8448247120491337,-1.7464961889079202,0.17263705717421396,140,247913.0,75,68.0,0,0,22,0,0,0
1778074310.765301,1.7838530540466309,0.5145436074215456,1.4765558665199898,3.7719493710027567,0.5068776016522305,1.484166536695657,3.780285860308755,2,89,0.7666005769315087,-0.7610670175667078,-0.8336489305998285,1.3645035688006986,-30,-3,-30,1.8840767393620614,1.7656359997979267,-0.16420355056699706,140,247917.0,75,68.0,0,0,22,0,0,0
1778074310.835713,1.8542649745941162,0.5145436074215456,1.4765558665199898,3.7719493710027567,0.503245135224335,1.4847922709948134,3.7787473129744917,2,92,1.1298472197210585,-0.8236404474823544,-0.6797941971735,1.5546891898868733,2,0,0,-0.051588799164280504,0.008886766534573858,-0.021850665658603906,140,247917.0,75,68.0,0,0,22,0,0,0
1778074310.908001,1.9265530109405518,0.5145436074215456,1.4765558665199898,3.7719493710027567,0.447891806645921,1.3827636075970897,3.8096126501601697,2,96,6.665180077562461,9.37922589229001,-3.7663279157412966,12.107011595510722,23,12,30,-0.7657329120566634,-1.4114183833789335,0.4269771146882164,140,247919.99999999997,75,68.0,0,0,22,0,0,0
1778074310.979837,1.9983890056610107,0.5145436074215456,1.4765558665199898,3.7719493710027567,0.42668622890078967,1.4541023090650125,3.7836557287794808,2,100,8.785737852075592,2.2453557454977346,-1.170635777672402,9.143369190468041,13,-8,-22,-0.2951943218389366,0.9930773805740231,-0.36133586625614555,140,247907.00000000003,75,68.0,0,0,22,0,0,0
1778074311.052114,2.0706660747528076,0.5145436074215456,1.4765558665199898,3.7719493710027567,0.43266939774787627,1.4580835674637025,3.783231837898842,2,103,8.187420967366933,1.8472299056287333,-1.1282466896085364,8.468710705517188,3,0,1,0.08278101093844256,0.055083285040702736,-0.00586480450805614,140,247907.00000000003,75,68.0,0,0,22,0,0,0
1778074311.123394,2.1419460773468018,0.5145436074215456,1.4765558665199898,3.7719493710027567,0.4342901931285672,1.4596186136208877,3.7825297288430075,2,107,8.02534142929784,1.6937252899102084,-1.0580357840250798,8.270081628059257,5,0,1,0.022738430439219644,0.021535439131908616,-0.009850014454035995,140,247907.00000000003,75,68.0,0,0,22,0,0,0
1778074311.195561,2.2141129970550537,0.5145436074215456,1.4765558665199898,3.7719493710027567,0.4135551523972941,1.5209201971886093,3.74003939306865,2,110,10.098845502425146,-4.4364330668619445,3.190997793410677,11.482642803647186,14,-16,-23,-0.2873205731254472,0.8494415975566708,-0.5887785698230237,140,247913.0,75,67.5,0,0,22,0,0,0
1778074311.2659671,2.2845191955566406,0.5145436074215456,1.4765558665199898,3.7719493710027567,0.5121064213165138,1.484405033009931,3.778639477032869,2,114,0.24371861050317412,-0.7849166489941162,-0.6690106030112108,1.0597490712027893,-30,14,13,1.3997527350805403,-0.5186356450967204,0.54824837565046,140,247917.99999999997,75,67.5,0,0,22,0,0,0
1778074311.337379,2.355931043624878,0.5145436074215456,1.4765558665199898,3.7719493710027567,0.3683449480818578,1.363703873148748,3.805051482590278,2,117,14.619865933968779,11.285199337124174,-3.310211158752141,18.763094145725965,30,11,30,-2.0131319539201025,-1.6902119623881935,0.3698546707847613,140,247917.99999999997,75,67.5,0,0,22,0,0,0
1778074311.408891,2.427443027496338,0.5145436074215456,1.4765558665199898,3.7719493710027567,0.439639704066465,1.4646865531247655,3.7811254186547307,2,121,7.4903903355080566,1.1869313395224346,-0.9176047651973995,7.639159108706011,-19,-7,-30,0.9969623568653444,1.4121084957946333,-0.33457418799279287,140,247912.0,75,67.5,0,0,22,0,0,0
1778074311.47905,2.4976019859313965,0.5145436074215456,1.4765558665199898,3.7719493710027567,0.37263834823941966,1.3621192875663182,3.806008378293678,2,125,14.190525918212593,11.443657895367165,-3.405900729092126,18.54530915455693,30,10,30,-0.9549935934277586,-1.461926856473887,0.35466546530874943,140,247917.0,74,67.5,0,0,22,0,0,0
1778074311.551834,2.5703861713409424,0.5145436074215456,1.4765558665199898,3.7719493710027567,0.43873245732379684,1.4608694670993314,3.780467712486812,2,128,7.581115009774875,1.5686399420658415,-0.8518341484055281,7.788424582395852,-17,-8,-30,0.9080833798231767,1.3567532421687556,-0.35090955079255765,140,247917.0,74,67.5,0,0,22,0,0,0
1778074311.6222138,2.640765905380249,0.5145436074215456,1.4765558665199898,3.7719493710027567,0.4584138627056712,1.3883995616449762,3.823614945012541,2,132,5.61297447158744,8.815630487501359,-5.166557400978444,11.658221935117759,-2,18,30,0.27964591867997696,-1.0296984841386467,0.6130633074235788,140,247910.0,74,67.5,0,0,22,0,0,0
1778074311.692477,2.711029052734375,0.5145436074215456,1.4765558665199898,3.7719493710027567,0.4418603228258,1.4599278163514913,3.7800331168504564,2,135,7.268328459574558,1.6628050168498554,-0.8083745847699664,7.499799236621239,11,-15,-23,-0.23559348681665807,1.0180052758811517,-0.6202658122106678,140,247915.0,74,67.5,0,0,22,0,0,0
1778074311.761301,2.779853105545044,0.5145436074215456,1.4765558665199898,3.7719493710027567,0.46176685712939347,1.3874200919146824,3.823192432786914,2,139,5.277675029215212,8.913577460530743,-5.124306178415727,11.556999206932266,-2,18,30,0.289238042379678,-1.0535230268446045,0.6270964026949478,140,247915.0,74,67.5,0,0,22,0,0,0
1778074311.8335261,2.8520781993865967,0.5145436074215456,1.4765558665199898,3.7719493710027567,0.5145102784816864,1.4915022268634237,3.790027152988114,2,142,0.003332893985918961,-1.4946360343433884,-1.8077781985357255,2.345636373874076,-17,-10,-30,0.7302644904553719,1.441079954524898,-0.45919330851349177,140,247919.0,74,67.5,0,0,22,0,0,0
1778074311.904993,2.9235451221466064,0.5145436074215456,1.4765558665199898,3.7719493710027567,0.44693185808839986,1.4599165135558967,3.7786909288924053,2,146,6.761174933314573,1.6639352964093135,-0.6741557889648586,6.995473763606929,28,-3,13,-0.9455901805121644,-0.4419626882997852,-0.15862197024736036,140,247917.0,74,67.5,0,0,22,0,0,0
1778074311.9774542,2.9960062503814697,0.5145436074215456,1.4765558665199898,3.7719493710027567,0.44849706859859895,1.4614652715426595,3.777974363691342,2,149,6.604653882294665,1.509059497733034,-0.602499268858514,6.801596786165974,4,0,1,0.02160069196170779,0.021373638866661188,-0.009888960033038576,140,247917.0,74,67.5,0,0,22,0,0,0
1778074312.050606,3.0691580772399902,0.5145436074215456,1.4765558665199898,3.7719493710027567,0.4718068780574389,1.3931908153718382,3.8210031247557237,2,153,4.273672936410666,8.336505114815163,-4.905375375296694,10.574701200001611,-4,17,30,0.31864972427718563,-0.9333253741272611,0.5882117086098437,140,247908.0,74,67.5,-1,0,22,0,0,0
1778074312.1227598,3.1413118839263916,0.5145436074215456,1.4765558665199898,3.7719493710027567,0.47274330645242535,1.3961438108353321,3.8196672202512194,2,157,4.180030096912024,8.04120556846577,-4.771784924846267,10.242244381697077,3,2,6,0.012978225792803635,0.04092639874606182,-0.01851467810022066,140,247919.99999999997,74,67.5,0,-1,22,0,0,0
1778074312.19286,3.211411952972412,0.5145436074215456,1.4765558665199898,3.7719493710027567,0.47274330645242535,1.3961438108353321,3.8196672202512194,2,160,4.180030096912024,8.04120556846577,-4.771784924846267,10.242244381697077,3,3,7,0.0,0.0,0.0,140,247919.99999999997,74,67.5,0,-1,22,0,0,0
1778074312.266155,3.2847070693969727,0.5145436074215456,1.4765558665199898,3.7719493710027567,0.4739036297221164,1.3941681045457832,3.8201253814057194,2,164,4.063997769942917,8.23877619742066,-4.817601040296271,10.373176509090644,3,3,8,0.015830840119959912,-0.026955496981608786,0.006250909703808187,140,247912.0,74,67.5,0,0,22,0,0,0
1778074312.33761,3.3561620712280273,0.5145436074215456,1.4765558665199898,3.7719493710027567,0.4701708865078065,1.3914571950060621,3.8196347186975506,2,167,4.437272091373911,8.509867151392768,-4.768534769479382,10.716629432567558,5,2,8,-0.052239075203377484,-0.0379386952662971,-0.006866737045630346,140,247916.0,74,67.5,0,0,22,0,0,0
1778074312.408276,3.426828145980835,0.5145436074215456,1.4765558665199898,3.7719493710027567,0.4701708865078065,1.3914571950060621,3.8196347186975506,2,171,4.437272091373911,8.509867151392768,-4.768534769479382,10.716629432567558,4,3,7,0.0,0.0,0.0,140,247913.0,74,67.5,0,0,22,0,0,0
1778074312.48092,3.499472141265869,0.5145436074215456,1.4765558665199898,3.7719493710027567,0.45167175297929796,1.4644076238234374,3.775565749394498,2,175,6.287185444224763,1.2148242696552458,-0.3616378391741115,6.413679189274878,11,-14,-22,-0.2546546821375012,1.004218291286688,-0.6066429734507129,140,247913.0,74,67.5,0,0,22,0,0,0
1778074312.552425,3.570976972579956,0.5145436074215456,1.4765558665199898,3.7719493710027567,0.5580917591754531,1.4252835764854002,3.8142686388896716,2,178,-4.354815175390748,5.127229003458966,-4.231926788691487,7.947458512667368,-30,16,19,1.4882911299895574,-0.5471525017125594,0.5412625802188143,140,247908.0,74,67.5,0,0,22,0,0,0
1778074312.622593,3.6411449909210205,0.5145436074215456,1.4765558665199898,3.7719493710027567,0.46899256096522024,1.3934215087176516,3.8191812308944226,2,182,4.555104645632535,8.313435780233824,-4.7231859891665895,10.59106598473424,30,4,19,-1.2697978411924065,-0.4540824797541978,0.07001183902433267,140,247908.0,74,67.5,0,0,22,0,0,0
1778074312.694098,3.7126500606536865,0.5145436074215456,1.4765558665199898,3.7719493710027567,0.555119737489268,1.425576345357353,3.814557499460977,2,185,-4.057613006772243,5.097952116263693,-4.2608128458220484,7.785105342868966,-30,1,-5,1.204490490619043,0.44968610980896445,-0.06466298754384864,140,247908.0,74,67.5,0,0,22,0,0,0
1778074312.765881,3.784433126449585,0.5145436074215456,1.4765558665199898,3.7719493710027567,0.5274195695566462,1.4923785550660553,3.7704127867325172,2,189,-1.287596213510056,-1.58226885460655,0.1536584270239505,2.0457491658311464,10,-15,-22,-0.3858872231980458,0.9306123800652631,-0.6149739111725476,140,247915.0,74,67.5,0,0,22,0,0,0
1778074312.837821,3.8563730716705322,0.5145436074215456,1.4765558665199898,3.7719493710027567,0.47075518403037886,1.3923378979105383,3.8018321685714596,2,192,4.378842339116673,8.421796860945152,-2.9882797568702824,9.951418919088228,23,13,30,-0.7876623390834598,-1.3906134741730032,0.43674458942726196,140,247919.0,74,67.5,0,-1,22,0,0,0
1778074312.91006,3.928611993789673,0.5145436074215456,1.4765558665199898,3.7719493710027567,0.4942300624037195,1.3215726034066324,3.8452157829497233,2,196,2.031354501782612,15.498326311335742,-7.326641194696659,17.262797883320662,-5,19,30,0.32496163681158585,-0.979600642257586,0.600557332606832,140,247910.0,74,67.5,0,-1,22,0,0,0
1778074312.980713,3.99926495552063,0.5145436074215456,1.4765558665199898,3.7719493710027567,0.49484008197536067,1.3141960152369405,3.8296145650736464,2,200,1.9703525446184922,16.235985128304932,-5.766519407088966,17.341921701730666,2,-1,16,0.008634026892802035,-0.10440592989974816,-0.2208147754015691,140,247910.0,74,67.5,0,-1,22,0,0,0
1778074313.050614,4.06916618347168,0.5145436074215456,1.4765558665199898,3.7719493710027567,0.5169769371917035,1.491520768734281,3.771058198997763,2,203,-0.2433329770157866,-1.4964902214291254,0.08911720049935568,1.5187612702334756,-6,-20,-30,0.3166876443407362,2.5367902495434977,-0.8377015367582508,140,247914.0,74,67.5,0,-1,22,0,0,0
1778074313.121888,4.140439987182617,0.5145436074215456,1.4765558665199898,3.7719493710027567,0.450605252834971,1.4639963691386666,3.7605490276085365,2,207,6.39383545865746,1.2559497381323226,1.1400343394220247,6.614999615431698,28,-3,12,-0.9312213029335943,-0.38617834551449165,-0.14744788185920796,140,247917.99999999997,74,67.5,0,0,22,0,0,0
1778074313.192705,4.211256980895996,0.5145436074215456,1.4765558665199898,3.7719493710027567,0.46896390663047205,1.398903687502631,3.8033817937238923,2,210,4.5579700791073545,7.765217901735877,-3.1432422721135556,9.536963472965535,-2,17,30,0.2592407956458154,-0.9191675362482675,0.6048373966383684,140,247917.99999999997,74,67.5,0,0,22,0,0,0
1778074313.262082,4.280634164810181,0.5145436074215456,1.4765558665199898,3.7719493710027567,0.5156706317664299,1.4984981561451653,3.7712417573775543,2,214,-0.11270243448843198,-2.1942289625175526,0.07076136252024412,2.1982606190159064,-15,-11,-30,0.6732288989090605,1.4355507534829708,-0.46326521967356443,140,247917.99999999997,74,67.5,0,0,22,0,0,0
1778074313.333298,4.3518500328063965,0.5145436074215456,1.4765558665199898,3.7719493710027567,0.5129018083511501,1.4987573498982054,3.77143856821871,2,217,0.1641799070395522,-2.220148337821559,0.05108027840465823,2.226796550798758,2,0,0,-0.038879304475049975,0.003639550571142914,0.0027635813013795855,140,247925.0,74,67.5,0,0,22,0,0,0
1778074313.404397,4.4229490756988525,0.5145436074215456,1.4765558665199898,3.7719493710027567,0.43891673930706665,1.4708091465934197,3.7589748307530204,2,221,7.562686811447894,0.5746719926570165,1.2974540249736322,7.694664817528609,30,-4,12,-1.0405916315356418,-0.3930883197268918,-0.17530105833551524,140,247925.0,74,67.5,0,0,22,0,0,0
1778074313.476987,4.495538949966431,0.5145436074215456,1.4765558665199898,3.7719493710027567,0.43787536153473394,1.4727291418514237,3.7585282300447704,2,224,7.666824588681164,0.38267246685661505,1.34211409579863,7.792811285835017,6,0,1,-0.014346047335665845,0.026449904719859394,-0.00615238299771308,140,247913.0,74,67.5,0,0,22,0,0,0
1778074313.548589,4.567141056060791,0.5145436074215456,1.4765558665199898,3.7719493710027567,0.45570703585478467,1.4080660320891347,3.8008919537815418,2,228,5.883657156676092,6.84898344308551,-2.894258277878503,9.48170484248658,0,16,29,0.2490384053305831,-0.9030894940027757,0.5916547158674716,140,247912.0,73,67.5,0,0,22,0,0,0
1778074313.6203961,4.638948202133179,0.5145436074215456,1.4765558665199898,3.7719493710027567,0.36946427543649485,1.3856629519310877,3.7992725211552885,2,232,14.507933198505075,9.089291458890214,-2.7323150152531728,17.336692021822337,30,1,16,-1.201033116277171,-0.31198956348248175,-0.02255252735738554,140,247917.0,73,67.5,0,0,22,0,0,0
1778074313.690995,4.70954704284668,0.5145436074215456,1.4765558665199898,3.7719493710027567,0.4539524144190733,1.4159177031933794,3.8172705055948972,2,235,6.059119300247229,6.063816332661043,-4.532113459214049,9.696537919178391,-24,9,-4,1.196735500593303,0.42854459020183233,0.2549331441949147,140,247911.0,73,67.5,0,0,22,0,0,0
1778074313.7618968,4.780448913574219,0.5145436074215456,1.4765558665199898,3.7719493710027567,0.45287726096713665,1.4180414534829908,3.816830813986303,2,239,6.166634645440894,5.8514413036999,-4.488144298354646,9.61302176341292,6,3,5,-0.01516396451749825,0.029953374541731772,-0.006201410542236191,140,247911.0,73,67.5,0,0,22,0,0,0
1778074313.834473,4.853024959564209,0.5145436074215456,1.4765558665199898,3.7719493710027567,0.5075109152131994,1.511613658855349,3.7682475990760063,2,242,0.7032692208346236,-3.5057792335359217,0.37017719267504745,3.594733200842843,-16,-16,-30,0.7527780481951005,1.2892987499658468,-0.669411156912538,140,247917.0,73,67.5,0,0,22,0,0,0
1778074313.906744,4.925296068191528,0.5145436074215456,1.4765558665199898,3.7719493710027567,0.38548759684380607,1.3197173294435876,3.839689579649212,2,246,12.905601057773952,15.683853707640228,-6.774020864645536,21.410865570072808,30,29,30,-1.688410772811461,-2.6552288052105846,0.9885275309890558,140,247916.0,73,67.5,0,0,22,0,0,0
1778074313.978754,4.9973061084747314,0.5145436074215456,1.4765558665199898,3.7719493710027567,0.4321416296090034,1.4911611063958015,3.7707734604732024,2,250,8.24019778125422,-1.4605239875811638,0.1175910529554347,8.3694574165965,-9,-23,-30,0.6478823311543086,2.3808315656810493,-0.9570348649295909,140,247916.0,73,67.5,0,0,22,0,0,0
1778074314.0502741,5.068826198577881,0.5145436074215456,1.4765558665199898,3.7719493710027567,0.5049187444111983,1.5333556741833703,3.7967659068114017,2,253,0.9624863010347262,-5.679980766338044,-2.4816535808644957,6.272731931229582,-22,11,-16,1.017575826557721,0.5899680457157415,0.36342860167977775,140,247915.0,73,67.5,0,0,22,0,0,0
1778074314.1216042,5.140156269073486,0.5145436074215456,1.4765558665199898,3.7719493710027567,0.5068256888966653,1.5291446043144004,3.7791250820096325,2,257,0.7717918524880241,-5.258873779441053,-0.7175711006875751,5.363424687287173,1,-5,0,0.0267340894550848,-0.05903639011865753,-0.2473125945228952,140,247915.0,73,67.5,0,0,22,0,0,0
1778074314.192414,5.210966110229492,0.5145436074215456,1.4765558665199898,3.7719493710027567,0.4339177551615049,1.505118745209297,3.7834440515198082,2,260,8.062585226004071,-2.856287868930707,-1.1494680517051492,8.630465672179612,30,2,8,-1.0296299574310888,-0.3393011297987592,0.060993916095085324,140,247912.0,73,67.0,0,0,22,0,0,0
1778074314.262408,5.2809600830078125,0.5145436074215456,1.4765558665199898,3.7719493710027567,0.43953731007262775,1.5049527964655551,3.784226020577332,2,264,7.500629734891784,-2.839692994556531,-1.2276649574575416,8.113597474058313,4,1,0,0.08028626877518019,-0.002370900481207749,0.011171948476199766,140,247912.0,73,67.0,0,0,22,0,0,0
1778074314.3333251,5.351877212524414,0.5145436074215456,1.4765558665199898,3.7719493710027567,0.43506104377560806,1.5078305818595896,3.7822618445269134,2,267,7.948256364593753,-3.12747153395998,-1.0312473524156651,8.603448641963258,8,0,0,-0.06311967683310994,0.04057955269270747,-0.02769677881503868,140,247917.99999999997,73,67.0,0,0,22,0,0,0
1778074314.403836,5.422388076782227,0.5145436074215456,1.4765558665199898,3.7719493710027567,0.5527556872762402,1.622115633445227,3.7410798787782453,2,271,-3.821207985469466,-14.555976692523709,3.086949222451141,15.362530502606035,-30,-15,-30,1.6691703433147438,1.6208147891617237,-0.5840513541018633,140,247923.0,73,67.0,0,0,22,0,0,0
1778074314.474258,5.492810010910034,0.5145436074215456,1.4765558665199898,3.7719493710027567,0.4416115276482516,1.5056881210866226,3.783444006958112,2,274,7.293207977329397,-2.913225456663282,-1.1494635955355381,7.937192937014547,30,16,30,-1.578260537778967,-1.6532847869145695,0.6015757548348619,140,247923.0,73,67.0,0,0,22,0,0,0
1778074314.546457,5.565009117126465,0.5145436074215456,1.4765558665199898,3.7719493710027567,0.46212430832196083,1.4316001032735888,3.810415720277012,2,278,5.2419299099584755,4.495576324640105,-3.8466349274255407,7.90472238199875,-1,12,30,0.2841140527725955,-1.0261625343524452,0.37357406112545416,140,247917.99999999997,73,67.0,0,0,22,0,0,0
1778074314.6186318,5.637183904647827,0.5145436074215456,1.4765558665199898,3.7719493710027567,0.5410408219200338,1.4703902964333428,3.8200570272251237,2,282,-2.6497214498488186,0.6165570086646976,-4.810765622236701,5.5267198390018795,-26,6,-10,1.0934083259298162,0.5374479716794863,0.1335827548540821,140,247923.0,73,67.0,0,0,22,0,0,0
1778074314.68904,5.707592010498047,0.5145436074215456,1.4765558665199898,3.7719493710027567,0.43920718680254234,1.5092765774686656,3.780722228628071,2,285,7.533642061900325,-3.272071094867579,-0.8772857625314323,8.260256792366812,30,-12,-13,-1.4463339680536746,0.5522983549372308,-0.5586686095593911,140,247923.0,73,67.0,0,0,22,0,0,0
1778074314.7609339,5.7794859409332275,0.5145436074215456,1.4765558665199898,3.7719493710027567,0.5172167165008925,1.5351251612800207,3.775073222031745,2,289,-0.2673109079346925,-5.856929476003092,-0.3123851028988156,5.871342475182983,-24,-1,-10,1.0850641942393637,0.35953777537117865,-0.07857417951880226,140,247919.99999999997,73,67.0,0,0,22,0,0,0
1778074314.832507,5.8510589599609375,0.5145436074215456,1.4765558665199898,3.7719493710027567,0.5442512265495114,1.4742270752510258,3.8179036026259796,2,292,-2.9707619127965823,0.23287912689640144,-4.595423162322287,5.477004023284538,-8,18,23,0.37771929165307827,-0.8508525538851148,0.5984151734280296,140,247925.0,73,67.0,0,0,22,0,0,0
1778074314.904354,5.922906160354614,0.5145436074215456,1.4765558665199898,3.7719493710027567,0.5138439770659096,1.544082548254707,3.7901827124328076,2,296,0.06996303556360273,-6.75266817347171,-1.8233341430050842,6.994853085262844,12,-7,-26,-0.42322107635356077,0.9722782881019406,-0.38583118119118437,140,247931.0,73,67.0,0,0,22,0,0,0
1778074314.97532,5.993872165679932,0.5145436074215456,1.4765558665199898,3.7719493710027567,0.5158505784668277,1.5397409744766795,3.772657316001153,2,299,-0.13069710452821015,-6.3185107956689635,-0.0707944998396215,6.320258876764846,1,-5,0,0.028275529836005387,-0.06117821847411483,-0.24695481098754163,140,247931.0,73,67.0,0,0,22,0,0,0
1778074315.048036,6.0665881633758545,0.5145436074215456,1.4765558665199898,3.7719493710027567,0.5191885146948788,1.540518134274806,3.7725938765056064,2,303,-0.4644907273333221,-6.396226775481617,-0.06445055028496682,6.413393990127118,0,0,-2,0.04590373966963085,0.010687604141476443,-0.0008724283177937299,140,247921.99999999997,73,67.0,0,0,22,0,0,0
1778074315.119371,6.137923002243042,0.5145436074215456,1.4765558665199898,3.7719493710027567,0.47363948119451293,1.4465522685689423,3.805359713349884,2,307,4.0904126227032656,3.0003597951047567,-3.3410342347127475,6.0742196273738625,20,14,30,-0.6385243763593536,-1.3172506898180718,0.4593244670431209,140,247925.0,73,67.5,0,0,22,0,0,0
1778074315.190779,6.209331035614014,0.5145436074215456,1.4765558665199898,3.7719493710027567,0.5464202450354645,1.4800775564123092,3.8154384541069604,2,310,-3.18766376139189,-0.35216898923193796,-4.348908310420363,5.403538354181548,-25,6,-9,1.0192237540396667,0.46948902330358006,0.1411429538286836,140,247925.0,73,67.5,0,0,22,0,0,0
1778074315.261755,6.280307054519653,0.5145436074215456,1.4765558665199898,3.7719493710027567,0.46937627747648347,1.4439232135827775,3.8052334673782093,2,314,4.516732994506212,3.263265293721229,-3.32840963754526,6.49061538193188,30,0,17,-1.0854929417978276,-0.5093881480954534,-0.14378077111253923,140,247917.99999999997,73,67.5,0,0,22,0,0,0
1778074315.332916,6.351468086242676,0.5145436074215456,1.4765558665199898,3.7719493710027567,0.5158489463183517,1.549481575444732,3.787738775871423,2,317,-0.1305338896806063,-7.292570892474215,-1.5789404868666423,7.462686002987395,-14,-4,-30,0.6530634494276599,1.4833731229869669,-0.24584651294658202,140,247921.0,73,67.5,0,0,22,0,0,0
1778074315.4039118,6.422463893890381,0.5145436074215456,1.4765558665199898,3.7719493710027567,0.5158489463183517,1.549481575444732,3.787738775871423,2,321,-0.1305338896806063,-7.292570892474215,-1.5789404868666423,7.462686002987395,2,1,-3,0.0,0.0,0.0,140,247921.0,73,67.5,0,0,22,0,0,0
1778074315.473552,6.4921040534973145,0.5145436074215456,1.4765558665199898,3.7719493710027567,0.443087072873775,1.5218775785978194,3.775936188827986,2,324,7.145653454777056,-4.5321712077829535,-0.39868178252291386,8.471120723737782,30,-3,8,-1.044826345247667,-0.3963804362700552,-0.169479609323902,150,247927.0,73,67.5,0,0,22,0,0,0
1778074315.545426,6.563977956771851,0.5145436074215456,1.4765558665199898,3.7719493710027567,0.5160039183401017,1.5489770187697376,3.7695499494374567,2,328,-0.14603109185561403,-7.242115224974777,0.23994215653000417,7.247560296408735,-23,-1,-12,1.0145107214757332,0.3770414425442672,-0.0888533820980296,150,247927.0,73,67.5,0,0,22,0,0,0
1778074315.618312,6.636863946914673,0.5145436074215456,1.4765558665199898,3.7719493710027567,0.5197984757381452,1.5584570449361212,3.785987750986565,2,332,-0.5254868316599604,-8.190117841613143,-1.4038379983808191,8.326159246342566,0,7,-7,0.05206154695309641,0.13006650726439012,0.2255275879067825,150,247923.0,72,67.5,0,0,22,0,0,0
1778074315.6936479,6.712199926376343,0.5145436074215456,1.4765558665199898,3.7719493710027567,0.5496317366585661,1.4865804071477267,3.814956347051289,2,335,-3.5088129237020538,-1.0024540627736833,-4.300697604853232,5.640273235393862,-9,13,25,0.39600282804579123,-0.954081148237604,0.3845253791312691,150,247923.0,72,67.5,0,0,22,0,0,0
1778074315.764344,6.782896041870117,0.5145436074215456,1.4765558665199898,3.7719493710027567,0.44349838018318777,1.5265008867420748,3.7745426151275807,2,339,7.104522723835782,-4.994502022208502,-0.2593244124823979,8.688299185355737,30,-13,-16,-1.5012615012026311,0.5646771299317519,-0.5716542081759389,150,247928.00000000003,72,67.5,0,0,22,0,0,0
1778074315.832188,6.8507399559021,0.5145436074215456,1.4765558665199898,3.7719493710027567,0.520397738923098,1.5523988824677168,3.768344567466292,2,342,-0.5854131501552451,-7.584301594772702,0.360480353646464,7.615397909644087,-26,-1,-13,1.1334746798903585,0.38172909236093566,-0.09135745998331975,150,247928.00000000003,72,67.5,0,0,22,0,0,0
1778074315.9036748,6.922226905822754,0.5145436074215456,1.4765558665199898,3.7719493710027567,0.520397738923098,1.5523988824677168,3.768344567466292,2,346,-0.5854131501552451,-7.584301594772702,0.360480353646464,7.615397909644087,1,0,-3,0.0,0.0,0.0,150,247919.99999999997,72,67.5,0,0,22,0,0,0
1778074315.977389,6.995941162109375,0.5145436074215456,1.4765558665199898,3.7719493710027567,0.5889482974296887,1.5872358471771282,3.774232505847452,2,349,-7.440469000814309,-11.067998065713835,-0.22831348446952227,13.338413968006634,-25,3,-18,0.9299498083525038,0.47259467115771653,0.07987516496491473,150,247921.0,72,67.5,0,0,22,0,0,0
1778074316.0496798,7.068231821060181,0.5145436074215456,1.4765558665199898,3.7719493710027567,0.5913220342366813,1.554595119928381,3.7212395160790765,0,353,-7.677842681513569,-7.803925340839113,5.070985492368019,12.065049226226526,-3,-20,7,0.03283601009375146,-0.45152067670263574,-0.733054457346108,150,247919.99999999997,72,67.5,0,0,22,0,0,0
1778074316.121886,7.140438079833984,0.5145436074215456,1.4765558665199898,3.7719493710027567,0.365332254691502,1.5579877156300204,3.717137446116725,2,357,14.92113527300436,-8.143184911003054,5.48119248860317,17.860436988696623,30,-3,-5,-3.1297810381385935,0.046984787181222,-0.05681044873411639,150,247919.99999999997,72,67.5,0,0,22,0,0,0
1778074316.191574,7.210126161575317,0.5145436074215456,1.4765558665199898,3.7719493710027567,0.5240563400751881,1.5518276958946293,3.7663312773484425,2,360,-0.9512732653642497,-7.52718293746395,0.5618093654314205,7.6078271249110045,-30,18,-1,2.2776360235145425,-0.08839416413061411,0.7059145552938922,150,247916.0,72,67.5,0,0,22,0,0,0
1778074316.261538,7.280090093612671,0.5145436074215456,1.4765558665199898,3.7719493710027567,0.530166996609992,1.550791191884131,3.7673039812369438,2,364,-1.5623389188446413,-7.423532536414124,0.46453897658129684,7.60036411478417,0,0,-3,0.08734009591601363,-0.014814833590897613,0.013902933414061302,150,247929.0,72,67.5,0,0,22,0,0,0
1778074316.332889,7.351441144943237,0.5145436074215456,1.4765558665199898,3.7719493710027567,0.5959429877933408,1.5832247070212957,3.7733376266394467,2,367,-8.139938037179517,-10.666884050130587,-0.13882556366899834,13.418654147312253,-25,2,-17,0.9218643587830454,0.4545625401776006,0.08456281007758845,150,247916.0,72,67.5,0,0,22,0,0,0
1778074316.402584,7.421136140823364,0.5145436074215456,1.4765558665199898,3.7719493710027567,0.5258930296642019,1.5480023055892458,3.7669939803217587,2,371,-1.1349422242656337,-7.144643906925596,0.49553906809980397,7.251178481957488,26,-1,8,-1.0050930808522094,-0.5053792024413238,-0.09102011181116763,150,247916.0,72,67.5,0,0,22,0,0,0
1778074316.4734988,7.492050886154175,0.5145436074215456,1.4765558665199898,3.7719493710027567,0.5525298328512285,1.4854573701984295,3.8107447018900817,2,374,-3.7986225429682885,-0.8901503678439671,-3.879533088732501,5.502061239925447,-9,18,22,0.3756172720182297,-0.8819736304353927,0.6169481588663979,150,247927.0,72,67.5,0,0,22,0,0,0
1778074316.5441542,7.562706232070923,0.5145436074215456,1.4765558665199898,3.7719493710027567,0.5281453320663461,1.5461642129687005,3.7680667993447625,2,378,-1.3601724644800472,-6.960834644871072,0.3882571657994216,7.103100148045338,10,-14,-25,-0.3451189781678267,0.8591967385143208,-0.6040293482619963,150,247917.0,72,67.5,0,0,22,0,0,0
1778074316.615941,7.634493112564087,0.5145436074215456,1.4765558665199898,3.7719493710027567,0.5257922854381991,1.543490960854096,3.768477514898048,2,381,-1.1248678016653524,-6.693509433410627,0.34718561047086816,6.796244106453102,2,0,-2,-0.032778226494617195,-0.03723872797145731,0.005721317745860889,150,247917.0,72,67.5,0,0,22,0,0,0
1778074316.686923,7.705475091934204,0.5145436074215456,1.4765558665199898,3.7719493710027567,0.5299879745579104,1.5417583199594005,3.7702666356335603,2,385,-1.5444367136364767,-6.520245343941067,0.16827353691963864,6.702775551280293,0,1,-2,0.05910921556348699,-0.024409588321863986,0.0252052809936926,150,247919.99999999997,72,67.5,0,0,22,0,0,0
1778074316.757258,7.77581000328064,0.5145436074215456,1.4765558665199898,3.7719493710027567,0.526129144682179,1.5409085931906454,3.7704045343053,2,388,-1.1585537260633383,-6.435272667065561,0.1544836697456642,6.540553970412172,2,0,-3,-0.054863648817649976,-0.012081152197231246,0.0019606006334538877,150,247919.0,72,67.5,0,0,22,0,0,0
1778074316.8280058,7.846557855606079,0.5145436074215456,1.4765558665199898,3.7719493710027567,0.5237896188057405,1.5382360547827578,3.770833512479758,2,392,-0.9246011384194897,-6.1680188262768,0.11158585229988915,6.237931941669863,2,0,-2,-0.03306850737569657,-0.03777554116546129,0.006063479813980144,150,247919.0,72,67.5,0,0,22,0,0,0
1778074316.8990028,7.91755485534668,0.5145436074215456,1.4765558665199898,3.7719493710027567,0.5646148800908433,1.6251768117613006,3.735509629791237,2,396,-5.007127266929768,-14.862094524131075,3.6439741211519827,16.100674659996823,-15,-13,-30,0.5750279791296068,1.224569450768277,-0.4975404991419729,150,247916.0,72,67.5,0,0,22,0,0,0
1778074316.971276,7.989828109741211,0.5145436074215456,1.4765558665199898,3.7719493710027567,0.5228147250791988,1.5355921870883171,3.7720414084225657,2,399,-0.8271117657653204,-5.9036320568327305,-0.009203741980901015,5.961297681243315,16,13,27,-0.5783627063956787,-1.2395266468000936,0.5054674642421126,140,247917.99999999997,72,67.5,0,0,22,0,0,0
1778074317.042463,8.061015129089355,0.5145436074215456,1.4765558665199898,3.7719493710027567,0.5956617121084051,1.5678358600514977,3.779607336137514,2,403,-8.111810468685954,-9.127999353150784,-0.7657965134757472,12.235533726448379,-28,3,-16,1.0233184040610497,0.4529431525358697,0.10628240631830395,140,247917.99999999997,72,67.5,0,0,22,0,0,0
1778074317.1136441,8.132196187973022,0.5145436074215456,1.4765558665199898,3.7719493710027567,0.5228756206863032,1.5310708878989603,3.7736399267050587,2,406,-0.8332013264757632,-5.451502137897046,-0.16905557023019213,5.51739791892545,27,-1,9,-1.0225485903638785,-0.5164993711687165,-0.08383423239331461,140,247917.99999999997,72,67.5,0,0,22,0,0,0
1778074317.1839318,8.202483892440796,0.5145436074215456,1.4765558665199898,3.7719493710027567,0.5271837432710579,1.529313199959439,3.7754931397138147,2,410,-1.264013584951229,-5.275733343944911,-0.3543768711057993,5.436605156357057,0,1,-2,0.06129269147963015,-0.025007047147588217,0.02636610517854884,140,247912.0,72,68.0,0,0,22,0,0,0
1778074317.253597,8.272149085998535,0.5145436074215456,1.4765558665199898,3.7719493710027567,0.47163531206351184,1.4277372145867453,3.8093068945860056,2,413,4.2908295358033754,4.881865193324453,-3.735752358324884,7.496644019415976,24,15,30,-0.7973627628193828,-1.458059328989108,0.48537516578010576,140,247919.99999999997,72,68.0,0,0,22,0,0,0
1778074317.323862,8.342414140701294,0.5145436074215456,1.4765558665199898,3.7719493710027567,0.5262875847502795,1.5266436535115466,3.776764538477401,2,417,-1.174397732873389,-5.00877869915568,-0.48151674746441664,5.167100973484313,-18,-10,-30,0.7778016101739668,1.4076191834362581,-0.46313713475735724,140,247919.99999999997,72,68.0,0,0,22,0,0,0
1778074317.395034,8.413586139678955,0.5145436074215456,1.4765558665199898,3.7719493710027567,0.5519684813104004,1.4521217433358138,3.8052447629253754,2,420,-3.742487388885485,2.4434123184176038,-3.3295391922618656,5.5733568741441255,-9,12,28,0.36082865352962,-1.0470678250743406,0.4001605246034135,140,247927.0,72,68.0,0,0,22,0,0,0
1778074317.463042,8.48159408569336,0.5145436074215456,1.4765558665199898,3.7719493710027567,0.5224681428913682,1.5257243658023096,3.7769810008067997,2,424,-0.7924535469822636,-4.916849928231981,-0.5031629804042925,5.005653686156178,12,-9,-29,-0.43377781785651853,1.0822650407778318,-0.41559499698152,140,247926.00000000003,72,68.0,0,0,22,0,0,0
1778074317.530147,8.548699140548706,0.5145436074215456,1.4765558665199898,3.7719493710027567,0.49502154009140364,1.5836247676512336,3.7337072880052578,2,427,1.9522067330141946,-10.706890113124379,3.8242082997498983,11.535734746552667,13,-17,-27,-0.4090094682007065,0.8628321960802434,-0.6448651728967929,140,247926.00000000003,72,68.0,0,0,22,0,0,0
1778074317.599454,8.618005990982056,0.5145436074215456,1.4765558665199898,3.7719493710027567,0.49502154009140364,1.5836247676512336,3.7337072880052578,2,431,1.9522067330141946,-10.706890113124379,3.8242082997498983,11.535734746552667,3,-1,-6,0.0,0.0,0.0,140,247923.99999999997,71,68.0,0,0,22,0,0,0
1778074317.668328,8.686880111694336,0.5145436074215456,1.4765558665199898,3.7719493710027567,0.4735731084947127,1.4295597480338884,3.8102145178365316,2,434,4.097049892683291,4.699611848610141,-3.826514683377491,7.315352621223159,12,30,30,-0.31141496072655783,-2.2369072450441516,1.1108269556119739,140,247913.0,71,68.0,0,0,22,0,0,0
1778074317.737762,8.756314039230347,0.5145436074215456,1.4765558665199898,3.7719493710027567,0.5214017028807914,1.527583128145881,3.776595266985883,2,438,-0.6858095459245761,-5.102726162589111,-0.4645895983126369,5.169525366850709,-15,-11,-30,0.6888360788934657,1.4117504740194098,-0.4841905397503617,140,247913.0,71,68.0,0,0,22,0,0,0
1778074317.810401,8.82895302772522,0.5145436074215456,1.4765558665199898,3.7719493710027567,0.518158484808926,1.5319387827045672,3.793334064880609,2,441,-0.3614877387380422,-5.538291618457736,-2.1384693877852357,5.9478062139608845,3,7,-4,-0.044648447604611806,0.05996303980738496,0.23043820187429281,140,247919.0,71,68.0,0,0,22,0,0,0
1778074317.881094,8.899646043777466,0.5145436074215456,1.4765558665199898,3.7719493710027567,0.44494676912662234,1.5022456431713223,3.7815051005326725,2,445,6.959683829492325,-2.568977665133243,-0.9555729529915791,7.479970916984868,30,-2,9,-1.035628691074605,-0.4200293210194913,-0.16732861332715385,140,247921.0,71,68.0,0,0,22,0,0,0
1778074317.9526799,8.971231937408447,0.5145436074215456,1.4765558665199898,3.7719493710027567,0.5915400300473943,1.5627224587999673,3.7828527051974064,2,448,-7.699642262584872,-8.616659227997747,-1.0903334194649617,11.60690028340142,-30,1,-26,2.0477953614219926,0.844814705260192,0.01882500303314786,140,247916.0,71,68.0,0,0,22,0,0,0
1778074318.0230331,9.041585206985474,0.5145436074215456,1.4765558665199898,3.7719493710027567,0.4706561382990647,1.4298074412106514,3.808921268452298,2,452,4.388746912248087,4.674842530933843,-3.6971897449541213,7.401652799138107,30,12,30,-1.7182412768461273,-1.8892514646216083,0.3705380490717691,140,247904.0,71,68.0,0,0,22,0,0,0
1778074318.092979,9.111531019210815,0.5145436074215456,1.4765558665199898,3.7719493710027567,0.5263789698768653,1.529069841656308,3.776515487988018,2,455,-1.1835362455319687,-5.251397513631817,-0.4566116985261104,5.4024464952368785,-18,-10,-30,0.79665715222922,1.4191328585314964,-0.4632983653099863,140,247904.0,71,68.0,0,0,22,0,0,0
1778074318.163574,9.18212604522705,0.5145436074215456,1.4765558665199898,3.7719493710027567,0.5246303780619405,1.5396917597079458,3.790945387163493,2,459,-1.008677064039487,-6.313589318795598,-1.8996016160736318,6.6698819933877935,2,7,-7,-0.024769334521141433,0.1504626976013154,0.2044039076089673,140,247919.0,71,68.0,0,0,22,0,0,0
1778074318.2342541,9.252806186676025,0.5145436074215456,1.4765558665199898,3.7719493710027567,0.47281823681475565,1.430601076341992,3.8081704596992267,2,462,4.1725370606789935,4.595479017799775,-3.6221088696470005,7.18666581867789,22,9,30,-0.7330508992343913,-1.5434417805276812,0.24370455664932147,140,247921.99999999997,71,68.0,0,-1,22,0,0,0
1778074318.304609,9.323161125183105,0.5145436074215456,1.4765558665199898,3.7719493710027567,0.47281823681475565,1.430601076341992,3.8081704596992267,2,466,4.1725370606789935,4.595479017799775,-3.6221088696470005,7.18666581867789,4,3,3,0.0,0.0,0.0,140,247921.99999999997,71,68.0,0,-1,22,0,0,0
1778074318.376378,9.394930124282837,0.5145436074215456,1.4765558665199898,3.7719493710027567,0.47281823681475565,1.430601076341992,3.8081704596992267,2,469,4.1725370606789935,4.595479017799775,-3.6221088696470005,7.18666581867789,4,3,3,0.0,0.0,0.0,140,247921.99999999997,71,68.0,0,0,22,0,0,0
1778074318.448321,9.466873168945312,0.5145436074215456,1.4765558665199898,3.7719493710027567,0.44805600243601895,1.5056080671221865,3.7795866544784706,2,473,6.648760498552663,-2.905220060219671,-0.7637283475713907,7.29586189249092,14,-8,-27,-0.34419219390713823,1.0425884966655712,-0.3973115866149182,140,247923.0,71,68.0,0,0,22,0,0,0
1778074318.518403,9.536955118179321,0.5145436074215456,1.4765558665199898,3.7719493710027567,0.47281823681475565,1.430601076341992,3.8081704596992267,2,477,4.1725370606789935,4.595479017799775,-3.6221088696470005,7.18666581867789,-4,13,30,0.35333255780391865,-1.0702754646526824,0.4078625884864113,140,247908.0,71,68.0,0,0,22,0,0,0
1778074318.5891662,9.607718229293823,0.5145436074215456,1.4765558665199898,3.7719493710027567,0.47344671973286967,1.4420519981484414,3.8240343714279588,2,480,4.109688768867592,3.4503868371548396,-5.208500042520203,7.478180513727972,4,9,-1,0.008881504900159992,0.16182049695243883,0.2241833559728966,140,247908.0,71,68.0,0,0,22,0,0,0
1778074318.660778,9.679330110549927,0.5145436074215456,1.4765558665199898,3.7719493710027567,0.47250408713475645,1.4441421770155287,3.823661308648376,2,484,4.2039520286789145,3.2413689504461107,-5.171193764561943,7.410865690524555,5,3,2,-0.013163075478245216,0.029187598907117692,-0.005209509553986252,140,247923.0,71,68.0,0,0,22,0,0,0
1778074318.733299,9.751851081848145,0.5145436074215456,1.4765558665199898,3.7719493710027567,0.4453588640021868,1.5113891478209696,3.7784651087084735,2,487,6.918474341935877,-3.4833281300979735,-0.6515737705716784,7.773249671820268,15,-14,-25,-0.3743085985561906,0.9272762016508383,-0.6232155903434978,140,247925.0,71,68.0,0,0,22,0,0,0
1778074318.804723,9.823275089263916,0.5145436074215456,1.4765558665199898,3.7719493710027567,0.4684674209688574,1.448566316460988,3.8220148163282306,2,491,4.607618645268818,2.798955005900172,-5.006544532547386,7.357294805950255,-2,19,24,0.3235404705332715,-0.879575840575269,0.6097348664048868,140,247925.0,71,68.0,0,0,22,0,0,0
1778074318.876781,9.895333051681519,0.5145436074215456,1.4765558665199898,3.7719493710027567,0.5446326528762194,1.4836537095074678,3.832813734495241,2,494,-3.0089045454673835,-0.7097842987477954,-6.086436349248414,6.826566321946601,-25,8,-12,1.0569995230500182,0.4869329060837893,0.1498643287250694,140,247923.99999999997,71,68.0,0,0,22,0,0,0
1778074318.94911,9.96766209602356,0.5145436074215456,1.4765558665199898,3.7719493710027567,0.4905365176080416,1.6181485709856225,3.7598358045565488,2,498,2.400708981350397,-14.159270446563266,1.211356644620798,14.412346377759706,22,-24,-30,-0.7479171854166834,1.8594862230189872,-1.0089713005688634,140,247926.00000000003,71,68.0,0,0,22,0,0,0
1778074319.0200949,10.038646936416626,0.5145436074215456,1.4765558665199898,3.7719493710027567,0.5207428921758628,1.5565050316227675,3.786336041453149,2,502,-0.6199284754317191,-7.994916510277772,-1.4386670450392103,8.146948151758734,-8,11,16,0.42553275319854955,-0.8684042821187508,0.373322483362075,140,247926.00000000003,71,68.0,0,0,22,0,0,0
1778074319.0921202,10.110672235488892,0.5145436074215456,1.4765558665199898,3.7719493710027567,0.5195687006495726,1.5535597096604667,3.7873946652935544,2,505,-0.5025093228027022,-7.700384314047692,-1.5445294290797662,7.8698160944731645,2,2,-3,-0.01630248734006727,-0.04089288069940044,0.014697944389559606,140,247919.99999999997,71,68.0,0,0,22,0,0,0
1778074319.160779,10.179331064224243,0.5145436074215456,1.4765558665199898,3.7719493710027567,0.5139910738221002,1.5579963691591994,3.785514245291504,2,509,0.05525335994454039,-8.144050263920954,-1.3564874288747308,8.256431782540888,4,1,-6,-0.08123684790737737,0.06461892200104254,-0.027387883491262487,150,247919.99999999997,71,68.0,0,0,22,0,0,0
1778074319.232575,10.251127004623413,0.5145436074215456,1.4765558665199898,3.7719493710027567,0.574280832304503,1.4233788147206492,3.8565335021689333,2,512,-5.97372248829574,5.317705179934062,-8.458413116617658,11.640794697924942,-22,30,30,0.8397377086671582,-1.8750023147563168,0.9891820691055447,150,247923.99999999997,71,68.0,0,0,22,0,0,0
1778074319.304335,10.322887182235718,0.5145436074215456,1.4765558665199898,3.7719493710027567,0.5209042064101326,1.5611269483667347,3.784827237121591,2,516,-0.6360598988586985,-8.457108184674489,-1.2877866118834458,8.578207586668126,20,-23,-30,-0.7438195900621343,1.9195623287095362,-0.9992487119352764,150,247923.99999999997,71,68.0,0,0,22,0,0,0
1778074319.3760881,10.39464020729065,0.5145436074215456,1.4765558665199898,3.7719493710027567,0.46977455232005727,1.4634725206135024,3.817796455126286,2,519,4.476905510148832,1.308334590648741,-4.5847084123529225,6.540181463399057,22,15,30,-0.7125783763253495,-1.3609799402669287,0.4594819239949071,150,247925.0,71,68.0,0,0,22,0,0,0
1778074319.446442,10.464993953704834,0.5145436074215456,1.4765558665199898,3.7719493710027567,0.5883755800587298,1.59336595724495,3.79021708585939,2,523,-7.383197263718422,-11.681009072496007,-1.8267714856633255,13.93896225863123,-30,-7,-30,1.6857812665788676,1.8462902581867147,-0.3920099592782379,150,247925.0,71,68.0,0,-1,22,0,0,0
1778074319.5208352,10.539387226104736,0.5145436074215456,1.4765558665199898,3.7719493710027567,0.4971719052808946,1.6203308146667812,3.7396136063591037,2,527,1.737170214065098,-14.377494814679137,3.2335764643653064,14.838670231852236,30,-17,-19,-1.2259667014991389,0.36246365500473265,-0.6802158026906845,150,247925.0,71,68.0,0,-1,22,0,0,0
1778074319.587832,10.606384038925171,0.5145436074215456,1.4765558665199898,3.7719493710027567,0.4971719052808946,1.6203308146667812,3.7396136063591037,2,530,1.737170214065098,-14.377494814679137,3.2335764643653064,14.838670231852236,3,0,-10,0.0,0.0,0.0,150,247926.00000000003,70,68.0,0,0,22,0,0,0
1778074319.657589,10.676141023635864,0.5145436074215456,1.4765558665199898,3.7719493710027567,0.47666481317946807,1.4625133614121948,3.8186090307770097,2,534,3.787879424207752,1.4042505107795034,-4.6659659774253015,6.171805937637005,11,30,30,-0.29397905007615555,-2.2623892633706952,1.132437486303741,150,247933.0,70,68.0,0,0,22,0,0,0
1778074319.727364,10.74591612815857,0.5145436074215456,1.4765558665199898,3.7719493710027567,0.4707860445425459,1.4643075306496254,3.816215033361542,2,537,4.375756287899968,1.2248335870364446,-4.426566235878537,6.343654234559805,7,2,0,-0.08425309681921275,0.02571360157327687,-0.034310194615167156,150,247933.0,70,68.0,0,0,22,0,0,0
1778074319.7953868,10.813938856124878,0.5145436074215456,1.4765558665199898,3.7719493710027567,0.5262976570452871,1.5598660911347793,3.783271664474972,2,540,-1.1754049623741492,-8.331022461478943,-1.132229347221525,8.48937308486028,-18,-10,-30,0.8160744821971249,1.4048034141248154,-0.4842994374304843,150,247931.0,70,68.0,0,0,22,0,0,0
1778074319.867043,10.885595083236694,0.5145436074215456,1.4765558665199898,3.7719493710027567,0.45717181554276254,1.5220938728940059,3.7751871876240664,2,544,5.737179187878305,-4.553800637401606,-0.32378166213096193,7.331927430338868,30,-1,9,-0.9646871498642636,-0.5271309942376882,-0.11282308847059667,150,247921.0,70,68.0,0,0,22,0,0,0
1778074319.938524,10.957076072692871,0.5145436074215456,1.4765558665199898,3.7719493710027567,0.5550757276487676,1.4882651657621153,3.8106052769385,2,548,-4.053212022722197,-1.1709299242125493,-3.8655905935743196,5.722097100337116,-30,15,10,1.369649648820649,-0.47325460082824006,0.4954896341515745,150,247921.0,70,68.0,0,0,22,0,0,0
1778074320.0120718,11.03062391281128,0.5145436074215456,1.4765558665199898,3.7719493710027567,0.5968172216619574,1.5858573973051548,3.7721070171563102,2,551,-8.22736142404118,-10.930153078516502,-0.015764615355351452,13.680569097983533,-16,-12,-30,0.5675420779996828,1.3269217884022306,-0.5234451442790091,150,247923.0,70,68.0,0,0,22,0,0,0
1778074320.084584,11.10313606262207,0.5145436074215456,1.4765558665199898,3.7719493710027567,0.45897019334196343,1.5248016666060082,3.7733553798977897,2,555,5.557341407958216,-4.824580008601842,-0.14060088950329508,7.360732599010555,30,1,17,-1.9010197419285455,-0.8420069030977826,0.01721591132985081,150,247907.00000000003,70,68.0,0,0,22,0,0,0
1778074320.155694,11.174246072769165,0.5145436074215456,1.4765558665199898,3.7719493710027567,0.5352992704908541,1.5482819670508916,3.767381514779805,2,558,-2.075566306930854,-7.172610053090178,0.45678562229518604,7.480839763882961,-25,-1,-13,1.0733942660252764,0.3301968372148049,-0.08400877887132294,150,247929.0,70,68.5,0,0,22,0,0,0
1778074320.227839,11.24639105796814,0.5145436074215456,1.4765558665199898,3.7719493710027567,0.5644522941205266,1.4872060766509718,3.8107297081967966,2,562,-4.990868669898097,-1.0650210130981996,-3.878033719403984,6.409538623594167,-10,18,20,0.40408939788772424,-0.8465715285889039,0.600848323656012,150,247929.0,70,68.5,0,0,22,0,0,0
1778074320.299882,11.318434000015259,0.5145436074215456,1.4765558665199898,3.7719493710027567,0.5359297354519735,1.548404103717223,3.7663586445044053,2,566,-2.138612803042794,-7.18482371972331,0.5590726498351462,7.517174923641923,10,-14,-26,-0.39591052028244567,0.8494659619289978,-0.6158974416032419,150,247921.99999999997,70,68.5,0,-1,22,0,0,0
1778074320.3728151,11.391367197036743,0.5145436074215456,1.4765558665199898,3.7719493710027567,0.6056689337439309,1.5771927643774477,3.754520111118059,2,569,-9.112532632238535,-10.063689785745789,1.7429259884697679,13.687727863988952,-27,-3,-17,0.9562065169227931,0.3947264323507488,-0.1623202309760104,140,247921.99999999997,70,68.5,0,-1,22,0,0,0
1778074320.4441228,11.462674856185913,0.5145436074215456,1.4765558665199898,3.7719493710027567,0.5415308923326544,1.5395489092408057,3.7505010873641003,2,573,-2.69872849111088,-6.299304272081585,2.1448283638656473,7.180853604651852,23,-1,8,-0.8994551521752367,-0.5279075990686232,-0.056361740125998504,140,247921.99999999997,70,68.5,0,-1,22,0,0,0
1778074320.515104,11.533656120300293,0.5145436074215456,1.4765558665199898,3.7719493710027567,0.5800708564730519,1.6357431190394478,3.7285515641050115,2,576,-6.552724905150631,-15.918725251945798,4.3397806897745195,17.75324516151506,-15,-9,-30,0.5429596756447426,1.3552056447407568,-0.30922981624727125,140,247921.99999999997,70,68.5,0,-1,22,0,0,0
1778074320.5870678,11.60561990737915,0.5145436074215456,1.4765558665199898,3.7719493710027567,0.6134725255495594,1.5698744114982204,3.7568389177433215,2,580,-9.892891812801386,-9.331854497823056,1.5110453259435275,13.683423356945031,-15,10,15,0.46414551585377556,-0.9153035188246686,0.39307761287371984,140,247928.00000000003,70,68.5,0,-1,22,0,0,0
1778074320.657467,11.676018953323364,0.5145436074215456,1.4765558665199898,3.7719493710027567,0.5353935190425354,1.5382571107342327,3.767386975001862,2,583,-2.0849911620989814,-6.170124421424283,0.45623960008946973,6.528842017890845,28,4,6,-1.1090918273082278,-0.44911547223299214,0.14983238930395656,140,247921.99999999997,70,68.5,0,0,22,0,0,0
1778074320.729462,11.748013973236084,0.5145436074215456,1.4765558665199898,3.7719493710027567,0.5682857299373398,1.4640313201136799,3.796693615882789,2,587,-5.374212251579424,1.2524546406309955,-2.474424488003235,6.0476091555832685,-12,12,25,0.45686786300885784,-1.0309850696692278,0.40706483471295346,140,247921.99999999997,70,68.5,0,0,22,0,0,0
1778074320.8020742,11.820626258850098,0.5145436074215456,1.4765558665199898,3.7719493710027567,0.573579591575143,1.4641290883189084,3.797127393201044,2,591,-5.903598415359745,1.24267782010814,-2.517802219828713,6.537281578194502,-3,2,0,0.07290586700360704,0.001346441644162842,0.005973883270396103,140,247923.99999999997,70,68.5,0,-1,22,0,0,0
1778074320.874339,11.89289116859436,0.5145436074215456,1.4765558665199898,3.7719493710027567,0.490218772415696,1.4260000094305365,3.7870648933547364,2,594,2.4324835005849588,5.0555857089453315,-1.511552235197966,5.810396974462441,30,-1,16,-1.1535449148757193,-0.5276292328227682,-0.1392446193030271,140,247921.0,70,68.5,0,0,22,0,0,0
1778074320.947078,11.965630054473877,0.5145436074215456,1.4765558665199898,3.7719493710027567,0.6125704617507879,1.558008148609495,3.7595388029600025,2,598,-9.80268543292423,-8.145228208950517,1.24105680427542,12.805374116525703,-30,-8,-30,1.6820671344589062,1.8148221213838005,-0.3784233159733514,140,247921.0,70,68.5,0,0,22,0,0,0
1778074321.020519,12.039071083068848,0.5145436074215456,1.4765558665199898,3.7719493710027567,0.5408620593096319,1.5169961268829986,3.7561486434916667,2,602,-2.6318451888086347,-4.044026036300874,1.5800727511090074,5.077143446755439,25,0,10,-0.9764079263735502,-0.5584347402414372,-0.04616165559217174,140,247925.0,70,68.5,0,0,22,0,0,0
1778074321.0922081,12.11076021194458,0.5145436074215456,1.4765558665199898,3.7719493710027567,0.4976994399928907,1.4154478871294045,3.791520074368728,2,605,1.684416742865491,6.110797939058532,-1.957070336597111,6.63394569754953,18,14,30,-0.6020803989899268,-1.4165082118604078,0.49340020490937797,140,247911.0,70,68.5,0,0,22,0,0,0
1778074321.164226,12.182778120040894,0.5145436074215456,1.4765558665199898,3.7719493710027567,0.4942090989655731,1.4152181111751712,3.790499206252859,2,609,2.033450845597251,6.133775534481867,-1.854983525010212,6.723026738525424,4,1,3,-0.04846490434920405,-0.0031905391354335746,-0.014175198125773475,140,247911.0,70,68.5,0,0,22,0,0,0
1778074321.2361212,12.25467324256897,0.5145436074215456,1.4765558665199898,3.7719493710027567,0.5421347612274348,1.5109355766985035,3.7580878066296783,2,612,-2.759115380588917,-3.437971017851371,1.3861564373078394,4.621016346181679,-16,-10,-30,0.6666051962446542,1.3313485276550325,-0.45081499945317366,140,247913.0,70,68.0,0,0,22,0,0,0
1778074321.307092,12.32564401626587,0.5145436074215456,1.4765558665199898,3.7719493710027567,0.5736279248948033,1.4405694490494274,3.785421131983373,2,616,-5.908431747325771,3.5986417470562415,-1.347176098061631,7.0480260765445255,-12,11,26,0.4437483491707294,-0.9914803514696684,0.38513494964038764,140,247921.99999999997,70,68.0,0,0,22,0,0,0
1778074321.379699,12.398251056671143,0.5145436074215456,1.4765558665199898,3.7719493710027567,0.5430046647879245,1.5039715826619853,3.7421906714820663,2,620,-2.846105736637894,-2.741571614199545,2.9758699520690435,4.946952066832186,10,-15,-24,-0.4217670894715963,0.8732229444784391,-0.5954031490611057,140,247914.0,70,68.0,0,0,22,0,0,0
1778074321.4511738,12.469725847244263,0.5145436074215456,1.4765558665199898,3.7719493710027567,0.4693917265077654,1.4763830556331685,3.7488040305463195,2,623,4.51518809137802,0.01728108868213063,2.3145340456437236,5.073883126855783,30,2,9,-1.029914711045591,-0.3859896168648882,0.0925271555358753,140,247914.0,70,68.0,0,0,22,0,0,0
1778074321.52112,12.539672136306763,0.5145436074215456,1.4765558665199898,3.7719493710027567,0.5440535621401879,1.5022400597148806,3.7425590447205503,2,627,-2.950995471864226,-2.568419319489079,2.939032628220639,4.893165117327785,-26,-2,-11,1.0674166797570763,0.369669419611493,-0.08928258967661593,140,247917.0,70,68.0,0,0,22,0,0,0
1778074321.5912378,12.609789848327637,0.5145436074215456,1.4765558665199898,3.7719493710027567,0.5451100573959398,1.5005198402953326,3.742929272307822,2,630,-3.056644997439417,-2.396397377534276,2.9020098694934937,4.848449268999544,0,0,-1,0.015067451936215373,-0.024533307918488862,0.005280086537353612,140,247916.0,69,68.0,0,0,22,0,0,0
