timestamp,elapsed,target_x,target_y,target_z,pos_x,pos_y,pos_z,marker_id,publish_count,err_x_cm,err_y_cm,err_z_cm,err_3d_cm,cmd_lr,cmd_fb,cmd_ud,vel_x_pub,vel_y_pub,vel_z_pub,tello_height_cm,tello_baro_cm,tello_battery,tello_temp_c,tello_pitch,tello_roll,tello_yaw,tello_vgx,tello_vgy,tello_vgz
1778107233.902082,7.152557373046875e-06,0.08867667363551571,1.3851543266271464,3.5638024929030823,0.07278036510827893,1.4043486808489574,3.539392635892629,0,0,1.589630852723678,-1.9194354221810928,2.4409857010453173,3.488491046364061,8,-13,-10,0.0,0.0,0.0,130,250228.00000000003,87,73.5,0,0,0,0,0,0
1778107233.975819,0.07374429702758789,0.08867667363551571,1.3851543266271464,3.5638024929030823,0.13052336905844877,1.359756993228198,3.564800474311984,0,3,-4.184669542293307,2.539733339894834,-0.09979814089016159,4.896086629635526,-22,8,17,0.7830924883929344,-0.6047384658185604,0.3445731266365753,130,250225.0,87,73.5,0,0,0,0,0,0
1778107234.045613,0.143538236618042,0.08867667363551571,1.3851543266271464,3.5638024929030823,0.011442839434677058,1.2355180687650082,3.6161152002886086,0,7,7.723383420083866,14.963625786213818,-5.231270738552629,17.633120587788948,30,21,30,-1.7061729187738626,-1.7800818408047328,0.7352318306967032,130,250229.0,87,73.5,0,0,0,0,0,0
1778107234.116752,0.214677095413208,0.08867667363551571,1.3851543266271464,3.5638024929030823,0.010861399170894417,1.3487360628172214,3.556384999825731,0,10,7.781527446462129,3.6418263809925078,0.7417493077351178,8.623529487678576,4,-21,-30,-0.008173314467368856,1.5915070324393006,-0.8396283195217101,130,250229.0,87,73.5,0,0,0,0,0,0
1778107234.1874602,0.2853853702545166,0.08867667363551571,1.3851543266271464,3.5638024929030823,0.07906887342917654,1.295918652392435,3.5832779161250876,0,14,0.9607800206339168,8.923567423471134,-1.947542322200535,9.184011917786629,-23,10,25,0.9646321369226014,-0.7469763693616482,0.3803361962897923,130,250225.0,87,73.5,0,0,0,0,0,0
1778107234.258344,0.35626912117004395,0.08867667363551571,1.3851543266271464,3.5638024929030823,-0.054904118549533705,1.2964068342735269,3.584834867199283,0,17,14.35807921850494,8.874749235361957,-2.103237429620064,17.00997414815131,30,1,6,-1.8900381293078972,0.006887077430108866,0.021964851663263688,130,250221.99999999997,87,73.5,0,0,0,0,0,0
1778107234.328564,0.42648911476135254,0.08867667363551571,1.3851543266271464,3.5638024929030823,0.013888918098388483,1.457073276326804,3.5258051399162933,0,21,7.4787755537127225,-7.191894969965751,3.799735298678897,11.049589376164896,-19,-23,-30,0.9796787656847206,2.288044100208568,-0.8406398842265909,130,250233.0,87,73.5,0,0,0,0,0,0
1778107234.3996,0.4975252151489258,0.08867667363551571,1.3851543266271464,3.5638024929030823,0.069626908518297,1.4056069865383027,3.5392971763700833,0,25,1.9049765117218702,-2.04526599111563,2.450531653299892,3.7171432402385207,-18,3,16,0.7846431619388146,-0.7245089399291477,0.18993211029571502,130,250233.0,87,73.5,0,0,0,0,0,0
1778107234.469822,0.5677471160888672,0.08867667363551571,1.3851543266271464,3.5638024929030823,0.008656998053697566,1.3500943137605428,3.556251761688235,0,28,8.001967558181814,3.506001286660365,0.7550731214847062,8.768903309025992,26,5,22,-0.86824636827683,-0.7905321848982443,0.2414429841859819,130,250226.00000000003,87,73.5,0,0,0,0,0,0
1778107234.541086,0.6390111446380615,0.08867667363551571,1.3851543266271464,3.5638024929030823,0.012627329449955208,1.3554922981588882,3.570582307439357,0,32,7.60493441855605,2.9662028468258272,-0.6779814536274742,8.191034470109312,3,5,0,0.055712979985644215,0.07574627070962023,0.20109087351452876,130,250223.99999999997,87,73.5,0,0,0,0,0,0
1778107234.6119528,0.7098779678344727,0.08867667363551571,1.3851543266271464,3.5638024929030823,0.06857455084995129,1.4067589424042493,3.539288550262207,0,35,2.010212278556442,-2.160461577710282,2.4513942640875364,3.8363891189010997,-18,-12,-19,0.789469865820504,0.7234223566544374,-0.44158543822992896,130,250223.99999999997,87,73.5,0,0,0,0,0,0
1778107234.6823628,0.7802879810333252,0.08867667363551571,1.3851543266271464,3.5638024929030823,0.06375116898542948,1.4078265327553665,3.5396952986399697,0,39,2.4925504650086223,-2.2672206128220074,2.4107194263112586,4.143026101802182,3,-1,-1,-0.06850420338510047,0.01516247906533061,0.005776854161552786,130,250225.0,87,73.5,0,0,0,0,0,0
1778107234.751303,0.8492281436920166,0.08867667363551571,1.3851543266271464,3.5638024929030823,0.05738461070081023,1.502669382697742,3.495875326878666,0,42,3.1292062934705474,-11.751505607059553,6.792716602441606,13.929494423737484,4,-20,-30,-0.0923490464642327,1.3757270984683188,-0.6356232719996203,130,250219.99999999997,87,73.5,0,0,0,0,0,0
1778107234.820184,0.9181091785430908,0.08867667363551571,1.3851543266271464,3.5638024929030823,0.011460039310753772,1.4535388098418722,3.5118536861458653,0,46,7.721663432476193,-6.838448321472579,5.194880675721691,11.548820149473183,21,2,13,-0.6667230172913154,-0.7132670547429144,0.2319703718410375,130,250219.99999999997,87,73.5,0,0,0,0,0,0
1778107234.891959,0.9898841381072998,0.08867667363551571,1.3851543266271464,3.5638024929030823,0.011059282671965615,1.4548283361728491,3.5112064380634007,0,49,7.76173909635501,-6.967400954570269,5.259605483968155,11.681297860624069,5,-3,-5,-0.005583516051021172,0.01796624252812436,-0.009017742209741202,130,250226.00000000003,87,73.0,0,0,0,0,0,0
1778107234.963051,1.060976266860962,0.08867667363551571,1.3851543266271464,3.5638024929030823,0.06195030367911505,1.4088151150966293,3.5401651597320276,0,53,2.672636995640066,-2.366078846948283,2.3637333171054653,4.281185912201721,-15,8,14,0.7158460704347375,-0.647233693559213,0.40734075876346815,130,250231.0,87,73.0,0,0,0,0,0,0
1778107235.035518,1.1334431171417236,0.08867667363551571,1.3851543266271464,3.5638024929030823,0.009930295171692367,1.460533150173688,3.5256401654809544,0,56,7.874637846382335,-7.537882354654157,3.8162327422127884,11.54959843228415,23,-7,-23,-0.7178455846484167,0.7136785285504356,-0.2004363953283241,130,250231.0,87,73.0,0,0,0,0,0,0
1778107235.1069272,1.2048523426055908,0.08867667363551571,1.3851543266271464,3.5638024929030823,0.0085359451246608,1.3533421496928302,3.556109203626216,0,60,8.01407285108549,3.181217693431626,0.7693289276866189,8.656637723416836,5,10,30,-0.019526189199980934,-1.501080564654718,0.42668209810900304,130,250229.0,87,73.0,0,0,0,0,0,0
1778107235.178298,1.2762231826782227,0.08867667363551571,1.3851543266271464,3.5638024929030823,0.06415112708073178,1.4090413132014814,3.539376394802109,0,63,2.452554655478392,-2.3886986574334967,2.442609810097318,4.205621036008473,-17,-7,-21,0.7792423614388339,0.7804190542239374,-0.23444881420869568,130,250227.0,87,73.0,0,0,0,0,0,0
1778107235.248655,1.3465802669525146,0.08867667363551571,1.3851543266271464,3.5638024929030823,0.008275424479357238,1.453642083011958,3.511800146515242,0,67,8.040124915615847,-6.848775638481164,5.200234638784007,11.772500868692633,25,-13,-20,-0.7941730840285994,0.633920098743681,-0.39194700251305137,130,250223.0,87,73.0,0,0,0,0,0,0
1778107235.317489,1.4154140949249268,0.08867667363551571,1.3851543266271464,3.5638024929030823,0.008275424479357238,1.453642083011958,3.511800146515242,0,70,8.040124915615847,-6.848775638481164,5.200234638784007,11.772500868692633,5,-3,-4,0.0,0.0,0.0,130,250223.0,87,73.0,0,0,0,0,0,0
1778107235.386386,1.4843111038208008,0.08867667363551571,1.3851543266271464,3.5638024929030823,-0.05635284716325622,1.296932323793694,3.569679222380055,0,74,14.502952079877193,8.82220028334524,-0.587672947697282,16.98564677497228,30,21,30,-0.938041762310581,-2.2745509816703926,0.8400811122626115,130,250227.0,87,73.0,0,0,0,0,0,0
1778107235.4562628,1.5541880130767822,0.08867667363551571,1.3851543266271464,3.5638024929030823,0.05348993461332734,1.498245121059612,3.4820491136261467,0,77,3.5186739022188362,-11.30907944324655,8.17533792769356,14.39140347970977,-30,-30,-30,1.5719467696287819,2.8809631022523448,-1.2540638915910165,130,250226.00000000003,87,73.0,0,0,0,0,0,0
1778107235.526866,1.624791145324707,0.08867667363551571,1.3851543266271464,3.5638024929030823,0.0072132431095272495,1.4536558205061936,3.5118049285092146,0,81,8.146343052598844,-6.850149387904714,5.199756439386771,11.845881934080763,21,6,10,-0.6554481370783699,-0.6315484757367681,0.4214517675870178,130,250226.00000000003,87,73.0,0,0,0,0,0,0
1778107235.5994911,1.6974163055419922,0.08867667363551571,1.3851543266271464,3.5638024929030823,0.0022346098855864447,1.4532742678993236,3.5121712184074494,0,85,8.644206374992926,-6.811994127217713,5.163127449563287,12.156621771822584,7,-3,-4,-0.06855245770261123,-0.005253724821101248,0.005043567506618191,130,250226.00000000003,86,73.0,0,0,0,0,0,0
1778107235.671007,1.7689321041107178,0.08867667363551571,1.3851543266271464,3.5638024929030823,0.05617364392545983,1.4007468405730323,3.5260544496550916,0,88,3.250302971005588,-1.55925139458859,3.7748043247990637,5.219663016457665,-15,2,16,0.7542254315742388,-0.7344870417102758,0.19412817203321395,130,250226.00000000003,86,73.0,0,0,0,0,0,0
1778107235.743165,1.841090202331543,0.08867667363551571,1.3851543266271464,3.5638024929030823,0.05617364392545983,1.4007468405730323,3.5260544496550916,0,92,3.250302971005588,-1.55925139458859,3.7748043247990637,5.219663016457665,2,-2,-1,0.0,0.0,0.0,130,250219.0,86,73.0,0,0,0,0,0,0
1778107235.812335,1.9102602005004883,0.08867667363551571,1.3851543266271464,3.5638024929030823,0.004876258044310095,1.3446935183150694,3.5419872696112997,0,95,8.380041559120562,4.046080831207699,2.1815223291782537,9.557976056569585,24,4,22,-0.7416132317346266,-0.8103704458839887,0.23034292869710277,130,250225.0,86,72.5,0,0,0,0,0,0
1778107235.883039,1.980964183807373,0.08867667363551571,1.3851543266271464,3.5638024929030823,0.05617364392545983,1.4007468405730323,3.5260544496550916,0,99,3.250302971005588,-1.55925139458859,3.7748043247990637,5.219663016457665,-15,-8,-20,0.7255232800462981,0.7927887459277662,-0.22534543615531558,130,250225.0,86,72.5,0,0,0,0,0,0
1778107235.954431,2.052356243133545,0.08867667363551571,1.3851543266271464,3.5638024929030823,0.0023831929625642892,1.446627593419969,3.497878220842337,0,102,8.629348067295142,-6.147326679282261,6.592427206074536,12.478596468983906,25,-14,-20,-0.7534514548339454,0.6426590475184278,-0.394668946080191,130,250223.99999999997,86,72.5,0,0,0,0,0,0
1778107236.02547,2.1233952045440674,0.08867667363551571,1.3851543266271464,3.5638024929030823,0.009426178512339001,1.3450414417300043,3.541376675775532,0,106,7.9250495123176705,4.011288489714215,2.2425817127550207,9.161114444148351,3,13,30,0.09914257486218665,-1.4300061497649876,0.6123182837911262,130,250223.99999999997,86,72.5,0,0,0,0,0,0
1778107236.0956821,2.1936073303222656,0.08867667363551571,1.3851543266271464,3.5638024929030823,0.006053874674571914,1.3459103383235709,3.5419679368100248,0,109,8.262279896094379,3.924398830357556,2.183455609305751,9.403916931732535,7,-1,2,-0.048030219857183566,0.012375306742762033,0.008421067272062144,130,250223.99999999997,86,72.5,0,0,0,0,0,0
1778107236.1678789,2.2658040523529053,0.08867667363551571,1.3851543266271464,3.5638024929030823,5.8730885577772465e-05,1.2306753885157642,3.5865687716089014,0,113,8.861794274993793,15.447893811138226,-2.2766278705819154,17.954159836473156,8,16,30,-0.08303900260803884,-1.5961244024195724,0.6177681416054938,130,250217.99999999997,86,72.5,0,0,0,0,0,0
1778107236.238888,2.33681321144104,0.08867667363551571,1.3851543266271464,3.5638024929030823,0.006573959605435051,1.3424413786278486,3.527841023737584,0,116,8.210271403008065,4.271294799929781,3.596146916549836,9.928987280904842,3,-23,-30,0.09175194867144873,1.5739658312720382,-0.827044688677782,130,250219.0,86,72.5,0,0,0,0,0,0
1778107236.3098161,2.4077413082122803,0.08867667363551571,1.3851543266271464,3.5638024929030823,-0.054778719291373616,1.29221557318404,3.5558524745726237,0,120,14.345539292688933,9.293875344310653,0.7950018330458608,17.111476979741227,30,8,24,-0.8649982403261921,-0.7081228417251733,0.3949274280597611,130,250219.0,86,72.5,0,0,0,0,0,0
1778107236.379974,2.4778990745544434,0.08867667363551571,1.3851543266271464,3.5638024929030823,0.002234266880943862,1.3455729466764752,3.5278438493399578,0,124,8.644240675457185,3.9581379950671236,3.5958643563124504,10.164644298361887,-13,-12,-16,0.8126396997056915,0.7605340972830948,-0.39922344585582115,130,250230.00000000003,86,72.5,0,0,0,0,0,0
1778107236.449794,2.5477192401885986,0.08867667363551571,1.3851543266271464,3.5638024929030823,0.05830393372951673,1.4878886410993286,3.454526274242396,0,127,3.037273990599898,-10.273431447218218,10.927621866068638,15.30298489323074,-17,-30,-30,0.8030583476751906,2.0383179147491752,-1.0500916809870142,130,250227.0,86,72.5,0,0,0,0,0,0
1778107236.519924,2.617849111557007,0.08867667363551571,1.3851543266271464,3.5638024929030823,0.007844707292737204,1.347508148979299,3.5278301328084445,0,131,8.08319663427785,3.764617764784739,3.597236009463778,9.615119429893552,24,23,30,-0.7195111790766834,-2.001721796730224,1.0452587055374267,130,250227.0,86,72.5,0,0,0,0,0,0
1778107236.5890539,2.686979055404663,0.08867667363551571,1.3851543266271464,3.5638024929030823,0.00877340857973527,1.4471987312907015,3.4842350039783123,0,134,7.990326505578044,-6.20444046635551,7.956748892476995,12.870518719314566,5,-21,-30,0.013434139177729894,1.4420752681514344,-0.6306258388724295,130,250232.00000000003,86,72.5,0,0,0,0,0,0
1778107236.659729,2.7576541900634766,0.08867667363551571,1.3851543266271464,3.5638024929030823,-0.03981057800212914,1.4921428402135608,3.4547643736760585,0,138,12.848725163764485,-10.698851358641438,10.903811922702378,19.961169133443185,26,-17,-23,-0.6874268696678852,0.6359253383786027,-0.4169872536433678,130,250223.99999999997,86,72.5,0,0,0,0,0,0
1778107236.730978,2.8289031982421875,0.08867667363551571,1.3851543266271464,3.5638024929030823,0.009186459294734437,1.3440176632079366,3.513910413851242,0,141,7.9490214340781264,4.113666341920985,4.989207905184045,10.247018495798573,-10,17,30,0.6876872892597514,-2.078978792716496,0.8301314177852098,130,250230.00000000003,86,72.5,0,0,0,0,0,0
1778107236.8017652,2.8996903896331787,0.08867667363551571,1.3851543266271464,3.5638024929030823,0.059086498399196045,1.3990091627009469,3.498084320611524,0,145,2.959017523631966,-1.3854836073800447,6.57181722915583,7.339218706709133,-14,-10,-20,0.7049303429604946,0.7768566376544901,-0.2235728375251227,130,250230.00000000003,86,72.5,0,0,0,0,0,0
1778107236.872546,2.970471143722534,0.08867667363551571,1.3851543266271464,3.5638024929030823,0.011039857840815102,1.5304838496328954,3.427906818034865,0,148,7.763681579470061,-14.532952300574898,13.58956748682174,21.357850985458963,23,-30,-30,-0.678809390724004,1.857492034712875,-0.9914771816087916,130,250227.0,86,72.5,0,0,0,0,0,0
1778107236.941908,3.0398330688476562,0.08867667363551571,1.3851543266271464,3.5638024929030823,0.011139166761588427,1.4495088967946836,3.4842665259018135,0,152,7.753750687392729,-6.435457016753721,7.953596700126875,12.837268292163914,6,14,24,0.0014317497761802528,-1.1674265483857453,0.8125453231766752,130,250239.0,86,72.5,0,0,0,0,0,0
1778107237.012622,3.1105473041534424,0.08867667363551571,1.3851543266271464,3.5638024929030823,-0.046987825068636004,1.2952306275400218,3.5409416608471154,0,155,13.56644987041517,8.992369908712462,2.2860832055966895,16.435858817978342,30,17,30,-0.8219984502253147,-2.1817144537803994,0.8014671261058586,130,250239.0,86,72.5,0,0,0,0,0,0
1778107237.083754,3.1816792488098145,0.08867667363551571,1.3851543266271464,3.5638024929030823,0.007420346599038554,1.4448518205429917,3.4705575529043475,0,159,8.125632703647716,-5.969749391584522,9.324493999873473,13.733535705949487,-12,-30,-30,0.7648908226889116,2.1034317805560883,-0.9894866263362133,130,250234.0,86,72.5,0,0,0,0,0,0
1778107237.1541069,3.2520320415496826,0.08867667363551571,1.3851543266271464,3.5638024929030823,0.06150028105536715,1.4923613944989795,3.454465396501868,0,162,2.7176392580148554,-10.72070678718331,10.933709640121414,15.55201349176195,-15,-13,-24,0.7686963423938405,0.6753047335541622,-0.22873514718855156,130,250229.0,86,72.5,0,0,0,0,0,0
1778107237.2242508,3.322175979614258,0.08867667363551571,1.3851543266271464,3.5638024929030823,0.012293651632949433,1.4494578570493264,3.48430116231588,0,166,7.638302200256628,-6.4303530422179955,7.95013305872021,12.763138971325333,23,4,10,-0.7015093646027917,-0.611649967672983,0.42535059532222075,130,250229.0,86,72.5,0,0,0,0,0,0
1778107237.294006,3.3919312953948975,0.08867667363551571,1.3851543266271464,3.5638024929030823,0.0571432923599395,1.4862015055807567,3.441684368456937,0,169,3.1533381275576207,-10.104717895361027,12.211812444614534,16.16097856795746,-12,-23,-20,0.6429566008708104,0.5267505152865838,-0.6109468989139231,130,250237.0,86,72.5,0,1,0,0,0,0
1778107237.365938,3.4638631343841553,0.08867667363551571,1.3851543266271464,3.5638024929030823,0.013225405743673114,1.3465345544381964,3.5140078438916076,0,173,7.545126789184259,3.8619772188950074,4.979464901147468,9.830507464311776,21,20,30,-0.610548642066902,-1.9416568949866273,1.0054445493249704,130,250235.0,86,72.5,0,0,0,0,0,0
1778107237.4359481,3.5338733196258545,0.08867667363551571,1.3851543266271464,3.5638024929030823,-0.047160757048140226,1.297015588724371,3.5417463715308983,0,176,13.583743068365594,8.813873790277537,2.2056121372183934,16.342189933976314,30,7,23,-0.8625339667841122,-0.7073108797365528,0.39620703107023375,130,250235.0,86,72.5,0,0,0,0,0,0
1778107237.506218,3.6041431427001953,0.08867667363551571,1.3851543266271464,3.5638024929030823,0.06488634027546387,1.4945923270001908,3.4544975533629887,0,180,2.3790333360051834,-10.943800037304442,10.930493954009357,15.649353243791378,-30,-30,-30,1.594526532464237,2.8116868611835932,-1.2416256986388903,130,250238.0,86,72.5,0,0,0,0,0,0
1778107237.576546,3.674471139907837,0.08867667363551571,1.3851543266271464,3.5638024929030823,0.01596723109832035,1.451677076953195,3.4844676053880046,0,183,7.270944253719536,-6.65227503260486,7.933488751507767,12.65146778917037,23,4,10,-0.6955851313767846,-0.6102157284571839,0.4261468151372219,130,250232.00000000003,86,72.5,0,0,0,0,0,0
1778107237.647535,3.745460271835327,0.08867667363551571,1.3851543266271464,3.5638024929030823,0.06772864421332536,1.4028094222772078,3.497427680337951,0,187,2.0948029422190344,-1.7655095650061403,6.637481256513134,7.1806253781562,-14,0,15,0.7291455989048463,-0.6883821980793007,0.18256421226821057,130,250227.0,86,72.5,0,0,0,0,0,0
1778107237.717777,3.815702199935913,0.08867667363551571,1.3851543266271464,3.5638024929030823,0.013298246312936792,1.4524460274846969,3.484899809544471,0,190,7.537842732257892,-6.729170085755043,7.890268335861128,12.820184768994805,25,-10,-22,-0.7748989723409162,0.7066520887127381,-0.1783531735566843,130,250227.0,86,72.5,0,0,0,0,0,0
1778107237.788626,3.8865511417388916,0.08867667363551571,1.3851543266271464,3.5638024929030823,0.012926546275987303,1.353038669076823,3.52861873005211,0,194,7.575012735952841,3.2115657550323418,3.5183762850972133,8.948404563511794,6,12,30,-0.005246373869395789,-1.4030888236032162,0.6170723146326681,130,250238.0,86,72.5,0,0,0,0,0,0
1778107237.8582988,3.956223964691162,0.08867667363551571,1.3851543266271464,3.5638024929030823,0.06902458506626848,1.5004999260099607,3.468474934667711,0,197,1.965208856924723,-11.53455993828143,9.532755823537142,15.092433614640271,-16,-28,-30,0.8051638560520397,2.1164817311070676,-0.8632317858801402,130,250231.0,86,73.0,0,0,0,0,0,0
1778107237.929066,4.026991128921509,0.08867667363551571,1.3851543266271464,3.5638024929030823,0.12305600062049858,1.4549172445604275,3.479493514850517,0,201,-3.4379326984982876,-6.976291793328104,8.43089780525652,11.470312385795776,-18,-2,10,0.7635096890184575,-0.6441219165029972,0.15570187533501845,130,250231.0,86,73.0,0,0,0,0,0,0
1778107238.00108,4.099005222320557,0.08867667363551571,1.3851543266271464,3.5638024929030823,0.07604156244600337,1.4081538158863682,3.511482837281576,0,205,1.263511118951234,-2.2999489259221795,5.23196556215062,5.853177688494861,19,6,13,-0.6528505179392681,-0.6493649571470901,0.44420919463358766,130,250228.00000000003,86,73.0,0,0,0,0,0,0
1778107238.072751,4.170676231384277,0.08867667363551571,1.3851543266271464,3.5638024929030823,0.07345992723523963,1.4084008438349827,3.511658020628702,0,208,1.521674640027608,-2.3246517207836215,5.214447227438024,5.908465047775225,3,-4,-2,-0.0360206343469851,0.0034466927679892762,0.0024442706948664787,130,250227.0,86,73.0,0,0,0,0,0,0
1778107238.144002,4.241927146911621,0.08867667363551571,1.3851543266271464,3.5638024929030823,0.07915563423410693,1.4079679618542644,3.512088426239893,0,212,0.9521039401408776,-2.281363522711799,5.171406666318923,5.73189046860105,0,-4,-2,0.0799387201794127,-0.00607545850483983,0.006040702887892491,130,250227.0,86,73.0,0,0,0,0,0,0
1778107238.214869,4.312794208526611,0.08867667363551571,1.3851543266271464,3.5638024929030823,0.026306524539191738,1.3588098589252988,3.5430284361880173,0,215,6.237014909632397,2.634446770184762,2.0774056715064937,7.082109791010098,24,7,18,-0.7457499787706201,-0.6936664482582044,0.4365922509418631,130,250239.0,86,73.0,0,0,0,0,0,0
1778107238.2868721,4.3847973346710205,0.08867667363551571,1.3851543266271464,3.5638024929030823,0.08120171274019357,1.4090288209732824,3.5118292233358046,0,219,0.7474960895322138,-2.3874494346135977,5.197326956727766,5.768090906169202,-16,-15,-19,0.7624000670596477,0.6974553014165614,-0.43330358725869356,130,250239.0,86,73.0,0,0,0,0,0,0
1778107238.358376,4.456301212310791,0.08867667363551571,1.3851543266271464,3.5638024929030823,0.07102280403433302,1.5014340111589641,3.46930728590134,0,222,1.765386960118269,-11.627968453181769,9.449520700174219,15.08707005783983,6,-22,-30,-0.14235463924265604,1.292310196814919,-0.5946801605457799,130,250239.0,86,73.0,0,0,0,0,0,0
1778107238.428896,4.526821136474609,0.08867667363551571,1.3851543266271464,3.5638024929030823,0.08297198865529835,1.4075842970085444,3.512416506865223,0,226,0.5704684980217354,-2.2429970381397935,5.1385986037859155,5.635748897100511,-1,10,30,0.1694440934622573,-1.330825511559061,0.6113055491060932,130,250240.0,86,73.0,0,0,0,0,0,0
1778107238.50004,4.597965240478516,0.08867667363551571,1.3851543266271464,3.5638024929030823,0.08373519422319677,1.4087512613756261,3.512070477806622,0,230,0.49414794123189415,-2.359693474847968,5.1732015096460415,5.707394269057279,2,-4,-2,0.010727601093359853,0.016402826114974657,-0.004863777026164548,130,250237.0,86,73.0,0,0,0,0,0,0
1778107238.57127,4.669195175170898,0.08867667363551571,1.3851543266271464,3.5638024929030823,0.11791102358707568,1.54960390411413,3.4515642979140884,0,233,-2.9234349951559975,-16.444957748698364,11.22381949889939,20.123549181773363,-11,-29,-30,0.47979588232773734,1.9774360786205585,-0.8494487627124541,130,250239.0,85,73.0,0,0,0,0,0,0
1778107238.642758,4.740683078765869,0.08867667363551571,1.3851543266271464,3.5638024929030823,0.15086463479050216,1.3628085770308274,3.535529802494901,0,237,-6.2187961154986455,2.2345749596319076,2.8272690408181145,7.1875030856009765,-13,25,30,0.4609676539143165,-2.6129641196590367,1.1745414309046807,130,250239.0,85,73.0,0,0,0,0,0,0
1778107238.713944,4.811869144439697,0.08867667363551571,1.3851543266271464,3.5638024929030823,0.07936061400460899,1.5007072607790342,3.4694490639074225,0,240,0.9316059630906717,-11.555293415188771,9.43534289956598,14.947186732424308,27,-30,-30,-1.004466535817865,1.937158381249125,-0.9282819321727669,130,250230.00000000003,85,73.0,0,0,0,0,0,0
1778107238.78543,4.883355140686035,0.08867667363551571,1.3851543266271464,3.5638024929030823,0.0862736597691308,1.408430854824743,3.5123554414474354,0,244,0.24030138663849038,-2.3276528197596624,5.1447051455646875,5.651876099186469,0,10,29,0.09670489504965048,-1.2908319223293787,0.6002067508741048,130,250233.0,85,73.0,0,0,0,0,0,0
1778107238.8549361,4.952861309051514,0.08867667363551571,1.3851543266271464,3.5638024929030823,0.08754487754556496,1.4082548947400504,3.5125141018107606,0,247,0.11317960899507457,-2.310056811290395,5.128839109232164,5.626203222748962,1,-4,-2,0.018289280021160412,-0.002531575093701555,0.0022826803297653427,130,250233.0,85,73.0,0,0,0,0,0,0
1778107238.925518,5.023443222045898,0.08867667363551571,1.3851543266271464,3.5638024929030823,0.0880772779374735,1.4069237272478903,3.5130060763348556,0,251,0.05993956980422099,-2.176940062074384,5.079641656822664,5.526791125745647,1,-4,-2,0.00754301448234892,-0.01885989534267816,0.0069702633893492716,130,250232.00000000003,85,73.0,0,-1,0,0,0,0
1778107238.995849,5.093774080276489,0.08867667363551571,1.3851543266271464,3.5638024929030823,0.1501820526137181,1.3643062988864898,3.536391543028591,0,254,-6.150537897820238,2.084802774065664,2.741094987449122,7.0490510545387295,-23,4,15,0.8830373500153273,-0.6059563246288352,0.3325064883619432,130,250229.0,85,73.0,0,0,0,0,0,0
1778107239.0671842,5.165109395980835,0.08867667363551571,1.3851543266271464,3.5638024929030823,0.08881756629794038,1.4080675815368235,3.5126840618765094,0,258,-0.014089266242467424,-2.2913254909677105,5.1118431026572875,5.6019024374909066,23,-13,-17,-0.860225902274088,0.6134588768304537,-0.33233863084505016,130,250229.0,85,73.0,0,0,0,0,0,0
1778107239.138766,5.236691236495972,0.08867667363551571,1.3851543266271464,3.5638024929030823,0.08881756629794038,1.4080675815368235,3.5126840618765094,0,261,-0.014089266242467424,-2.2913254909677105,5.1118431026572875,5.6019024374909066,2,-5,-2,0.0,0.0,0.0,130,250233.0,85,73.0,0,0,0,0,0,0
1778107239.209019,5.306944131851196,0.08867667363551571,1.3851543266271464,3.5638024929030823,0.13275516113235614,1.4627569257067892,3.494088627687376,0,265,-4.407848749684043,-7.760259907964273,6.971386521570633,11.324795559849438,-16,-12,-26,0.6254204130982934,0.778463918012718,-0.264692780206539,130,250232.00000000003,85,73.0,0,0,0,0,0,0
1778107239.2779672,5.375892400741577,0.08867667363551571,1.3851543266271464,3.5638024929030823,0.08905658000384908,1.4093906005387127,3.512670830409354,0,268,-0.0379906368333377,-2.423627391156624,5.113166249372814,5.6586113237592945,17,1,16,-0.633787937416998,-0.774005294504526,0.26950934404925486,130,250239.0,85,73.0,0,0,0,0,0,0
1778107239.348514,5.446439266204834,0.08867667363551571,1.3851543266271464,3.5638024929030823,0.1329304270963651,1.4640159766069827,3.4940738458843437,0,272,-4.425375346084939,-7.886164997983625,6.97286470187386,11.419123761471232,-16,-13,-26,0.6219106519391281,0.7743132981113204,-0.26361177641119143,130,250239.0,85,73.0,0,0,0,0,0,0
1778107239.4156091,5.513534307479858,0.08867667363551571,1.3851543266271464,3.5638024929030823,0.09074254184917736,1.4164375322827434,3.5268410804329657,0,275,-0.20658682136616563,-3.1283205655596946,3.696141247011653,4.846702775447114,17,7,13,-0.6287779908243657,-0.7091201290005017,0.48837043581668393,130,250236.0,85,73.0,0,0,0,0,0,0
1778107239.48338,5.581305265426636,0.08867667363551571,1.3851543266271464,3.5638024929030823,0.0754787952076274,1.5082692766673,3.483826188281757,0,279,1.3197878427888305,-12.31149500401536,7.997630462132532,14.740313503881069,8,-22,-30,-0.22522548159252906,1.3550309331126027,-0.6347098145637802,130,250239.0,85,73.0,0,0,0,0,0,0
1778107239.5518541,5.649779319763184,0.08867667363551571,1.3851543266271464,3.5638024929030823,0.08351143623317502,1.4155288074462793,3.527078464327431,0,282,0.5165237402340692,-3.0374480819132854,3.6724028575651158,4.793686511735673,0,11,30,0.11730926558061586,-1.3543884631864243,0.6316593411146735,130,250239.0,85,73.0,0,0,0,0,0,0
1778107239.622512,5.720437288284302,0.08867667363551571,1.3851543266271464,3.5638024929030823,0.08943875032036394,1.4166175168309487,3.5266746114055856,0,286,-0.07620766848482341,-3.1463190203802283,3.7127881497496684,4.867229893036065,0,-4,-3,0.08388741158638573,0.015408161421227903,-0.005715603353708416,130,250244.99999999997,85,73.0,0,0,0,0,0,0
1778107239.6925561,5.790481328964233,0.08867667363551571,1.3851543266271464,3.5638024929030823,0.03362492020273407,1.3605449351046752,3.543925939199875,0,289,5.505175343278164,2.4609391522471213,1.987655370320729,6.349326810179601,25,2,20,-0.796839096885813,-0.8005332242681266,0.2462925843059206,130,250246.0,85,73.0,0,0,0,0,0,0
1778107239.76129,5.859215259552002,0.08867667363551571,1.3851543266271464,3.5638024929030823,0.0855040099205779,1.4165969497876811,3.526058077350574,0,293,0.31726637149378095,-3.14426231605347,3.7744415552508404,4.922748471803037,-16,-11,-23,0.7547813616100095,0.8154926424792672,-0.25995693388267777,130,250246.0,85,73.0,0,0,0,0,0,0
1778107239.832315,5.930240154266357,0.08867667363551571,1.3851543266271464,3.5638024929030823,0.08092330468204512,1.415860159285502,3.526766535242645,0,296,0.7753368953470591,-3.070583265835558,3.70359576604371,4.873012465813388,4,-4,-3,-0.06449436154682443,-0.010373693690674342,0.009974782714153165,130,250241.0,85,73.0,0,0,0,0,0,0
1778107239.904931,6.002856254577637,0.08867667363551571,1.3851543266271464,3.5638024929030823,0.08683582892571642,1.4169449966452259,3.52637470384001,0,300,0.1840844709799283,-3.1790670018079448,3.7427789063072314,4.914137567868697,0,-4,-4,0.0814216712041328,0.014939350296608556,-0.005395930116813913,130,250234.0,85,73.0,0,0,0,0,0,0
1778107239.9748511,6.0727763175964355,0.08867667363551571,1.3851543266271464,3.5638024929030823,0.07981204461159144,1.4173534949948547,3.526615838227633,0,303,0.8864629023924264,-3.219916836770831,3.7186654675449127,4.998215058653369,5,-4,-3,-0.10045449061218029,0.005842362434928458,0.0034487152501329367,130,250234.0,85,73.0,0,0,0,0,0,0
1778107240.0446,6.1425251960754395,0.08867667363551571,1.3851543266271464,3.5638024929030823,0.08553658163826892,1.4170924955404267,3.5262412803000935,0,307,0.3140091997246783,-3.1938168913280274,3.7561212602988725,4.940396242702922,0,-4,-3,0.08207353510925204,-0.003741987830049509,-0.005370092476144247,130,250248.99999999997,85,73.0,0,0,0,0,0,0
1778107240.1139789,6.211904048919678,0.08867667363551571,1.3851543266271464,3.5638024929030823,0.0724184793901516,1.5925613156765528,3.4397199452698533,0,310,1.6258194245364108,-20.740698904940636,12.408254763322901,24.223638581726963,7,-30,-30,-0.18907926133585165,2.5291398306926354,-1.2470851200795783,130,250241.0,85,73.0,0,0,0,0,0,0
1778107240.1849952,6.2829203605651855,0.08867667363551571,1.3851543266271464,3.5638024929030823,0.12685049540523205,1.464547901284984,3.493552353409556,0,314,-3.817382176971634,-7.9393574657837584,7.025013949352621,11.267503034974338,-19,12,30,0.7664720224670185,-1.802591706403642,0.7580287808865389,130,250246.99999999997,85,73.0,0,0,0,0,0,0
1778107240.256564,6.354489088058472,0.08867667363551571,1.3851543266271464,3.5638024929030823,0.028896276843215787,1.459853423485852,3.499606634522719,0,317,5.978039679229992,-7.469909685870557,6.419585838036346,11.521614099310383,30,-4,-5,-1.3686734694452316,-0.06559398166709618,0.0845939466190831,130,250246.0,85,73.0,0,0,0,0,0,0
1778107240.327625,6.425550222396851,0.08867667363551571,1.3851543266271464,3.5638024929030823,0.07568029988816258,1.5100926405016826,3.482195553321444,0,321,1.299637374735313,-12.493831387453614,8.160693958163812,14.979379357060871,-13,-13,-28,0.6583630205249839,0.7069858577911444,-0.245015525904309,130,250246.0,85,73.0,0,0,0,0,0,0
1778107240.398187,6.496112108230591,0.08867667363551571,1.3851543266271464,3.5638024929030823,0.07576292874491891,1.416394583697815,3.5262739542167285,0,324,1.2913744890596797,-3.1240257070668465,3.752853868635375,5.050851101422428,2,10,29,0.0011710125910045274,-1.3278848162397685,0.6246771946988924,130,250242.99999999997,85,73.0,0,0,0,0,0,0
1778107240.468906,6.566831111907959,0.08867667363551571,1.3851543266271464,3.5638024929030823,0.07316897138282745,1.4150674917033887,3.5266112311615916,0,328,1.5507702252688258,-2.991316507624231,3.7191261741490678,5.018442212440653,3,-4,-3,-0.03667977809650043,-0.01876570547402745,0.004769254759325903,130,250237.0,85,73.0,0,0,0,0,0,0
1778107240.540226,6.638151168823242,0.08867667363551571,1.3851543266271464,3.5638024929030823,0.07309588033774309,1.5079213093173536,3.481986508128757,0,332,1.5580793297772622,-12.276698269020713,8.181598477432539,14.835210993861253,3,-23,-30,-0.0010248315585499965,1.3019313448425915,-0.625696682853769,130,250237.0,85,73.0,0,0,0,0,0,0
1778107240.610734,6.7086591720581055,0.08867667363551571,1.3851543266271464,3.5638024929030823,0.07295675831191864,1.4139594779839069,3.5261079725983167,0,335,1.5719915323597067,-2.880515135676043,3.769452030476561,4.997728827650942,3,10,29,-0.0019731380757022367,-1.3326406510259319,0.6257653379090949,130,250248.99999999997,85,73.0,0,0,0,0,0,0
1778107240.6795259,6.777451038360596,0.08867667363551571,1.3851543266271464,3.5638024929030823,0.02342271548823625,1.357777593880109,3.5427447590469843,0,339,6.525395814727945,2.7376732747037336,2.1057733856097993,7.383083844128997,24,2,20,-0.7200566794607995,-0.8166937041183894,0.24184234769140683,130,250246.99999999997,85,73.0,0,0,0,0,0,0
1778107240.7487192,6.846644401550293,0.08867667363551571,1.3851543266271464,3.5638024929030823,0.07753421941212713,1.4197183030530134,3.53951831686495,0,342,1.114245422338858,-3.456397642586695,2.4284176038132266,4.368688542731324,-16,-5,-26,0.7820331521614482,0.8951828082570659,-0.046629359136494214,130,250246.99999999997,85,73.0,0,0,0,0,0,0
1778107240.819218,6.917143106460571,0.08867667363551571,1.3851543266271464,3.5638024929030823,0.07159512878407277,1.412749588921753,3.5260388359784076,0,345,1.7081544851442934,-2.7595262294606515,3.776365692467465,4.9793287298033615,5,-9,-1,-0.0842439678234212,-0.09884882481358086,-0.1912018228377008,130,250240.0,85,73.0,0,0,0,0,0,0
1778107240.888101,6.986026287078857,0.08867667363551571,1.3851543266271464,3.5638024929030823,0.10986294480857216,1.5531491950382157,3.4648502243426074,0,349,-2.1186271173056452,-16.799486841106926,9.89522685604749,19.61190591246427,-12,-30,-30,0.5555465888916951,2.0382276900725955,-0.8882953877358671,130,250248.99999999997,85,73.0,0,0,0,0,0,0
1778107240.958698,7.056623220443726,0.08867667363551571,1.3851543266271464,3.5638024929030823,0.020099608883379107,1.4622210758627419,3.5123559489658023,0,352,6.85770647521366,-7.706674923559542,5.144654393727999,11.52772507082441,30,10,24,-1.2714905824770972,-1.287989645464165,0.672914847131811,130,250248.99999999997,85,73.0,0,0,0,0,0,0
1778107241.029686,7.12761116027832,0.08867667363551571,1.3851543266271464,3.5638024929030823,0.07025998667907397,1.4115430054866631,3.525979798189198,0,356,1.8416686956441732,-2.638867885951668,3.782269471388444,4.965977210803505,-14,0,13,0.7066042191472373,-0.7138969026874291,0.19191779977190157,130,250238.0,85,73.0,0,0,0,0,0,0
1778107241.099658,7.197583198547363,0.08867667363551571,1.3851543266271464,3.5638024929030823,-0.0356181627823605,1.4173705027374335,3.540651393496806,0,360,12.42948364178762,-3.2216176110287043,2.3151099406276465,13.047245597073326,30,1,-6,-1.5131494248364221,0.08328322848569306,0.20967797523913184,130,250242.99999999997,85,73.0,0,0,0,0,0,0
1778107241.171514,7.269439220428467,0.08867667363551571,1.3851543266271464,3.5638024929030823,0.07477440810607326,1.4160665683905114,3.539405739725194,0,363,1.3902265529442446,-3.0912241763364934,2.4396753177888364,4.176171983181072,-30,-4,-3,1.5363022889173397,-0.018146486721456166,-0.017335412384406952,130,250242.99999999997,85,73.0,0,0,0,0,0,0
1778107241.241112,7.339037179946899,0.08867667363551571,1.3851543266271464,3.5638024929030823,0.0734936689248684,1.414889677140152,3.5393618892064826,0,367,1.5183004710647305,-2.9735350513005576,2.4440603696599617,4.137702032806469,3,-4,-3,-0.01840196451256108,-0.016909852796009987,-0.0006300546598587996,130,250242.99999999997,85,73.0,0,0,0,0,0,0
1778107241.311337,7.409262180328369,0.08867667363551571,1.3851543266271464,3.5638024929030823,0.013022716371417444,1.3585869535140804,3.556457296600427,0,370,7.565395726409826,2.6567373113066006,0.7345196302655399,8.051893238593898,28,2,20,-0.8611029152718586,-0.8017475730897708,0.24343762621687623,130,250244.0,85,73.0,0,0,0,0,0,0
1778107241.379444,7.477369070053101,0.08867667363551571,1.3851543266271464,3.5638024929030823,0.017266102392182264,1.4576922487646118,3.512161321243135,0,373,7.1410571243333445,-7.253792213746535,5.164117165994719,11.41403979480198,5,-22,-30,0.062304798206398386,1.4551434612722236,-0.6503890507454304,130,250244.0,85,73.0,0,0,0,0,0,0
1778107241.4463649,7.544290065765381,0.08867667363551571,1.3851543266271464,3.5638024929030823,0.06849218491795767,1.4148514333792734,3.539735052935666,0,377,2.0184488717558042,-2.9697106752127,2.4067439967416338,4.322699851738083,-15,5,11,0.7654710151955376,-0.6401700233141762,0.4120340918279398,130,250241.0,85,73.0,0,0,0,0,0,0
1778107241.5141902,7.612115383148193,0.08867667363551571,1.3851543266271464,3.5638024929030823,0.016922395503337732,1.3627307854845199,3.5707705625694026,0,380,7.175427813217797,2.242354114262657,-0.6968069666320353,7.5498646494620765,25,8,18,-0.7603324452365651,-0.768454168825775,0.4575800133535586,130,250234.0,84,73.0,0,-1,0,0,0,0
1778107241.581865,7.679790258407593,0.08867667363551571,1.3851543266271464,3.5638024929030823,0.012118631340371864,1.362413903947456,3.5710685362457903,0,384,7.655804229514384,2.274042267969034,-0.7266043342708084,8.019386541110313,8,-2,0,-0.07098297772331202,-0.004682410360553439,0.004403017741009352,130,250234.0,84,73.0,0,-1,0,0,0,0
1778107241.650597,7.7485222816467285,0.08867667363551571,1.3851543266271464,3.5638024929030823,0.07101521969332907,1.4125494843808908,3.539303492765008,0,387,1.7661453942186642,-2.739515775374435,2.4499000138074045,4.077526985158861,-17,-15,-22,0.8569017115652391,0.7294355392245705,-0.4621578411894507,130,250236.0,84,73.0,0,0,0,0,0,0
1778107241.718373,7.816298246383667,0.08867667363551571,1.3851543266271464,3.5638024929030823,0.06606924465410165,1.4124854426694862,3.539694695291807,0,391,2.260742898141406,-2.733111604233973,2.410779761127513,4.288673052280534,5,-4,-4,-0.07297535429299201,-0.000944902985198133,0.005771994958940194,130,250238.0,84,73.0,0,0,0,0,0,0
1778107241.789099,7.887024164199829,0.08867667363551571,1.3851543266271464,3.5638024929030823,0.014205271994808425,1.3603639452049103,3.5706279111210635,0,394,7.447140164070729,2.4790381422236107,-0.6825418217981216,7.878539843931639,25,8,17,-0.7333092911442063,-0.7369504571160922,0.4373674712806281,130,250238.0,84,73.0,0,0,0,0,0,0
1778107241.860505,7.958430290222168,0.08867667363551571,1.3851543266271464,3.5638024929030823,0.01762319610589142,1.3594111150941859,3.570010528373664,0,398,7.105347752962429,2.5743211532960553,-0.6208035470581574,7.582776083656682,5,-2,0,0.04786597875389185,-0.013343814652910305,-0.008646075369030639,130,250236.0,84,73.0,0,0,0,0,0,0
1778107241.932462,8.030387163162231,0.08867667363551571,1.3851543266271464,3.5638024929030823,0.06977926194769887,1.4102011386477185,3.5392907824801916,0,401,1.8897411687816834,-2.504681202057202,2.4511710422890687,3.9815561138182582,-14,-15,-21,0.7248239634489242,0.705839782613096,-0.4269188562301796,130,250233.0,84,73.5,0,0,0,0,0,0
1778107242.005651,8.103576183319092,0.08867667363551571,1.3851543266271464,3.5638024929030823,0.009359581855662056,1.4609400310215142,3.525763905392985,0,405,7.931709177985365,-7.5785704394367714,3.8038587510097255,11.611032761441825,28,-9,-25,-0.8255292933631848,0.6932582546541949,-0.18482112560347796,130,250232.00000000003,84,73.5,0,0,0,0,0,0
1778107242.07634,8.174265146255493,0.08867667363551571,1.3851543266271464,3.5638024929030823,0.012801805083693543,1.3579388535508494,3.5705763615412693,0,408,7.587486855182217,2.7215473076297014,-0.6773868638187075,8.089229227095963,6,13,30,0.048695342031378284,-1.457104096481576,0.6339385143986616,130,250232.00000000003,84,73.5,0,0,0,0,0,0
1778107242.146271,8.24419617652893,0.08867667363551571,1.3851543266271464,3.5638024929030823,0.012801805083693543,1.3579388535508494,3.5705763615412693,0,412,7.587486855182217,2.7215473076297014,-0.6773868638187075,8.089229227095963,7,-2,0,0.0,0.0,0.0,130,250231.0,84,73.5,0,0,0,0,0,0
1778107242.216963,8.31488823890686,0.08867667363551571,1.3851543266271464,3.5638024929030823,0.06400498189194188,1.510203223489058,3.5090482399699594,0,415,2.4671691743573825,-12.504889686191166,5.475425293312286,13.872255474195732,-13,-27,-30,0.7243129580023988,2.1539104224202994,-0.8703681785710532,130,250232.00000000003,84,73.5,0,0,0,0,0,0
1778107242.286839,8.384764194488525,0.08867667363551571,1.3851543266271464,3.5638024929030823,0.10478152624321792,1.5517631412520045,3.4780651699111016,0,419,-1.6104852607702211,-16.66088146248581,8.573732299198067,18.80658181117647,-12,-19,-29,0.5835561605110344,0.5947670756985177,-0.44340102115165275,130,250232.00000000003,84,73.5,0,0,0,0,0,0
1778107242.3566248,8.45455002784729,0.08867667363551571,1.3851543266271464,3.5638024929030823,0.008043878341421628,1.356361694571028,3.5709068702112776,0,422,8.063279529409408,2.8792632056118483,-0.7104377308195353,8.59135351070802,30,30,30,-1.3862075330457693,-2.8000159527569135,1.3303803341128362,130,250238.0,84,73.5,0,0,0,0,0,0
1778107242.427973,8.525898218154907,0.08867667363551571,1.3851543266271464,3.5638024929030823,0.0641030927930417,1.412635077976335,3.5540718992098292,0,426,2.4573580842474003,-2.7480751349188592,0.973059369325302,3.8127903479744485,-15,-9,-24,0.7857131934239844,0.7887149367445033,-0.2359551227419297,130,250227.0,84,73.5,0,0,0,0,0,0
1778107242.498664,8.596589088439941,0.08867667363551571,1.3851543266271464,3.5638024929030823,-0.0689660636893486,1.1761693236369672,3.6443599824233157,0,429,15.76427373248643,20.89850029901792,-8.055748952023345,27.388952740819406,30,30,30,-1.8824093683645329,-3.345067805586621,1.2772241005017189,130,250227.0,84,73.5,0,0,0,0,0,0
1778107242.568575,8.666500091552734,0.08867667363551571,1.3851543266271464,3.5638024929030823,0.009210995197548049,1.4587482795748752,3.525764718804435,0,433,7.946567843796766,-7.359395294772875,3.803777409864706,11.479432136851846,-20,-30,-30,1.118236835491652,4.041981138248022,-1.6963747956461355,130,250240.0,84,73.5,0,0,0,0,0,0
1778107242.639701,8.737626075744629,0.08867667363551571,1.3851543266271464,3.5638024929030823,-0.055441943736916084,1.303832108303319,3.5987534730193906,0,437,14.411861737243179,8.132221832382736,-3.495098011630837,16.91302754610783,30,25,30,-0.9089918356705416,-2.1780531128201983,1.02618972579747,130,250230.00000000003,84,73.5,0,0,0,0,0,0
1778107242.708528,8.806453227996826,0.08867667363551571,1.3851543266271464,3.5638024929030823,-0.04940955027063349,1.3026152582374815,3.599249550512784,0,440,13.80862239061492,8.253906838966497,-3.5447057609701904,16.47331081977102,9,0,3,0.08764554785266468,-0.017679796795584513,0.007207584175149349,130,250230.00000000003,84,73.5,0,0,0,0,0,0
1778107242.778039,8.875964164733887,0.08867667363551571,1.3851543266271464,3.5638024929030823,0.014846404212206121,1.3541151619408245,3.570712672102464,0,443,7.383026942330958,3.103916468632195,-0.6910179199381528,8.038711964059083,-15,-12,-18,0.9244006410948108,0.7408892200396034,-0.4105379635188489,130,250226.00000000003,84,73.5,0,0,0,0,0,0
1778107242.849031,8.946956157684326,0.08867667363551571,1.3851543266271464,3.5638024929030823,-0.04897395057887492,1.3012212256736144,3.599612514346399,0,447,13.765062421439062,8.3933100953532,-3.5810021443316575,16.51508928769626,30,9,22,-0.8989796192316359,-0.7450690432671202,0.4070859408625202,130,250234.0,84,73.5,0,0,0,0,0,0
1778107242.918512,9.016437292098999,0.08867667363551571,1.3851543266271464,3.5638024929030823,0.06870840523994406,1.41171167853055,3.5534381456429776,0,450,1.9968268395571642,-2.655735190340347,1.0364347260104712,3.480580952896848,-30,-20,-30,1.6937310654209343,1.590222350106051,-0.664559798748339,130,250228.00000000003,84,73.0,0,0,0,0,0,0
1778107242.988907,9.086832284927368,0.08867667363551571,1.3851543266271464,3.5638024929030823,0.06727940660854345,1.4102771166974573,3.554146124139707,0,454,2.1397267026972253,-2.512279007031082,0.9656368763375056,3.438376179004775,5,-3,-3,-0.020299719823605514,-0.020378748195774,0.010057228053929718,130,250228.00000000003,84,73.0,0,0,0,0,0,0
1778107243.060253,9.158178091049194,0.08867667363551571,1.3851543266271464,3.5638024929030823,0.017112766258877563,1.3591617371108948,3.5852100685413615,0,458,7.1563907376638145,2.5992589516251607,-2.140757563827922,7.90904029796349,25,9,17,-0.7031477122005475,-0.7164454698189353,0.4353997255088995,130,250230.00000000003,84,73.0,0,0,0,0,0,0
1778107243.129945,9.227870225906372,0.08867667363551571,1.3851543266271464,3.5638024929030823,0.011426969409246006,1.4617015280302041,3.540135901417974,0,461,7.72497042262697,-7.654720140305771,2.3666591485108412,11.129734227828369,9,-20,-30,-0.0815844838342754,1.4713251521057191,-0.6467611763617162,130,250228.00000000003,84,73.0,0,0,0,0,0,0
1778107243.2003121,9.298237323760986,0.08867667363551571,1.3851543266271464,3.5638024929030823,0.017917617431819664,1.4610964298714455,3.5403308658344064,0,465,7.075905620369605,-7.594210324429906,2.3471627068675893,10.641881580461508,5,-4,-7,0.09223981406742128,-0.008599163205633963,0.0027706758183396454,130,250228.00000000003,84,73.0,0,0,0,0,0,0
1778107243.271749,9.36967420578003,0.08867667363551571,1.3851543266271464,3.5638024929030823,0.07040003582983055,1.4089629099533139,3.554325473984992,0,468,1.8276637805685156,-2.380858332616742,0.9477018918090163,3.147535570971512,-13,1,14,0.7346683801795916,-0.7297843697074347,0.19590172128250474,130,250236.0,84,73.0,0,0,0,0,0,0
1778107243.341697,9.439622163772583,0.08867667363551571,1.3851543266271464,3.5638024929030823,0.01585826620547727,1.358168939784386,3.5855880119210997,0,472,7.281840743003844,2.698538684276053,-2.1785519018017396,8.065569045383535,27,9,17,-0.779747846679949,-0.7261680201491401,0.44693996555890314,130,250232.00000000003,84,73.0,0,0,0,0,0,0
1778107243.409506,9.507431268692017,0.08867667363551571,1.3851543266271464,3.5638024929030823,0.1450316363286852,1.363794082705657,3.5779197482987146,0,475,-5.63549626931695,2.1360243921489497,-1.4117255395632355,6.189861662783399,-30,-4,-2,1.9049561305474159,0.08295556957954929,-0.1130860469474708,130,250238.0,84,73.0,0,0,0,0,0,0
1778107243.475363,9.573288202285767,0.08867667363551571,1.3851543266271464,3.5638024929030823,0.08642709235373969,1.2992364101712877,3.598625822063874,0,478,0.22495812817760197,8.591791645585879,-3.4823329160791783,9.273409965002138,25,7,28,-0.8898765972988948,-0.9802714613559836,0.31440992823760155,130,250238.0,84,73.0,0,0,0,0,0,0
1778107243.5417018,9.63962697982788,0.08867667363551571,1.3851543266271464,3.5638024929030823,0.07951953110833583,1.4156961233678578,3.56828720250129,0,482,0.9157142527179876,-3.0541796740711336,-0.4484709598207903,3.2198869973871287,6,-14,-30,-0.10412554317900546,1.755529985801099,-0.45732858950142435,130,250234.0,84,73.0,0,0,0,0,0,0
1778107243.609328,9.707253217697144,0.08867667363551571,1.3851543266271464,3.5638024929030823,0.023927665780820322,1.3582398034108092,3.5859711453671945,0,485,6.474900785469538,2.691452321633725,-2.216865246411226,7.354097313882073,27,4,20,-0.822045807649208,-0.8496157965806861,0.26149529270120786,130,250229.0,84,73.0,0,0,0,0,0,0
1778107243.6774259,9.77535104751587,0.08867667363551571,1.3851543266271464,3.5638024929030823,0.02783389458653078,1.3578425991917507,3.5865559732648946,0,488,6.084277904898492,2.7311727435395783,-2.275348036181235,7.046626913981136,5,-1,0,0.05736201603059486,-0.005832846951450279,0.008588054850747602,130,250229.0,84,73.0,0,0,0,0,0,0
1778107243.745187,9.843112230300903,0.08867667363551571,1.3851543266271464,3.5638024929030823,0.025437519387245026,1.4621263653693881,3.541381896428471,0,492,6.323915424827067,-7.697203874224168,2.2420596474611365,10.211057009169561,8,-20,-30,-0.03536501431635311,1.5389897562512693,-0.6666660022705643,130,250234.0,84,73.0,0,-1,0,0,0,0
1778107243.812615,9.910540103912354,0.08867667363551571,1.3851543266271464,3.5638024929030823,0.1419112620599889,1.366047116992323,3.5792502351200612,0,495,-5.32345884244732,1.9107209634823485,-1.5447742216978977,5.863138753563984,-30,12,30,1.7273827044275205,-1.4249188537475928,0.5616125300021291,130,250230.00000000003,84,73.0,0,-1,0,0,0,0
1778107243.883206,9.981131076812744,0.08867667363551571,1.3851543266271464,3.5638024929030823,0.16604677431073528,1.250693379011865,3.6219370544468648,0,499,-7.7370100675219575,13.446094761528137,-5.813456154378249,16.566685292472023,-9,15,30,0.3419064968094923,-1.6341145792569118,0.6047064882791452,130,250230.00000000003,84,73.0,0,-1,0,0,0,0
1778107243.954528,10.05245327949524,0.08867667363551571,1.3851543266271464,3.5638024929030823,0.02317045051362041,1.3593959727858498,3.586570838556378,0,502,6.55062231218953,2.5758353841296655,-2.2768345653295885,7.397942703276993,30,-13,-30,-2.0032517003598036,1.5241059541850637,-0.49586544666779725,130,250231.0,84,73.0,0,0,0,0,0,0
1778107244.024557,10.122482299804688,0.08867667363551571,1.3851543266271464,3.5638024929030823,0.0842349777543494,1.4173359934898362,3.5688088882961178,0,506,0.4441695881166302,-3.218166686268975,-0.500639539303549,3.2870234851508444,-17,-8,-25,0.8719888836212983,0.8273715732129012,-0.2536369948026243,130,250225.0,84,73.0,0,0,0,0,0,0
1778107244.096262,10.19418716430664,0.08867667363551571,1.3851543266271464,3.5638024929030823,0.09989841236463377,1.3060424283501286,3.6135332914544254,0,509,-1.1221738729118067,7.911189827701781,-4.97307985513431,9.411573828883283,-2,15,30,0.2184431240346005,-1.5521062052446402,0.6237289961978715,130,250217.99999999997,84,73.0,0,-1,0,0,0,0
1778107244.166902,10.264827251434326,0.08867667363551571,1.3851543266271464,3.5638024929030823,0.08556564403428453,1.418305035579511,3.568959560116301,0,513,0.3111029601231177,-3.3150708952364605,-0.5157067213218625,3.36933725154633,8,-18,-30,-0.2028985086674941,1.5892195464943588,-0.6309976834761711,130,250217.99999999997,84,73.0,0,-1,0,0,0,0
1778107244.2385201,10.336445331573486,0.08867667363551571,1.3851543266271464,3.5638024929030823,0.08556564403428453,1.418305035579511,3.568959560116301,0,516,0.3111029601231177,-3.3150708952364605,-0.5157067213218625,3.36933725154633,3,-2,-4,0.0,0.0,0.0,130,250237.0,84,73.0,0,-1,0,0,0,0
1778107244.308054,10.40597915649414,0.08867667363551571,1.3851543266271464,3.5638024929030823,0.029993387119432856,1.3655742013947627,3.601511605542445,0,520,5.8683286516082855,1.9580125232383727,-3.770911263936272,7.245058037374612,26,11,18,-0.7992118508979723,-0.7583479586362463,0.4681469121436875,130,250241.0,84,73.0,0,-1,0,0,0,0
1778107244.3873549,10.48528003692627,0.08867667363551571,1.3851543266271464,3.5638024929030823,0.029993387119432856,1.3655742013947627,3.601511605542445,0,524,5.8683286516082855,1.9580125232383727,-3.770911263936272,7.245058037374612,7,0,0,0.0,0.0,0.0,130,250241.0,84,73.0,0,-1,0,0,0,0
1778107244.457401,10.555326223373413,0.08867667363551571,1.3851543266271464,3.5638024929030823,0.029993387119432856,1.3655742013947627,3.601511605542445,0,527,5.8683286516082855,1.9580125232383727,-3.770911263936272,7.245058037374612,7,0,0,0.0,0.0,0.0,130,250233.0,84,73.0,0,-1,0,0,0,0
1778107244.528246,10.626171112060547,0.08867667363551571,1.3851543266271464,3.5638024929030823,0.029993387119432856,1.3655742013947627,3.601511605542445,0,531,5.8683286516082855,1.9580125232383727,-3.770911263936272,7.245058037374612,7,0,0,0.0,0.0,0.0,130,250231.0,84,73.0,0,0,0,0,0,0
1778107244.599524,10.697449207305908,0.08867667363551571,1.3851543266271464,3.5638024929030823,0.0871380840311776,1.4242116092129575,3.5836379064139714,0,535,0.15385896043381003,-3.9057282585811093,-1.9835413510889133,4.383243331263327,-16,-7,-25,0.8017147023224311,0.8226567729727718,-0.25076005562363535,130,250223.0,84,73.0,0,0,0,0,0,0
1778107244.6720278,10.76995301246643,0.08867667363551571,1.3851543266271464,3.5638024929030823,0.08556564403428453,1.418305035579511,3.568959560116301,0,538,0.3111029601231177,-3.3150708952364605,-0.5157067213218625,3.36933725154633,4,-7,-2,-0.021687689265573244,-0.08146570542565887,-0.20244932338617047,130,250223.0,84,73.0,0,0,0,0,0,0
1778107244.742031,10.839956283569336,0.08867667363551571,1.3851543266271464,3.5638024929030823,0.02353718590326638,1.3661284729877097,3.6014886870304594,0,542,6.513948773224933,1.9025853639436763,-3.768619412737717,7.762335471065063,29,11,18,-0.8860794239148612,-0.7453446356114055,0.464680098539117,130,250239.0,84,73.0,0,0,0,0,0,0
1778107244.81231,10.910235166549683,0.08867667363551571,1.3851543266271464,3.5638024929030823,0.08692462030052459,1.419278687432615,3.5691201843416303,0,545,0.17520533349911216,-3.4124360805468656,-0.5317691438547989,3.458062367144447,-18,-13,-23,0.9019414041481614,0.7562757430246686,-0.4605722418479667,130,250233.0,84,73.0,0,0,0,0,0,0
1778107244.8822742,10.980199337005615,0.08867667363551571,1.3851543266271464,3.5638024929030823,0.17028869542663636,1.257720946051294,3.637160908238505,0,549,-8.161202179112065,12.743338057585252,-7.3358415335422755,16.817028776317414,-30,25,30,1.1915252418896207,-2.3091496737330623,0.9725081202775162,130,250233.0,84,73.0,0,0,0,0,0,0
1778107244.954058,11.051983118057251,0.08867667363551571,1.3851543266271464,3.5638024929030823,0.09755905876161168,1.3098009181432337,3.6136735081378437,0,552,-0.8882385126095973,7.53534084839127,-4.987101523476145,9.079730775864176,28,-7,-14,-1.01317645294706,0.7255116870268715,-0.3271964746990169,130,250237.0,84,73.5,0,-1,0,0,0,0
1778107245.0249689,11.122894048690796,0.08867667363551571,1.3851543266271464,3.5638024929030823,0.0363607415474456,1.3664348712191088,3.601300697973606,0,556,5.231593208807011,1.8719455408037655,-3.7498205070523927,6.703350016617169,28,-4,-20,-0.8630308002926672,0.7986632324507098,-0.17448382151657277,130,250227.0,84,73.5,0,-1,0,0,0,0
1778107245.096673,11.194598197937012,0.08867667363551571,1.3851543266271464,3.5638024929030823,0.0363607415474456,1.3664348712191088,3.601300697973606,0,559,5.231593208807011,1.8719455408037655,-3.7498205070523927,6.703350016617169,6,0,0,0.0,0.0,0.0,130,250227.0,84,73.5,0,-1,0,0,0,0
1778107245.166837,11.264762163162231,0.08867667363551571,1.3851543266271464,3.5638024929030823,0.03707565267327748,1.3675750322203042,3.600923192125934,0,563,5.160102096223822,1.757929440684225,-3.7120699222851883,6.59518253498811,6,0,-1,0.010189149423597822,0.01624995106156837,-0.00538033799059511,130,250228.00000000003,84,73.5,0,-1,0,0,0,0
1778107245.238594,11.336519241333008,0.08867667363551571,1.3851543266271464,3.5638024929030823,0.0330316532825965,1.3675208177689169,3.6019583666704214,0,566,5.564502035291921,1.7633508858229563,-3.815587376733909,6.973650140119712,8,0,0,-0.0563568012211502,-0.0007555275767818616,0.014426096642669434,130,250223.99999999997,84,73.5,0,-2,0,0,0,0
1778107245.3104398,11.40836501121521,0.08867667363551571,1.3851543266271464,3.5638024929030823,0.09778808720636373,1.3150190848532475,3.6289488141518276,0,570,-0.911141357084802,7.013524177389896,-6.514632124874531,9.615619152289165,-19,11,21,0.9013256316960825,-0.730756076547734,0.37567204757718625,130,250223.99999999997,84,73.5,0,-2,0,0,0,0
1778107245.379225,11.477150201797485,0.08867667363551571,1.3851543266271464,3.5638024929030823,0.09440053468978389,1.3071043570887264,3.614202899617677,0,573,-0.5723861054268184,7.804996953842003,-5.040040671459467,9.308469974874185,4,-4,6,-0.0492482827757512,-0.11506441571974854,-0.21437629828927704,130,250236.0,84,73.5,0,0,0,0,0,0
1778107245.447291,11.545216083526611,0.08867667363551571,1.3851543266271464,3.5638024929030823,0.07462648409891393,1.5142689089993233,3.5251055110875438,0,577,1.405018953660178,-12.911458237217687,3.869698181553849,13.551914849492007,11,-30,-30,-0.29051339802755366,3.043588750308503,-1.3089875025009428,130,250229.0,84,73.5,0,0,0,0,0,0
1778107245.514176,11.612101078033447,0.08867667363551571,1.3851543266271464,3.5638024929030823,0.10141031538489725,1.3071361002948476,3.61366855480454,0,580,-1.2733641749381546,7.801822633229882,-4.9866061901457925,9.346450343204864,-7,30,30,0.40044604149957586,-3.0968502013303723,1.324109306878165,130,250229.0,84,73.5,0,0,0,0,0,0
1778107245.582564,11.680489301681519,0.08867667363551571,1.3851543266271464,3.5638024929030823,0.03031926403790071,1.358877908244879,3.586686402263885,0,584,5.8357409597615,2.6276418382267464,-2.2883909360802868,6.7968453900152905,30,-10,-18,-1.0395218292674793,0.7565894417187513,-0.3945438425116342,130,250219.99999999997,83,73.5,0,0,0,0,0,0
1778107245.653427,11.751352071762085,0.08867667363551571,1.3851543266271464,3.5638024929030823,0.09092660397624402,1.4165067711916333,3.5689867452586155,0,587,-0.22499303407283178,-3.1352444564486825,-0.5184252355533214,3.185772181423526,-17,-8,-24,0.8552776002044046,0.8132459806642329,-0.24977371030156292,130,250221.99999999997,83,73.5,0,0,0,0,0,0
1778107245.7219672,11.819892406463623,0.08867667363551571,1.3851543266271464,3.5638024929030823,0.029869335963586516,1.4623528252313291,3.5422338458092266,0,591,5.880733767192919,-7.719849860418271,2.156864709385564,9.94138707035371,29,-13,-23,-0.8908224373069388,0.6688915984921076,-0.3903234433547128,130,250230.00000000003,83,73.5,0,0,0,0,0,0
1778107245.7908769,11.88880205154419,0.08867667363551571,1.3851543266271464,3.5638024929030823,0.03503214305874003,1.4621940813497303,3.541831165716362,0,594,5.364453057677568,-7.703975472258384,2.1971327186720124,9.64136851638003,5,-3,-7,0.07492140017725188,-0.0023036525788700437,-0.0058435955140051146,130,250230.00000000003,83,73.5,0,0,0,0,0,0
1778107245.86348,11.961405277252197,0.08867667363551571,1.3851543266271464,3.5638024929030823,0.028475473095965622,1.360825198312368,3.587447270404809,0,598,6.020120053955008,2.4329128314778403,-2.3644777501726555,6.910257979313241,9,14,30,-0.09030824593308992,-1.3962035715195737,0.6282930853775471,130,250232.00000000003,83,73.5,0,0,0,0,0,0
1778107245.936034,12.033959150314331,0.08867667363551571,1.3851543266271464,3.5638024929030823,0.03608519378587263,1.461935077926658,3.5420834501480525,0,601,5.259147984964308,-7.678075129951156,2.1719042755029783,9.556602084992171,4,-19,-30,0.10488372803186105,1.3935834897153092,-0.6252432618987495,130,250229.0,83,73.0,0,0,0,0,0,0
1778107246.0084531,12.106378316879272,0.08867667363551571,1.3851543266271464,3.5638024929030823,0.08186189699768837,1.5071114480337435,3.5110999492808483,0,605,0.6814776637827341,-12.195712140659708,5.270254362223392,13.303209667843474,-11,-16,-26,0.632107567418161,0.62381786825141,-0.427835645407765,130,250229.0,83,73.0,0,0,0,0,0,0
1778107246.0801558,12.178081035614014,0.08867667363551571,1.3851543266271464,3.5638024929030823,0.13458016602976697,1.4605839387585284,3.522410327858403,0,609,-4.590349239425126,-7.5429612131382,4.139216504467935,9.751957920010621,-17,0,8,0.7352338929728154,-0.6488946318387186,0.15773988458368587,130,250228.00000000003,83,73.0,0,0,0,0,0,0
1778107246.14859,12.246515274047852,0.08867667363551571,1.3851543266271464,3.5638024929030823,0.04030137740842718,1.3527612831430385,3.5728890367756048,0,612,4.8375296227088525,3.2393043484107986,-0.9086543872522501,5.892405137776214,30,16,30,-1.3776552611524766,-1.5755659459808666,0.7376235941604667,130,250227.0,83,73.0,0,0,0,0,0,0
1778107246.218595,12.31652021408081,0.08867667363551571,1.3851543266271464,3.5638024929030823,0.09375694581313328,1.410963069347619,3.555523543968662,0,615,-0.5080272177617571,-2.580874272047251,0.827894893442016,2.757610127753658,-15,-9,-24,0.7635970887131496,0.8313954154832295,-0.24806096253731272,130,250232.00000000003,83,73.0,0,0,0,0,0,0
1778107246.287479,12.385404109954834,0.08867667363551571,1.3851543266271464,3.5638024929030823,0.16097635964360926,1.357993485103215,3.56533688020557,0,619,-7.2299686008093556,2.71608415239315,-0.1534387302487783,7.724836731964681,-24,1,18,0.9758364125253384,-0.7689690539756359,0.14246198058911788,130,250232.00000000003,83,73.0,0,0,0,0,0,0
