timestamp,phase,command,axis,repeat,t_send,t_since_cmd,marker_id,pos_x,pos_y,pos_z,marker_dist,tello_height_cm,tello_baro_cm,tello_battery,tello_temp_c,tello_pitch,tello_roll,tello_yaw,tello_vgx,tello_vgy,tello_vgz,tello_agx,tello_agy,tello_agz
1777580946.244294,init_hover,none,-,0,,,0,0.1528324608632761,1.235241178158307,2.3845155018815167,2.5311854466826533,90,254346.99999999997,65,69.0,0,-1,4,0,0,-1,0.0,16.0,-981.0
1777580946.413134,init_hover,none,-,0,,,0,0.16058209455298367,1.3032898445907484,2.3616689034847034,2.5336138541850537,90,254348.99999999997,65,69.0,0,-1,4,0,0,0,18.0,18.0,-968.0
1777580946.461764,init_hover,none,-,0,,,0,0.15060844860304587,1.2477158825231158,2.3910406967933535,2.5413344400126894,90,254348.99999999997,65,69.0,0,-1,4,0,0,0,18.0,18.0,-968.0
1777580946.512308,init_hover,none,-,0,,,0,0.12023968999858507,1.3012643735535332,2.367993801014129,2.5365586324248732,90,254356.0,65,69.0,0,0,4,0,0,0,23.0,3.0,-985.0
1777580946.560469,init_hover,none,-,0,,,0,0.143845169718819,1.2887458109075984,2.378234821797231,2.542943455302565,90,254356.0,65,69.0,0,0,4,0,0,0,23.0,3.0,-985.0
1777580946.608883,init_hover,none,-,0,,,0,0.1537707476279587,1.254583883949055,2.39732218608709,2.5497279700856126,90,254348.0,65,69.0,0,-1,4,0,0,0,-15.0,13.0,-955.0
1777580946.657407,init_hover,none,-,0,,,0,0.11764631618556799,1.3395378611990512,2.3543884821197136,2.537659782767677,90,254348.0,65,69.0,0,-1,4,0,0,0,-15.0,13.0,-955.0
1777580946.706055,init_hover,none,-,0,,,0,0.142286374350245,1.2903739963686895,2.37813595835585,2.543332833539564,100,254352.0,65,69.0,0,-1,4,0,0,0,-1.0,20.0,-990.0
1777580946.7642329,init_hover,none,-,0,,,0,0.14212359574052144,1.291471782873892,2.3781635287751643,2.5437340320330097,100,254352.0,65,69.0,0,-1,4,0,0,0,-1.0,20.0,-990.0
1777580946.813267,init_hover,none,-,0,,,0,0.14944624242084448,1.25551856558688,2.3982200791911326,2.5506284997374795,100,254353.00000000003,65,69.0,0,-1,4,0,0,0,-15.0,24.0,-990.0
1777580946.862835,init_hover,none,-,0,,,0,0.11398634571721603,1.3414079294213765,2.3546035851122364,2.5383852780086014,100,254353.00000000003,65,69.0,0,-1,4,0,0,0,-15.0,24.0,-990.0
1777580946.912508,init_hover,none,-,0,,,0,0.14604270959807822,1.256428228603816,2.3984561743091235,2.5509586048891064,100,254350.0,65,69.0,0,0,4,0,0,0,22.0,8.0,-1003.0
1777580946.961855,init_hover,none,-,0,,,0,0.13869456923437296,1.291397887569155,2.3788300136253113,2.54414201868183,100,254350.0,65,69.0,0,0,4,0,0,0,22.0,8.0,-1003.0
1777580947.01137,init_hover,none,-,0,,,0,0.13869456923437296,1.291397887569155,2.3788300136253113,2.54414201868183,100,254353.00000000003,65,69.0,0,-1,4,0,0,0,-9.0,22.0,-999.0
1777580947.0613298,init_hover,none,-,0,,,0,0.16199484076616777,1.2753744947111354,2.3818453844233076,2.5427760950827434,100,254353.00000000003,65,69.0,0,-1,4,0,0,0,-9.0,22.0,-999.0
1777580947.110544,init_hover,none,-,0,,,0,0.14093043871159006,1.2924441725773126,2.3783856717627327,2.544216263089463,100,254340.0,65,69.0,0,-1,4,0,0,0,15.0,11.0,-1000.0
1777580947.158904,init_hover,none,-,0,,,0,0.14093043871159006,1.2924441725773126,2.3783856717627327,2.544216263089463,100,254340.0,65,69.0,0,-1,4,0,0,0,15.0,11.0,-1000.0
1777580947.207477,init_hover,none,-,0,,,0,0.14836943323551685,1.2553652425909032,2.3984305033658204,2.5507120704671555,100,254353.00000000003,65,69.0,0,-1,4,0,0,0,22.0,0.0,-986.0
1777580947.25441,init_hover,none,-,0,,,0,0.13788820628554666,1.2870777579139916,2.372506523379975,2.5366724876299847,100,254353.00000000003,65,69.0,0,-1,4,0,0,0,22.0,0.0,-986.0
1777580947.3009439,init_hover,none,-,0,,,0,0.13806397543622656,1.2859825828056997,2.372478741807515,2.536273285487367,100,254353.00000000003,65,69.0,0,-1,4,0,0,0,22.0,0.0,-986.0
1777580947.347923,init_hover,none,-,0,,,0,0.16239912173109253,1.2731531290574893,2.381766835524763,2.541964421530631,100,254344.99999999997,65,69.0,0,-1,4,0,0,0,17.0,10.0,-972.0
1777580947.3947341,init_hover,none,-,0,,,0,0.1477592698353553,1.2519251485610594,2.391580263051517,2.5430818734737235,100,254344.99999999997,65,69.0,0,-1,4,0,0,0,17.0,10.0,-972.0
1777580947.4416919,init_hover,none,-,0,,,0,0.13806397543622656,1.2859825828056997,2.372478741807515,2.536273285487367,100,254351.00000000003,65,69.0,0,-1,4,0,0,0,-2.0,5.0,-987.0
1777580947.4888809,init_hover,none,-,0,,,0,0.13169228732276547,1.3190043418870294,2.352911566242262,2.5294475043977744,100,254342.0,65,69.0,0,-1,4,0,0,0,-26.0,37.0,-1000.0
1777580947.536712,init_hover,none,-,0,,,0,0.13806397543622656,1.2859825828056997,2.372478741807515,2.536273285487367,100,254342.0,65,69.0,0,-1,4,0,0,0,-26.0,37.0,-1000.0
1777580947.587699,init_hover,none,-,0,,,0,0.1610681651814372,1.2689328559453217,2.375971562922741,2.5350006173162445,100,254342.0,65,69.0,0,-1,4,0,0,0,-26.0,37.0,-1000.0
1777580947.636547,init_hover,none,-,0,,,0,0.1402989785529352,1.286073508172501,2.3724810668898573,2.536429868539431,100,254344.99999999997,65,69.0,0,-1,4,0,0,0,-15.0,30.0,-1026.0
1777580947.685722,init_hover,none,-,0,,,0,0.1402989785529352,1.286073508172501,2.3724810668898573,2.536429868539431,100,254346.99999999997,65,69.0,0,-1,4,0,0,0,24.0,6.0,-998.0
1777580947.735061,init_hover,none,-,0,,,0,0.13666648715885618,1.2817891417132032,2.366706381488374,2.529333689992968,100,254346.99999999997,65,69.0,0,-1,4,0,0,0,24.0,6.0,-998.0
1777580947.7852569,init_hover,none,-,0,,,0,0.16395518733703426,1.2690414956084708,2.375338407462536,2.5346295537042067,100,254344.99999999997,65,69.0,0,-1,4,0,0,0,18.0,4.0,-982.0
1777580947.835336,init_hover,none,-,0,,,0,0.13994110849628452,1.2818416221450226,2.3661002508199687,2.5289639296211504,100,254344.99999999997,65,69.0,0,-1,4,0,0,0,18.0,4.0,-982.0
1777580947.885717,init_hover,none,-,0,,,0,0.13994110849628452,1.2818416221450226,2.3661002508199687,2.5289639296211504,100,254352.0,65,69.0,0,-1,4,0,0,0,17.0,15.0,-982.0
1777580947.936573,init_hover,none,-,0,,,0,0.1526952389984034,1.2981532677361893,2.3505666309366187,2.520943992799265,100,254352.0,65,69.0,0,-1,4,0,0,0,17.0,15.0,-982.0
1777580947.9869282,init_hover,none,-,0,,,0,0.11627608344177551,1.2934834859290913,2.356283959278872,2.5226785296512664,100,254344.99999999997,65,69.0,0,0,4,0,0,0,9.0,30.0,-1012.0
1777580948.0374851,init_hover,none,-,0,,,0,0.1553739092362211,1.298198487956367,2.349999172653993,2.5205947089750262,100,254344.99999999997,65,69.0,0,0,4,0,0,0,9.0,30.0,-1012.0
1777580948.08707,init_hover,none,-,0,,,0,0.1389585246928528,1.2762322501624928,2.3599382847951245,2.521190420387043,100,254344.99999999997,65,69.0,0,0,4,0,0,0,9.0,30.0,-1012.0
1777580948.137172,init_hover,none,-,0,,,0,0.1389585246928528,1.2762322501624928,2.3599382847951245,2.521190420387043,100,254344.0,65,69.0,0,0,4,0,0,0,12.0,23.0,-1004.0
1777580948.187132,init_hover,none,-,0,,,0,0.15943355900979975,1.2602866023490122,2.3634161890760916,2.520168284203794,90,254351.00000000003,65,69.0,0,-1,4,0,0,0,35.0,7.0,-998.0
1777580948.23757,init_hover,none,-,0,,,0,0.1156814080878879,1.2909377687473036,2.349715412244234,2.5156142022368435,90,254351.00000000003,65,69.0,0,-1,4,0,0,0,35.0,7.0,-998.0
1777580948.2877839,init_hover,none,-,0,,,0,0.132645953175718,1.305908796173827,2.3343507852273184,2.5074806648048966,90,254352.0,65,69.0,0,-1,4,0,0,0,6.0,24.0,-1022.0
1777580948.3368802,init_hover,none,-,0,,,0,0.132645953175718,1.305908796173827,2.3343507852273184,2.5074806648048966,90,254352.0,65,69.0,0,-1,4,0,0,0,6.0,24.0,-1022.0
1777580948.3871129,init_hover,none,-,0,,,0,0.11385772207559425,1.3223774579000742,2.330036933800857,2.5085485581496214,100,254337.0,65,69.0,0,-1,4,0,0,0,-22.0,37.0,-1004.0
1777580948.437276,init_hover,none,-,0,,,0,0.13943769715105547,1.2732735257978516,2.353457416173958,2.5141223780855224,100,254337.0,65,69.0,0,-1,4,0,0,0,-22.0,37.0,-1004.0
1777580948.487364,init_hover,none,-,0,,,0,0.1598497223413678,1.2563959522180674,2.3568549934664444,2.5127139552555158,100,254341.0,65,69.0,0,-1,4,0,0,0,24.0,14.0,-977.0
1777580948.537448,init_hover,none,-,0,,,0,0.13943769715105547,1.2732735257978516,2.353457416173958,2.5141223780855224,100,254341.0,65,69.0,0,-1,4,0,0,0,24.0,14.0,-977.0
1777580948.587907,init_hover,none,-,0,,,0,0.11074406662283363,1.3187879081106653,2.3239915433508638,2.501473997855837,100,254350.0,65,69.5,0,-1,4,0,0,0,23.0,17.0,-1032.0
1777580948.638508,init_hover,none,-,0,,,0,0.11074406662283363,1.3187879081106653,2.3239915433508638,2.501473997855837,100,254350.0,65,69.5,0,-1,4,0,0,0,23.0,17.0,-1032.0
1777580948.688664,init_hover,none,-,0,,,0,0.1316786582164073,1.3033201948887667,2.3278771743718427,2.500467712745955,100,254341.0,65,69.5,0,-1,4,0,0,0,-5.0,15.0,-996.0
1777580948.738247,init_hover,none,-,0,,,0,0.1316786582164073,1.3033201948887667,2.3278771743718427,2.500467712745955,100,254341.0,65,69.5,0,-1,4,0,0,0,-5.0,15.0,-996.0
1777580948.789311,init_hover,none,-,0,,,0,0.13812576777454436,1.2698781871778189,2.347411181441339,2.507210809446804,100,254340.0,65,69.5,0,-1,4,0,0,0,11.0,9.0,-1009.0
1777580948.8385248,init_hover,none,-,0,,,0,0.15129522797820957,1.2871023800551722,2.331537373690678,2.499181346686341,100,254340.0,65,69.5,0,-1,4,0,0,0,11.0,9.0,-1009.0
1777580948.888745,init_hover,none,-,0,,,0,0.11534990268479445,1.2823486359965979,2.337265316016591,2.500930601385929,100,254340.0,65,69.5,0,-1,4,0,0,0,11.0,9.0,-1009.0
1777580948.9384499,init_hover,none,-,0,,,0,0.11534990268479445,1.2823486359965979,2.337265316016591,2.500930601385929,90,254355.00000000003,65,69.5,0,-1,4,0,0,0,-10.0,20.0,-1004.0
1777580948.988013,init_hover,none,-,0,,,0,0.1320167667446861,1.298284819981045,2.3220813904758444,2.493272152915588,90,254355.00000000003,65,69.5,0,-1,4,0,0,0,-10.0,20.0,-1004.0
1777580949.037112,init_hover,none,-,0,,,0,0.1320167667446861,1.298284819981045,2.3220813904758444,2.493272152915588,90,254351.00000000003,65,69.5,0,-1,4,0,0,0,7.0,22.0,-1005.0
1777580949.087219,init_hover,none,-,0,,,0,0.1320167667446861,1.298284819981045,2.3220813904758444,2.493272152915588,90,254351.00000000003,65,69.5,0,-1,4,0,0,0,7.0,22.0,-1005.0
1777580949.137075,init_hover,none,-,0,,,0,0.11855306007679217,1.282571103401545,2.3370424350478483,2.500950604035867,100,254331.0,65,69.5,0,-1,4,0,0,0,-4.0,21.0,-1004.0
1777580949.186707,init_hover,none,-,0,,,0,0.14557177279043654,1.2312708905432954,2.3600576398069406,2.50640669040543,100,254331.0,65,69.5,0,-1,4,0,0,0,-4.0,21.0,-1004.0
1777580949.235421,init_hover,none,-,0,,,0,0.11565134816930019,1.2792516282761937,2.3310298174415713,2.494024592894264,100,254344.99999999997,65,69.5,0,-1,4,0,0,0,-10.0,16.0,-1013.0
1777580949.284791,init_hover,none,-,0,,,0,0.14557177279043654,1.2312708905432954,2.3600576398069406,2.50640669040543,100,254344.99999999997,65,69.5,0,-1,4,0,0,0,-10.0,16.0,-1013.0
1777580949.33125,init_hover,none,-,0,,,0,0.14557177279043654,1.2312708905432954,2.3600576398069406,2.50640669040543,100,254342.0,65,69.5,0,-1,4,0,0,0,-9.0,16.0,-976.0
1777580949.382438,init_hover,none,-,0,,,0,0.13841644838325423,1.266551538875662,2.3406527795334,2.4997452104261035,100,254342.0,65,69.5,0,-1,4,0,0,0,-9.0,16.0,-976.0
1777580949.4305549,init_hover,none,-,0,,,0,0.13841644838325423,1.266551538875662,2.3406527795334,2.4997452104261035,100,254344.0,65,69.5,0,-1,4,0,0,0,11.0,23.0,-1005.0
1777580949.479187,init_hover,none,-,0,,,0,0.13841644838325423,1.266551538875662,2.3406527795334,2.4997452104261035,100,254344.0,65,69.5,0,-1,4,0,0,0,11.0,23.0,-1005.0
1777580949.525619,init_hover,none,-,0,,,0,0.13841644838325423,1.266551538875662,2.3406527795334,2.4997452104261035,100,254341.0,65,69.5,0,-1,4,0,0,0,-13.0,22.0,-1014.0
1777580949.575936,init_hover,none,-,0,,,0,0.1296121990961563,1.2992225132344752,2.322103944894004,2.493504999264,100,254341.0,65,69.5,0,-1,4,0,0,0,-13.0,22.0,-1014.0
1777580949.623034,init_hover,none,-,0,,,0,0.1353750347712619,1.299366576965919,2.3214121769543707,2.493219030714058,100,254346.0,65,69.0,0,-1,4,0,0,0,-30.0,28.0,-1009.0
1777580949.674017,init_hover,none,-,0,,,0,0.1353750347712619,1.299366576965919,2.3214121769543707,2.493219030714058,100,254346.0,65,69.0,0,-1,4,0,0,0,-30.0,28.0,-1009.0
1777580949.725278,init_hover,none,-,0,,,0,0.1397629973012224,1.2660221165831862,2.3407877485728843,2.499763045909503,100,254342.99999999997,65,69.0,0,-1,4,0,0,0,6.0,8.0,-978.0
1777580949.7753332,init_hover,none,-,0,,,0,0.1397629973012224,1.2660221165831862,2.3407877485728843,2.499763045909503,100,254342.99999999997,65,69.0,0,-1,4,0,0,0,6.0,8.0,-978.0
1777580949.825121,init_hover,none,-,0,,,0,0.1397629973012224,1.2660221165831862,2.3407877485728843,2.499763045909503,100,254342.99999999997,65,69.0,0,-1,4,0,0,0,0.0,22.0,-1010.0
1777580949.874996,init_hover,none,-,0,,,0,0.1367634420994754,1.2648999926231412,2.341354324736323,2.4997392484609056,100,254342.99999999997,65,69.0,0,-1,4,0,0,0,0.0,22.0,-1010.0
1777580949.924524,init_hover,none,-,0,,,0,0.146793242872993,1.230306795592126,2.3598273526772573,2.5059414928133075,100,254344.0,65,69.0,0,-1,4,0,0,0,21.0,22.0,-986.0
1777580949.974438,init_hover,none,-,0,,,0,0.1395641163596962,1.2656170783752354,2.3404424450178025,2.4992882801691865,100,254344.0,65,69.0,0,-1,4,0,0,0,21.0,22.0,-986.0
1777580950.023653,init_hover,none,-,0,,,0,0.15582330267670289,1.2823493288417347,2.3248046966337474,2.491493150152106,100,254346.99999999997,65,69.0,0,-1,4,0,0,0,-21.0,25.0,-1013.0
1777580950.072632,init_hover,none,-,0,,,0,0.13404799973569476,1.2974787242105452,2.321721713975197,2.4927552314231844,100,254346.99999999997,65,69.0,0,-1,4,0,0,0,-21.0,25.0,-1013.0
1777580950.122852,init_hover,none,-,0,,,0,0.16460662152623423,1.2525007387970204,2.34951315254743,2.5048083566399066,90,254344.99999999997,65,69.0,0,-1,4,0,0,0,18.0,15.0,-1005.0
1777580950.171967,init_hover,none,-,0,,,0,0.16460662152623423,1.2525007387970204,2.34951315254743,2.5048083566399066,90,254344.99999999997,65,69.0,0,-1,4,0,0,0,18.0,15.0,-1005.0
1777580950.221878,init_hover,none,-,0,,,0,0.14142442556879586,1.2681203913526788,2.346808083325222,2.5062206730434564,90,254342.99999999997,65,69.0,0,-1,4,0,0,0,9.0,19.0,-995.0
1777580950.2715478,init_hover,none,-,0,,,0,0.16200939307051163,1.251314815875182,2.3500970434719566,2.5047834383250183,90,254342.99999999997,65,69.0,0,-1,4,0,0,0,9.0,19.0,-995.0
1777580950.322092,init_hover,none,-,0,,,0,0.1406996375419505,1.2646846917977945,2.340240495942056,2.498840047518249,90,254344.99999999997,65,69.0,0,-1,4,0,0,0,21.0,8.0,-996.0
1777580950.371403,init_hover,none,-,0,,,0,0.1351182057520989,1.2965646756838365,2.3215433262281926,2.4923179096504504,90,254344.99999999997,65,69.0,0,-1,4,0,0,0,21.0,8.0,-996.0
1777580950.4212139,init_hover,none,-,0,,,0,0.1569288582070793,1.2814473461689821,2.324589314137905,2.4910422658017373,90,254341.0,65,69.0,0,-1,4,0,0,0,-22.0,30.0,-1015.0
1777580950.470739,init_hover,none,-,0,,,0,0.1351182057520989,1.2965646756838365,2.3215433262281926,2.4923179096504504,90,254341.0,65,69.0,0,-1,4,0,0,0,-22.0,30.0,-1015.0
1777580950.5207481,init_hover,none,-,0,,,0,0.1351182057520989,1.2965646756838365,2.3215433262281926,2.4923179096504504,90,254341.0,65,69.0,0,-1,4,0,0,0,-22.0,30.0,-1015.0
1777580950.5711832,init_hover,none,-,0,,,0,0.18932854481074352,1.2339533928097466,2.3517238893975967,2.5023846249572426,90,254339.0,65,69.0,0,-1,4,0,0,0,19.0,11.0,-1011.0
1777580950.62147,init_hover,none,-,0,,,0,0.14219525199936145,1.2630963406010833,2.3403608414935664,2.4984882731857314,90,254339.0,65,69.0,0,-1,4,0,0,0,19.0,11.0,-1011.0
1777580950.671187,init_hover,none,-,0,,,0,0.11862480993303368,1.2755937508446302,2.3309231430746915,2.492777358885269,90,254338.0,65,68.5,0,-1,4,0,0,0,-4.0,33.0,-996.0
1777580950.7217112,init_hover,none,-,0,,,0,0.11862480993303368,1.2755937508446302,2.3309231430746915,2.492777358885269,90,254338.0,65,68.5,0,-1,4,0,0,0,-4.0,33.0,-996.0
1777580950.7717881,init_hover,none,-,0,,,0,0.14089421920174738,1.2597414640496352,2.334378954487452,2.4916523973388838,90,254336.0,65,68.5,0,-1,4,0,0,0,12.0,15.0,-1004.0
1777580950.822742,init_hover,none,-,0,,,0,0.14089421920174738,1.2597414640496352,2.334378954487452,2.4916523973388838,90,254336.0,65,68.5,0,-1,4,0,0,0,12.0,15.0,-1004.0
1777580950.872718,init_hover,none,-,0,,,0,0.15466400218951676,1.2793581694858096,2.3250880530177422,2.4906276715118514,90,254348.99999999997,65,68.5,0,-1,4,0,0,0,-5.0,23.0,-1008.0
1777580950.9225678,init_hover,none,-,0,,,0,0.15466400218951676,1.2793581694858096,2.3250880530177422,2.4906276715118514,90,254348.99999999997,65,68.5,0,-1,4,0,0,0,-5.0,23.0,-1008.0
1777580950.972372,init_hover,none,-,0,,,0,0.14103716525263632,1.258697444976911,2.3343552128693625,2.4912781947913283,90,254341.0,65,68.5,0,-1,4,0,0,0,15.0,13.0,-1002.0
1777580951.0223181,init_hover,none,-,0,,,0,0.1539706370247918,1.2752706261536826,2.31899857733037,2.483457273184614,90,254341.0,65,68.5,0,-1,4,0,0,0,15.0,13.0,-1002.0
1777580951.071837,init_hover,none,-,0,,,0,0.1409516009312159,1.2579688868663124,2.3347068149965158,2.4913518171119198,90,254344.99999999997,65,68.5,0,-1,4,0,0,0,13.0,4.0,-977.0
1777580951.122699,init_hover,none,-,0,,,0,0.15611586143676656,1.2752583156523825,2.3189939555939345,2.4835825428988647,90,254344.99999999997,65,68.5,0,-1,4,0,0,0,13.0,4.0,-977.0
1777580951.172493,init_hover,none,-,0,,,0,0.13367096125259392,1.2879479212553635,2.30955040987922,2.4779714551457586,90,254346.99999999997,65,68.5,0,-1,4,0,0,0,-27.0,30.0,-993.0
1777580951.221088,init_hover,none,-,0,,,0,0.15532624565194267,1.2729286952505228,2.3125675247984065,2.476711389389635,90,254346.0,65,68.5,0,-1,4,0,0,0,10.0,19.0,-986.0
1777580951.2860281,recenter,right,-,1,,,0,0.11654515093994036,1.2688669668180506,2.3185941269575685,2.4787882732894597,90,254346.0,65,68.5,0,-1,4,0,0,0,10.0,19.0,-986.0
1777580951.333527,recenter,right,-,1,,,0,0.17085326151941285,1.2052179212566854,2.3494126676236378,2.489439017223595,90,254341.0,65,68.5,0,-1,4,0,0,0,3.0,25.0,-1006.0
1777580951.3821812,recenter,right,-,1,,,0,0.13828809099632425,1.2522816144096698,2.3224432324981716,2.4777510194829335,90,254341.0,65,68.5,0,-1,4,0,0,0,3.0,25.0,-1006.0
1777580951.4282088,recenter,right,-,1,,,0,0.13828809099632425,1.2522816144096698,2.3224432324981716,2.4777510194829335,90,254334.0,65,68.5,0,-1,4,0,0,0,-4.0,22.0,-984.0
1777580951.475923,recenter,right,-,1,,,0,0.11555931627706956,1.2649249035760954,2.313019267531746,2.4721462692117626,90,254334.0,65,68.5,0,-1,4,0,0,0,-4.0,22.0,-984.0
1777580951.524888,recenter,right,-,1,,,0,0.13778615313160641,1.2493230382332978,2.316357660332683,2.471001306727811,90,254336.0,65,68.5,0,-1,4,0,0,0,12.0,26.0,-974.0
1777580951.5748422,recenter,right,-,1,,,0,0.13106558140379393,1.28132902909035,2.297883853708087,2.464587034226704,90,254336.0,65,68.5,0,-1,4,0,0,0,12.0,26.0,-974.0
1777580951.621585,recenter,right,-,1,,,0,0.15250597511560307,1.2664058553677422,2.3009173539609113,2.463359057957234,90,254335.0,65,69.0,0,-1,4,0,0,0,24.0,3.0,-984.0
1777580951.67076,recenter,right,-,1,,,0,0.13339309332584467,1.2822806192082958,2.2974044129547933,2.4646054136599167,90,254335.0,65,69.0,0,-1,4,0,0,0,24.0,3.0,-984.0
1777580951.72172,recenter,right,-,1,,,0,0.13647411275668503,1.2498525388673785,2.316212749148895,2.470974710633829,90,254332.00000000003,65,69.0,0,-1,4,0,0,0,-6.0,33.0,-1005.0
1777580951.771777,recenter,right,-,1,,,0,0.16292745653609947,1.233048696396883,2.3188563496443138,2.469333970314186,90,254332.00000000003,65,69.0,0,-1,4,0,0,0,-6.0,33.0,-1005.0
1777580951.8224761,recenter,right,-,1,,,0,0.15283693496227854,1.2657374613872632,2.301227812260617,2.4634345789283123,90,254337.0,65,69.0,0,-1,4,0,0,0,-9.0,30.0,-996.0
1777580951.872386,recenter,right,-,1,,,0,0.13368109806805525,1.2448277278065385,2.3106360951300875,2.4638676282969136,90,254337.0,65,69.0,0,-1,4,0,0,0,-9.0,30.0,-996.0
1777580951.87281,pre_hover,right,x,1,,,0,0.13368109806805525,1.2448277278065385,2.3106360951300875,2.4638676282969136,90,254337.0,65,69.0,0,-1,4,0,0,0,-9.0,30.0,-996.0
1777580951.922558,pre_hover,right,x,1,,,0,0.1494127679793257,1.2642148965129132,2.301583000442834,2.463021695096799,90,254334.0,65,69.0,0,-1,4,0,0,0,-8.0,28.0,-995.0
1777580951.9727218,pre_hover,right,x,1,,,0,0.12935738082739512,1.2777667047027506,2.2917477780709947,2.4575019019631683,90,254334.0,65,69.0,0,-1,4,0,0,0,-8.0,28.0,-995.0
1777580952.0223098,pre_hover,right,x,1,,,0,0.1517443293676503,1.2652680782100805,2.3010819761473,2.463065863840138,90,254342.99999999997,65,69.0,0,-1,4,0,0,0,10.0,19.0,-1015.0
1777580952.0718012,pre_hover,right,x,1,,,0,0.15854347152508017,1.2285428502359235,2.313286702955626,2.4622986531108695,90,254342.99999999997,65,69.0,0,-1,4,0,0,0,10.0,19.0,-1015.0
1777580952.121679,pre_hover,right,x,1,,,0,0.12984232201424684,1.2761161771878724,2.29210518660292,2.4572718146286445,90,254341.0,65,69.0,0,-1,4,0,0,0,9.0,10.0,-999.0
1777580952.171287,pre_hover,right,x,1,,,0,0.1357816271260254,1.243148653386398,2.310984299396547,2.463733900815922,90,254341.0,65,69.0,0,-1,4,0,0,0,9.0,10.0,-999.0
1777580952.221709,pre_hover,right,x,1,,,0,0.12984232201424684,1.2761161771878724,2.29210518660292,2.4572718146286445,90,254338.0,65,69.0,0,0,4,0,0,0,3.0,15.0,-1013.0
1777580952.271714,pre_hover,right,x,1,,,0,0.12984232201424684,1.2761161771878724,2.29210518660292,2.4572718146286445,90,254338.0,65,69.0,0,0,4,0,0,0,3.0,15.0,-1013.0
1777580952.3217778,pre_hover,right,x,1,,,0,0.13834478254198812,1.2449157842805794,2.3101011598487418,2.463653654659591,90,254339.0,65,69.0,0,0,4,0,0,0,-22.0,36.0,-1013.0
1777580952.371865,pre_hover,right,x,1,,,0,0.11318866752447987,1.257499480348561,2.301287065809529,2.4584627702115505,90,254339.0,65,69.0,0,0,4,0,0,0,-22.0,36.0,-1013.0
1777580952.4225368,pre_hover,right,x,1,,,0,0.12969385427109667,1.2771034728277515,2.292127248747266,2.457636735225918,90,254341.0,65,69.0,0,-1,4,0,0,0,19.0,13.0,-992.0
1777580952.472542,pre_hover,right,x,1,,,0,0.13834478254198812,1.2449157842805794,2.3101011598487418,2.463653654659591,90,254341.0,65,69.0,0,-1,4,0,0,0,19.0,13.0,-992.0
1777580952.5234282,pre_hover,right,x,1,,,0,0.15854347152508017,1.2285428502359235,2.313286702955626,2.4622986531108695,90,254335.0,65,69.0,0,-1,4,0,0,0,18.0,4.0,-1006.0
1777580952.573822,pre_hover,right,x,1,,,0,0.12969385427109667,1.2771034728277515,2.292127248747266,2.457636735225918,90,254335.0,65,69.0,0,-1,4,0,0,0,18.0,4.0,-1006.0
1777580952.6235242,pre_hover,right,x,1,,,0,0.1485752313233689,1.2612071101457158,2.295665361760021,2.45638591005426,90,254342.0,65,69.5,0,-1,4,0,0,0,-11.0,38.0,-1003.0
1777580952.672756,pre_hover,right,x,1,,,0,0.13588068207577123,1.2438791484573986,2.3106187483230194,2.4636466014963267,90,254342.0,65,69.5,0,-1,4,0,0,0,-11.0,38.0,-1003.0
1777580952.722898,pre_hover,right,x,1,,,0,0.17152355864397997,1.2495083448770385,2.303983060983486,2.4615894670891922,90,254342.99999999997,65,69.5,0,-1,4,0,0,0,6.0,25.0,-989.0
1777580952.772767,pre_hover,right,x,1,,,0,0.13588068207577123,1.2438791484573986,2.3106187483230194,2.4636466014963267,90,254342.99999999997,65,69.5,0,-1,4,0,0,0,6.0,25.0,-989.0
1777580952.823149,pre_hover,right,x,1,,,0,0.1369836059016265,1.2481562461736675,2.3165158459510917,2.470704189244783,90,254338.0,65,69.5,0,-1,4,0,0,0,6.0,15.0,-1008.0
1777580952.872299,pre_hover,right,x,1,,,0,0.11384233017840291,1.2605846739925164,2.3071796492558736,2.4650849866062856,90,254338.0,65,69.5,0,-1,4,0,0,0,6.0,15.0,-1008.0
1777580952.922196,pre_hover,right,x,1,,,0,0.1198156373967487,1.2272291852935155,2.3259720328273987,2.4716006573597977,90,254342.99999999997,65,69.5,0,-1,4,0,0,0,0.0,20.0,-1014.0
1777580952.971741,pre_hover,right,x,1,,,0,0.1198156373967487,1.2272291852935155,2.3259720328273987,2.4716006573597977,90,254342.99999999997,65,69.5,0,-1,4,0,0,0,0.0,20.0,-1014.0
1777580953.0219562,pre_hover,right,x,1,,,0,0.1278329250882442,1.280254182049194,2.2984436664769854,2.4645551261272045,90,254342.0,65,69.5,0,-1,4,0,0,0,14.0,5.0,-1000.0
1777580953.0720232,pre_hover,right,x,1,,,0,0.10939917993135909,1.2964397441951454,2.2942841986106433,2.4656261637841195,90,254342.0,65,69.5,0,-1,4,0,0,0,14.0,5.0,-1000.0
1777580953.122962,pre_hover,right,x,1,,,0,0.11984155067697726,1.2319961223464033,2.331802495698359,2.4786856242398327,90,254342.0,65,69.5,0,-1,4,0,0,0,14.0,5.0,-1000.0
1777580953.173036,pre_hover,right,x,1,,,0,0.13411131997777337,1.2529842348876472,2.3228273838743805,2.478123283129744,90,254333.0,65,69.5,0,-1,4,0,0,0,2.0,36.0,-1037.0
1777580953.223433,pre_hover,right,x,1,,,0,0.12014345344966107,1.2353158474247121,2.3383123501502925,2.4859387887136446,90,254333.0,65,69.5,0,-1,4,0,0,0,2.0,36.0,-1037.0
1777580953.2732291,pre_hover,right,x,1,,,0,0.12014345344966107,1.2353158474247121,2.3383123501502925,2.4859387887136446,90,254329.0,65,69.5,0,-1,4,0,0,0,-2.0,34.0,-1009.0
1777580953.323257,pre_hover,right,x,1,,,0,0.11435041013458033,1.2707168198259193,2.3189420074894693,2.4796604264949256,90,254329.0,65,69.5,0,-1,4,0,0,0,-2.0,34.0,-1009.0
1777580953.373007,pre_hover,right,x,1,,,0,0.1574511832485502,1.2408002768352437,2.332094276945477,2.4840289243876446,90,254329.0,65,69.5,0,-1,4,0,0,0,-13.0,33.0,-1002.0
1777580953.422712,pre_hover,right,x,1,,,0,0.1369760475563665,1.2571367524227441,2.328847910865032,2.485352780169929,90,254329.0,65,69.5,0,-1,4,0,0,0,-13.0,33.0,-1002.0
1777580953.47205,pre_hover,right,x,1,,,0,0.11478863839479998,1.2742117412478011,2.325379347860598,2.486928167739596,90,254335.0,65,69.5,0,-1,4,0,0,0,-8.0,26.0,-986.0
1777580953.521788,pre_hover,right,x,1,,,0,0.11478863839479998,1.2742117412478011,2.325379347860598,2.486928167739596,90,254335.0,65,69.5,0,-1,4,0,0,0,-8.0,26.0,-986.0
1777580953.571726,pre_hover,right,x,1,,,0,0.12000168967804632,1.241230925621534,2.3442315996321796,2.4934898573007467,90,254335.0,65,69.5,0,-1,4,0,0,0,19.0,8.0,-977.0
1777580953.622238,pre_hover,right,x,1,,,0,0.1495876695092511,1.2795226553147905,2.319482376346017,2.4851428663682404,90,254335.0,65,69.5,0,-1,4,0,0,0,19.0,8.0,-977.0
1777580953.671975,pre_hover,right,x,1,,,0,0.1495876695092511,1.2795226553147905,2.319482376346017,2.4851428663682404,90,254327.0,65,70.0,0,-1,4,0,0,0,-10.0,12.0,-983.0
1777580953.722037,pre_hover,right,x,1,,,0,0.1364838123028176,1.2624113629698563,2.335183430324415,2.493082999673685,90,254327.0,65,70.0,0,-1,4,0,0,0,-10.0,12.0,-983.0
1777580953.770733,pre_hover,right,x,1,,,0,0.13011508909357544,1.2956225861459423,2.315853435802195,2.4864124535847645,90,254332.00000000003,65,70.0,0,-1,4,0,0,0,-3.0,24.0,-996.0
1777580953.82077,pre_hover,right,x,1,,,0,0.11686131352131018,1.2792882595083945,2.33117043486976,2.4942253319052976,90,254332.00000000003,65,70.0,0,-1,4,0,0,0,-3.0,24.0,-996.0
1777580953.87143,pre_hover,right,x,1,,,0,0.1364838123028176,1.2624113629698563,2.335183430324415,2.493082999673685,90,254334.0,65,70.0,0,-1,4,0,0,0,-11.0,32.0,-1010.0
1777580953.9217868,pre_hover,right,x,1,,,0,0.13319509585036945,1.2632395070392208,2.3354043802052686,2.4933986843571283,90,254334.0,65,70.0,0,-1,4,0,0,0,-11.0,32.0,-1010.0
1777580953.972275,pre_hover,right,x,1,,,0,0.11353795192352588,1.2800783159873588,2.331387567305352,2.494553406480627,90,254335.0,65,70.0,0,-1,4,0,0,0,-6.0,27.0,-991.0
1777580954.0226629,pre_hover,right,x,1,,,0,0.1677292691189556,1.2159944427039946,2.3629150153262457,2.5054635115876684,90,254335.0,65,70.0,0,-1,4,0,0,0,-6.0,27.0,-991.0
1777580954.0722141,pre_hover,right,x,1,,,0,0.13642147938662025,1.2677621824901868,2.34142906306124,2.5007822941523723,90,254326.00000000003,65,70.0,0,0,4,0,0,0,-22.0,29.0,-976.0
1777580954.123064,pre_hover,right,x,1,,,0,0.12980331468314535,1.300114116763026,2.3224957816692577,2.494201471327108,90,254326.00000000003,65,70.0,0,0,4,0,0,0,-22.0,29.0,-976.0
1777580954.1732721,pre_hover,right,x,1,,,0,0.13841319962886706,1.2674332881051171,2.3410378575015143,2.50041136083638,90,254341.0,65,70.0,0,0,4,0,0,0,-4.0,27.0,-995.0
1777580954.224015,pre_hover,right,x,1,,,0,0.1387193239748622,1.2667677861711448,2.341371864914028,2.500510279082864,90,254341.0,65,70.0,0,0,4,0,0,0,-4.0,27.0,-995.0
1777580954.273673,pre_hover,right,x,1,,,0,0.14223999203663487,1.2319128942827184,2.3607326439797416,2.5070639990554713,90,254341.0,65,70.0,0,0,4,0,0,0,8.0,20.0,-996.0
1777580954.322869,pre_hover,right,x,1,,,0,0.14223999203663487,1.2319128942827184,2.3607326439797416,2.5070639990554713,90,254341.0,65,70.0,0,0,4,0,0,0,8.0,20.0,-996.0
1777580954.372863,pre_hover,right,x,1,,,0,0.13526356867411116,1.2672075082191852,2.3412752828930223,2.500382979786894,90,254344.99999999997,65,70.0,0,0,4,0,0,0,14.0,1.0,-1008.0
1777580954.421698,pre_hover,right,x,1,,,0,0.1387180703445729,1.2706737840522893,2.3472780012534917,2.507394974160362,90,254344.99999999997,65,70.0,0,0,4,0,0,0,14.0,1.0,-1008.0
1777580954.471565,pre_hover,right,x,1,,,0,0.13541710185956918,1.2676162094844,2.3416395735072997,2.500874161298719,90,254342.99999999997,65,70.0,0,0,4,0,0,0,-13.0,14.0,-993.0
1777580954.521343,pre_hover,right,x,1,,,0,0.15899772277414279,1.2549533657199798,2.3507371613920123,2.506429878403276,90,254342.99999999997,65,70.0,0,0,4,0,0,0,-13.0,14.0,-993.0
1777580954.570631,pre_hover,right,x,1,,,0,0.13507982729286516,1.2682827322916461,2.341305203173976,2.5007741835973216,90,254337.0,65,70.0,0,0,4,0,0,0,-4.0,36.0,-994.0
1777580954.620984,pre_hover,right,x,1,,,0,0.1834693120158824,1.2424207426028704,2.359131160863466,2.5117391445323616,90,254337.0,65,70.0,0,0,4,0,0,0,-4.0,36.0,-994.0
1777580954.670906,pre_hover,right,x,1,,,0,0.13576394263134053,1.2717647855728411,2.347871897422918,2.5081682830687337,90,254328.00000000003,65,70.0,0,0,4,0,0,0,25.0,9.0,-996.0
1777580954.7206678,pre_hover,right,x,1,,,0,0.11384263041224972,1.288631395540937,2.343778087470063,2.50916751631792,90,254328.00000000003,65,70.0,0,0,4,0,0,0,25.0,9.0,-996.0
1777580954.770609,pre_hover,right,x,1,,,0,0.11941255166184987,1.2539328907863565,2.3636276585364335,2.515988165246323,90,254340.0,65,70.0,0,0,4,0,0,0,-26.0,39.0,-1008.0
1777580954.821833,pre_hover,right,x,1,,,0,0.11384263041224972,1.288631395540937,2.343778087470063,2.50916751631792,90,254340.0,65,70.0,0,0,4,0,0,0,-26.0,39.0,-1008.0
1777580954.871957,pre_hover,right,x,1,,,0,0.11384263041224972,1.288631395540937,2.343778087470063,2.50916751631792,90,254342.99999999997,65,70.0,0,0,4,0,0,0,26.0,1.0,-975.0
1777580954.9224892,response,right,x,1,1777580954.9222898,0.00019931793212890625,0,0.13672222778946147,1.2758212823310684,2.3535909550037166,2.5149843477904703,90,254342.99999999997,65,70.0,0,0,4,0,0,0,26.0,1.0,-975.0
1777580954.972099,response,right,x,1,1777580954.9222898,0.04980921745300293,0,0.12064612978429955,1.2579020745295666,2.3694490965187227,2.522863547460991,90,254340.0,65,70.0,0,0,4,0,0,0,6.0,26.0,-1013.0
1777580955.021458,response,right,x,1,1777580954.9222898,0.09916806221008301,0,0.12000803385545032,1.2569949576353971,2.3698908854029686,2.522939772233656,90,254340.0,65,70.0,0,0,4,0,0,0,6.0,26.0,-1013.0
1777580955.071149,response,right,x,1,1777580954.9222898,0.14885926246643066,0,0.12064612978429955,1.2579020745295666,2.3694490965187227,2.522863547460991,90,254338.0,65,70.0,0,0,4,0,0,0,26.0,8.0,-1001.0
1777580955.121383,response,right,x,1,1777580954.9222898,0.19909310340881348,0,0.12704325764489857,1.2216217244403347,2.389100213062699,2.5296248882871097,90,254338.0,65,70.0,0,0,4,0,0,0,26.0,8.0,-1001.0
1777580955.170963,response,right,x,1,1777580954.9222898,0.2486732006072998,0,0.1021911346587158,1.2361637523656155,2.378956694501953,2.523697248698552,90,254336.0,65,70.0,0,3,4,0,0,0,12.0,12.0,-988.0
1777580955.218858,response,right,x,1,1777580954.9222898,0.2965681552886963,0,0.13522572925213197,1.279243907362135,2.3602210307486637,2.522300370787248,90,254336.0,65,70.0,0,3,4,0,0,0,12.0,12.0,-988.0
1777580955.265753,response,right,x,1,1777580954.9222898,0.3434631824493408,0,0.12169457951287385,1.2580390070048195,2.369259706121341,2.5227826032527685,90,254335.0,65,70.0,0,3,4,0,1,0,18.0,12.0,-973.0
1777580955.312377,response,right,x,1,1777580954.9222898,0.3900871276855469,0,0.10077265918112457,1.275060824072539,2.364953694156869,2.5236664894892846,90,254335.0,65,70.0,0,3,4,0,1,0,18.0,12.0,-973.0
1777580955.359997,response,right,x,1,1777580954.9222898,0.43770718574523926,0,0.1258955810023515,1.258539100702689,2.3685703327043397,2.5225115471922916,90,254337.0,65,70.0,0,2,4,0,1,0,-8.0,20.0,-999.0
1777580955.409965,response,right,x,1,1777580954.9222898,0.48767518997192383,0,0.12800065434869148,1.2587605646359896,2.3682665904458324,2.522407682812107,90,254337.0,65,70.0,0,2,4,0,1,0,-8.0,20.0,-999.0
1777580955.4591238,response,right,x,1,1777580954.9222898,0.5368340015411377,0,0.16249807488573123,1.2980699964142195,2.34205967647491,2.513598788782881,90,254329.0,65,70.0,0,0,4,0,2,0,-5.0,16.0,-1016.0
1777580955.509253,response,right,x,1,1777580954.9222898,0.5869631767272949,0,0.129469886224004,1.2935558633045026,2.348381495458428,2.5159690340893053,90,254329.0,65,70.0,0,0,4,0,2,0,-5.0,16.0,-1016.0
1777580955.5602932,response,right,x,1,1777580954.9222898,0.6380033493041992,0,0.15084440129449667,1.3104683302594555,2.3321714351071914,2.508132814772231,90,254334.0,65,70.0,0,0,4,0,2,0,3.0,18.0,-1004.0
1777580955.6101649,response,right,x,1,1777580954.9222898,0.6878750324249268,0,0.1758656623637606,1.2957976396414974,2.334620035597933,2.5067574380065607,90,254334.0,65,70.0,0,0,4,0,2,0,3.0,18.0,-1004.0
1777580955.657742,response,right,x,1,1777580954.9222898,0.7354521751403809,0,0.20440375823635903,1.2845475405560536,2.3423945922636675,2.5121738940111182,90,254331.0,65,69.5,0,0,4,0,2,0,-18.0,13.0,-1002.0
1777580955.706444,response,right,x,1,1777580954.9222898,0.7841541767120361,0,0.19279483498753686,1.2619495544853696,2.352863152920905,2.51318361829141,90,254331.0,65,69.5,0,0,4,0,2,0,-18.0,13.0,-1002.0
1777580955.755612,response,right,x,1,1777580954.9222898,0.8333220481872559,0,0.1991642677542592,1.2625089430592698,2.3530624343232653,2.5140586513107923,90,254328.00000000003,65,69.5,0,0,4,0,2,0,-4.0,7.0,-1008.0
1777580955.805745,response,right,x,1,1777580954.9222898,0.8834550380706787,0,0.25216635868117904,1.2369835893430046,2.36026330430427,2.5169370804462585,90,254328.00000000003,65,69.5,0,0,4,0,2,0,-4.0,7.0,-1008.0
1777580955.856255,response,right,x,1,1777580954.9222898,0.9339652061462402,0,0.23672468656725454,1.299945134289191,2.326509608392195,2.5057108332571736,90,254329.0,65,69.5,0,0,4,0,2,0,11.0,6.0,-1007.0
1777580955.906032,response,right,x,1,1777580954.9222898,0.9837422370910645,0,0.21671435745315745,1.3110484190461396,2.319288664400341,2.5012145536496315,90,254329.0,65,69.5,0,0,4,0,2,0,11.0,6.0,-1007.0
1777580955.955364,response,right,x,1,1777580954.9222898,1.033074140548706,0,0.27225908306682056,1.287834731429354,2.3263324122009066,2.5048349268367183,90,254332.00000000003,65,69.5,0,0,4,0,2,0,-18.0,7.0,-998.0
1777580956.0053408,response,right,x,1,1777580954.9222898,1.0830509662628174,0,0.296148480447235,1.2740820886892803,2.3264259027599214,2.5027946182759253,90,254332.00000000003,65,69.5,0,0,4,0,2,0,-18.0,7.0,-998.0
1777580956.0551848,response,right,x,1,1777580954.9222898,1.1328949928283691,0,0.30226053940990927,1.2693198793348004,2.321417997443013,2.497210444704925,90,254336.0,65,69.5,0,0,4,0,2,0,-11.0,11.0,-1010.0
1777580956.104238,response,right,x,1,1777580954.9222898,1.181948184967041,0,0.2847183052540269,1.2829717834280587,2.322160779154874,2.5006267950100076,90,254336.0,65,69.5,0,0,4,0,2,0,-11.0,11.0,-1010.0
1777580956.153234,response,right,x,1,1777580954.9222898,1.2309441566467285,0,0.3005387230956449,1.300722260965856,2.3066263506111326,2.494423628178068,100,254342.99999999997,65,69.5,0,0,4,0,2,0,8.0,1.0,-1008.0
1777580956.202207,response,right,x,1,1777580954.9222898,1.2799172401428223,0,0.34169526098730135,1.2602014154396712,2.3272272893382504,2.5045336856880676,100,254342.99999999997,65,69.5,0,0,4,0,2,0,8.0,1.0,-1008.0
1777580956.251521,response,right,x,1,1777580954.9222898,1.3292312622070312,0,0.37334486757152424,1.2488519851915867,2.3247937662363327,2.502918723897564,100,254344.0,65,69.5,0,-1,4,0,2,0,-11.0,9.0,-1015.0
1777580956.3004658,response,right,x,1,1777580954.9222898,1.378175973892212,0,0.36469911537421157,1.2756482167979302,2.3061100610416245,2.4935735116441893,100,254344.0,65,69.5,0,-1,4,0,2,0,-11.0,9.0,-1015.0
1777580956.349211,response,right,x,1,1777580954.9222898,1.4269211292266846,0,0.35502419336503754,1.3021701434039477,2.293274477196157,2.48979135135523,100,254333.0,65,69.5,0,-3,4,0,2,0,16.0,4.0,-993.0
1777580956.402205,response,right,x,1,1777580954.9222898,1.4799151420593262,0,0.4036769953926439,1.282698160509566,2.293455225620268,2.4903911401828265,100,254333.0,65,69.5,0,-3,4,0,2,0,16.0,4.0,-993.0
1777580956.4529479,response,right,x,1,1777580954.9222898,1.5306580066680908,0,0.38885830751266043,1.2926999021093553,2.2989050064583916,2.496615334260991,100,254341.0,65,69.5,0,-5,4,0,1,0,-19.0,31.0,-1015.0
1777580956.502815,response,right,x,1,1777580954.9222898,1.5805251598358154,0,0.41435771517894515,1.282552311231111,2.2955293006236897,2.4940019382930676,100,254341.0,65,69.5,0,-5,4,0,1,0,-19.0,31.0,-1015.0
1777580956.5535848,response,right,x,1,1777580954.9222898,1.6312949657440186,0,0.41909021815562375,1.2818961210415396,2.296626023747552,2.49556976905402,100,254338.0,65,69.5,0,-3,4,0,0,0,26.0,-1.0,-1006.0
1777580956.604606,response,right,x,1,1777580954.9222898,1.6823160648345947,0,0.423454640646095,1.2792397119236778,2.2970982928278594,2.495803852593591,100,254338.0,65,69.5,0,-3,4,0,0,0,26.0,-1.0,-1006.0
1777580956.65533,response,right,x,1,1777580954.9222898,1.7330400943756104,0,0.46935266251391705,1.2599790189560904,2.2944488401773144,2.49486498934203,90,254344.0,65,70.0,0,-2,4,0,0,0,6.0,7.0,-980.0
1777580956.705152,response,right,x,1,1777580954.9222898,1.7828621864318848,0,0.4448617659685747,1.265190072745852,2.287529014009559,2.4858086898903133,90,254344.0,65,70.0,0,-2,4,0,0,0,6.0,7.0,-980.0
1777580956.7548301,response,right,x,1,1777580954.9222898,1.8325402736663818,0,0.4457666371761708,1.2638451022953108,2.287948221315963,2.485888838826432,100,254338.0,65,70.0,0,-1,4,0,0,0,17.0,7.0,-998.0
1777580956.80548,response,right,x,1,1777580954.9222898,1.8831901550292969,0,0.4475578629771277,1.2656095603925532,2.294556029717095,2.4929049972405126,100,254338.0,65,70.0,0,-1,4,0,0,0,17.0,7.0,-998.0
1777580956.8551412,response,right,x,1,1777580954.9222898,1.9328513145446777,0,0.4704012693479113,1.2558512273720925,2.289005885577785,2.4886354939621396,100,254334.0,65,70.0,0,-1,4,0,0,0,-2.0,22.0,-1014.0
1777580956.9051058,response,right,x,1,1777580954.9222898,1.9828159809112549,0,0.4704012693479113,1.2558512273720925,2.289005885577785,2.4886354939621396,100,254334.0,65,70.0,0,-1,4,0,0,0,-2.0,22.0,-1014.0
1777580956.95574,response,right,x,1,1777580954.9222898,2.033450126647949,0,0.45481732598595276,1.2808207064849606,2.2786269988722534,2.4849235233663127,100,254341.0,65,70.0,0,-1,4,0,0,0,-3.0,18.0,-1005.0
1777580957.006382,response,right,x,1,1777580954.9222898,2.084092140197754,0,0.4525417552401721,1.2781978312134639,2.272413566504883,2.47787991803867,100,254341.0,65,70.0,0,-1,4,0,0,0,-3.0,18.0,-1005.0
1777580957.056052,response,right,x,1,1777580954.9222898,2.1337621212005615,0,0.4475546898263647,1.2611480917889324,2.2888218670343305,2.4860785939691876,90,254332.00000000003,65,70.0,0,-1,4,0,0,0,22.0,7.0,-1002.0
1777580957.1065001,response,right,x,1,1777580954.9222898,2.1842103004455566,0,0.471315586119626,1.2545149914134561,2.289412128660554,2.4887229952583465,90,254332.00000000003,65,70.0,0,-1,4,0,0,0,22.0,7.0,-1002.0
1777580957.157491,response,right,x,1,1777580954.9222898,2.235201120376587,0,0.4537078125777712,1.2780177875847942,2.2727162226746414,2.4783068904633043,90,254334.0,65,70.0,0,-1,4,0,0,0,22.0,-2.0,-980.0
1777580957.207297,response,right,x,1,1777580954.9222898,2.2850072383880615,0,0.4465763785761271,1.2555246290741815,2.2839262460005414,2.4794499289206886,90,254334.0,65,70.0,0,-1,4,0,0,0,22.0,-2.0,-980.0
1777580957.256722,response,right,x,1,1777580954.9222898,2.3344321250915527,0,0.4465763785761271,1.2555246290741815,2.2839262460005414,2.4794499289206886,90,254334.0,65,70.0,0,-1,4,0,0,0,16.0,20.0,-1004.0
1777580957.305954,response,right,x,1,1777580954.9222898,2.383664131164551,0,0.4465763785761271,1.2555246290741815,2.2839262460005414,2.4794499289206886,90,254334.0,65,70.0,0,-1,4,0,0,0,16.0,20.0,-1004.0
1777580957.355099,response,right,x,1,1777580954.9222898,2.4328091144561768,0,0.4465763785761271,1.2555246290741815,2.2839262460005414,2.4794499289206886,90,254334.0,65,70.0,0,-1,4,0,0,0,16.0,20.0,-1004.0
1777580957.404806,response,right,x,1,1777580954.9222898,2.482516050338745,0,0.4703546838184311,1.2485080016264414,2.2843358746264317,2.481811786884601,90,254338.0,65,70.0,0,-1,4,0,0,0,-16.0,28.0,-1005.0
1777580957.455189,response,right,x,1,1777580954.9222898,2.5328991413116455,0,0.4465024513617894,1.2551091595767652,2.2838390860860205,2.4792129971017816,90,254338.0,65,70.0,0,-1,4,0,0,0,-16.0,28.0,-1005.0
1777580957.50492,response,right,x,1,1777580954.9222898,2.582630157470703,0,0.43035751133321143,1.2836720863112112,2.2716093477127153,2.4751349402208986,90,254346.99999999997,65,70.0,0,-1,4,0,0,0,-12.0,34.0,-989.0
1777580957.555747,response,right,x,1,1777580954.9222898,2.6334571838378906,0,0.4669093182372747,1.2462477274351635,2.2778052774923268,2.4743759637164824,90,254346.99999999997,65,70.0,0,-1,4,0,0,0,-12.0,34.0,-989.0
1777580957.605515,response,right,x,1,1777580954.9222898,2.683225154876709,0,0.4848315049536757,1.2173827061773315,2.2883755188214123,2.4778697689133287,90,254337.0,65,70.0,0,-1,4,0,0,0,-12.0,29.0,-982.0
1777580957.6551669,response,right,x,1,1777580954.9222898,2.732877016067505,0,0.4482828528183565,1.2698165111811959,2.260986590666461,2.4636555445978923,90,254337.0,65,70.0,0,-1,4,0,0,0,-12.0,29.0,-982.0
1777580957.704407,response,right,x,1,1777580954.9222898,2.7821171283721924,0,0.4482828528183565,1.2698165111811959,2.260986590666461,2.4636555445978923,90,254336.0,65,69.5,0,-1,4,0,0,0,11.0,16.0,-1018.0
1777580957.754069,response,right,x,1,1777580954.9222898,2.8317792415618896,0,0.4640051900510951,1.2448483142101991,2.2708941524365924,2.4669879898347453,90,254336.0,65,69.5,0,-1,4,0,0,0,11.0,16.0,-1018.0
1777580957.8038201,response,right,x,1,1777580954.9222898,2.881530284881592,0,0.44713201800039426,1.2699949784032725,2.260689004031655,2.463236301477723,90,254342.99999999997,65,69.5,0,0,4,0,0,0,0.0,8.0,-999.0
1777580957.8540401,response,right,x,1,1777580954.9222898,2.9317502975463867,0,0.4389574644062012,1.2517280792907859,2.270341957831575,2.464259925839968,90,254342.99999999997,65,69.5,0,0,4,0,0,0,0.0,8.0,-999.0
1777580957.9033148,response,right,x,1,1777580954.9222898,2.981024980545044,0,0.43912647944918565,1.2490048578707422,2.271335418866923,2.4642657930184675,90,254344.99999999997,65,69.5,0,0,4,0,0,0,8.0,18.0,-1005.0
1777580957.953395,response,right,x,1,1777580954.9222898,3.0311050415039062,0,0.46077155060217606,1.2407204668344445,2.265513618377923,2.460014894315579,90,254344.99999999997,65,69.5,0,0,4,0,0,0,8.0,18.0,-1005.0
1777580958.0035489,response,right,x,1,1777580954.9222898,3.08125901222229,0,0.4411134185864488,1.2505712572216856,2.270115987518296,2.4640371564679926,90,254335.0,65,69.5,0,-1,4,0,0,0,5.0,9.0,-963.0
1777580958.052706,response,right,x,1,1777580954.9222898,3.13041615486145,0,0.4598681597680586,1.2420297835815535,2.265130478071133,2.4599408455273104,90,254335.0,65,69.5,0,-1,4,0,0,0,5.0,9.0,-963.0
1777580958.102967,response,right,x,1,1777580954.9222898,3.1806771755218506,0,0.4365160958140138,1.2486092372146471,2.2644565169464537,2.457325224005158,90,254338.0,65,69.5,0,0,4,0,0,0,1.0,3.0,-985.0
1777580958.152504,response,right,x,1,1777580954.9222898,3.2302141189575195,0,0.42064054815846125,1.2740620281513149,2.253325360192153,2.4532423603664064,90,254338.0,65,69.5,0,0,4,0,0,0,1.0,3.0,-985.0
1777580958.202055,response,right,x,1,1777580954.9222898,3.2797651290893555,0,0.4330791546639525,1.2470941928278436,2.265504337045585,2.457160154914501,90,254336.0,65,69.5,0,0,4,0,0,0,2.0,10.0,-982.0
1777580958.2522519,response,right,x,1,1777580954.9222898,3.3299620151519775,0,0.4547929528833189,1.2388592904105473,2.259737868586638,2.452944510955129,90,254336.0,65,69.5,0,0,4,0,0,0,2.0,10.0,-982.0
1777580958.3016808,response,right,x,1,1777580954.9222898,3.3793909549713135,0,0.43883879783697005,1.2651911275871401,2.2490822375289077,2.4493889215293154,90,254337.0,65,69.5,0,0,4,0,0,0,-23.0,34.0,-1007.0
1777580958.351378,response,right,x,1,1777580954.9222898,3.4290881156921387,0,0.42144268025751724,1.2756729543286731,2.2518769237253857,2.452624458675289,90,254337.0,65,69.5,0,0,4,0,0,0,-23.0,34.0,-1007.0
1777580958.400372,response,right,x,1,1777580954.9222898,3.4780821800231934,0,0.453877628699631,1.2401547398998607,2.2593772791420563,2.4528861731261737,90,254337.0,65,69.5,0,0,4,0,0,0,10.0,24.0,-1023.0
1777580958.450138,response,right,x,1,1777580954.9222898,3.527848243713379,0,0.4376992314774927,1.2653512427434577,2.2488114226527407,2.4489928961120073,90,254337.0,65,69.5,0,0,4,0,0,0,10.0,24.0,-1023.0
1777580958.499545,response,right,x,1,1777580954.9222898,3.5772552490234375,0,0.4395552222746723,1.2668448557863785,2.247698556274429,2.4488318842481607,90,254342.0,65,69.5,0,0,4,0,0,0,24.0,0.0,-1002.0
1777580958.549626,response,right,x,1,1777580954.9222898,3.627336263656616,0,0.41756841158658703,1.2758385481235979,2.246007933431817,2.4466320070196206,90,254342.0,65,69.5,0,0,4,0,0,0,24.0,0.0,-1002.0
1777580958.59894,response,right,x,1,1777580954.9222898,3.676650047302246,0,0.41756841158658703,1.2758385481235979,2.246007933431817,2.4466320070196206,90,254334.0,65,69.5,0,-1,4,0,0,0,2.0,9.0,-969.0
1777580958.648214,response,right,x,1,1777580954.9222898,3.725924253463745,0,0.4547577496982441,1.2397103392255326,2.2524387368884757,2.446507373409821,90,254334.0,65,69.5,0,-1,4,0,0,0,2.0,9.0,-969.0
1777580958.6981518,response,right,x,1,1777580954.9222898,3.775861978530884,0,0.4550011575067218,1.240874683710732,2.2523220053407864,2.4468450508318713,90,254338.0,65,70.0,0,-1,4,0,0,0,-18.0,36.0,-1010.0
1777580958.747864,response,right,x,1,1777580954.9222898,3.8255741596221924,0,0.4325994212411967,1.2507591515429488,2.2577654423254123,2.451211575068778,90,254338.0,65,70.0,0,-1,4,0,0,0,-18.0,36.0,-1010.0
1777580958.797601,response,right,x,1,1777580954.9222898,3.8753111362457275,0,0.43572055910799,1.2685291125439,2.2418503646974197,2.443376410350977,90,254330.00000000003,65,70.0,0,-1,4,0,0,0,0.0,18.0,-1001.0
1777580958.846528,response,right,x,1,1777580954.9222898,3.9242382049560547,0,0.4328676840375894,1.251929447666595,2.2576441474688393,2.4515536527446993,90,254330.00000000003,65,70.0,0,-1,4,0,0,0,0.0,18.0,-1001.0
1777580958.8962271,response,right,x,1,1777580954.9222898,3.9739372730255127,0,0.4328676840375894,1.251929447666595,2.2576441474688393,2.4515536527446993,90,254333.0,65,70.0,0,-1,4,0,0,0,16.0,27.0,-1017.0
1777580958.945754,response,right,x,1,1777580954.9222898,4.023464202880859,0,0.45410838993179636,1.2436465717204084,2.252101602924528,2.4474304071162627,90,254341.0,65,70.0,0,-1,4,0,0,0,-21.0,45.0,-1031.0
1777580958.995265,response,right,x,1,1777580954.9222898,4.072975158691406,0,0.4361682356317293,1.2703892501825074,2.2416176291496392,2.443904615962295,90,254341.0,65,70.0,0,-1,4,0,0,0,-21.0,45.0,-1031.0
1777580959.044529,response,right,x,1,1777580954.9222898,4.122239112854004,0,0.4361682356317293,1.2703892501825074,2.2416176291496392,2.443904615962295,90,254341.0,65,70.0,0,-1,4,0,0,0,-21.0,45.0,-1031.0
1777580959.0931652,response,right,x,1,1777580954.9222898,4.170875310897827,0,0.4178448624908342,1.2816758900666119,2.2450810987326415,2.447924803608416,90,254333.0,65,70.0,0,-1,4,0,0,0,22.0,11.0,-1010.0
1777580959.142175,response,right,x,1,1777580954.9222898,4.2198851108551025,0,0.4317022503846005,1.2559188489276196,2.2563167731210374,2.4515157126977667,90,254333.0,65,70.0,0,-1,4,0,0,0,22.0,11.0,-1010.0
1777580959.19193,response,right,x,1,1777580954.9222898,4.269640207290649,0,0.4722606645856539,1.221267106262593,2.267861512584331,2.4577847007834324,90,254334.0,65,70.0,0,-1,4,0,0,0,0.0,11.0,-1002.0
1777580959.2410188,response,right,x,1,1777580954.9222898,4.318728923797607,0,0.41448778742254244,1.2802852199573937,2.2460420784238004,2.4477351189310044,90,254334.0,65,70.0,0,-1,4,0,0,0,0.0,11.0,-1002.0
1777580959.290213,response,right,x,1,1777580954.9222898,4.367923259735107,0,0.41448778742254244,1.2802852199573937,2.2460420784238004,2.4477351189310044,90,254342.99999999997,65,70.0,0,-1,4,0,0,0,11.0,10.0,-981.0
1777580959.339201,response,right,x,1,1777580954.9222898,4.4169111251831055,0,0.41448778742254244,1.2802852199573937,2.2460420784238004,2.4477351189310044,90,254342.99999999997,65,70.0,0,-1,4,0,0,0,11.0,10.0,-981.0
1777580959.3892,response,right,x,1,1777580954.9222898,4.466910123825073,0,0.4388643038283421,1.273925361291689,2.246449934348513,2.4500785133987,90,254346.0,65,70.0,0,-1,4,0,0,0,4.0,6.0,-977.0
1777580959.4380789,response,right,x,1,1777580954.9222898,4.515789031982422,0,0.4322944448291109,1.257820490807312,2.2624784427491527,2.457955082051671,90,254346.0,65,70.0,0,-1,4,0,0,0,4.0,6.0,-977.0
1777580959.4883451,response,right,x,1,1777580954.9222898,4.5660552978515625,0,0.4325145463343594,1.2575288656724903,2.2623026905614507,2.457730264283277,100,254344.0,65,70.0,0,-1,4,0,0,0,16.0,-1.0,-982.0
1777580959.537952,response,right,x,1,1777580954.9222898,4.615662097930908,0,0.4325145463343594,1.2575288656724903,2.2623026905614507,2.457730264283277,100,254344.0,65,70.0,0,-1,4,0,0,0,16.0,-1.0,-982.0
1777580959.5878248,response,right,x,1,1777580954.9222898,4.665534973144531,0,0.43958743937954886,1.2783199030186405,2.2513091130174177,2.4562320108764593,100,254334.0,65,70.0,0,-1,4,0,0,0,9.0,5.0,-974.0
1777580959.6373482,response,right,x,1,1777580954.9222898,4.715058326721191,0,0.45235402515461237,1.2521827606928522,2.2631568061034844,2.460227296553754,100,254334.0,65,70.0,0,-1,4,0,0,0,9.0,5.0,-974.0
1777580959.686775,response,right,x,1,1777580954.9222898,4.764485120773315,0,0.4328606611500791,1.2582618042160667,2.2685939279401337,2.4638384862718468,100,254336.0,65,69.5,0,0,4,0,0,0,4.0,32.0,-1004.0
1777580959.736259,response,right,x,1,1777580954.9222898,4.813969135284424,0,0.3944515929510528,1.2934396715148422,2.25404328786114,2.456529594645672,100,254336.0,65,69.5,0,0,4,0,0,0,4.0,32.0,-1004.0
1777580959.786282,response,right,x,1,1777580954.9222898,4.863992214202881,0,0.43601110562113743,1.2756907433013773,2.2525192080769845,2.4557652055692234,100,254344.0,65,69.5,0,0,4,0,0,0,-4.0,16.0,-980.0
1777580959.836145,response,right,x,1,1777580954.9222898,4.913855075836182,0,0.4540664100885793,1.2486686859432432,2.263183835940264,2.4593527438195295,100,254344.0,65,69.5,0,0,4,0,0,0,-4.0,16.0,-980.0
1777580959.8859892,response,right,x,1,1777580954.9222898,4.9636993408203125,0,0.4096334501762039,1.268797526956944,2.27240934740736,2.4670737622807524,100,254340.0,65,69.5,0,-1,4,0,0,0,2.0,35.0,-1003.0
1777580959.9364312,response,right,x,1,1777580954.9222898,5.014141321182251,0,0.42923573506175894,1.2583619699793123,2.268683421506331,2.4633215492051472,100,254340.0,65,69.5,0,-1,4,0,0,0,2.0,35.0,-1003.0
1777580959.986746,response,right,x,1,1777580954.9222898,5.064456224441528,0,0.4152750461304969,1.2842011169734473,2.256189826747288,2.4585885205771496,90,254337.0,65,69.5,0,0,4,0,0,0,-2.0,27.0,-998.0
1777580960.036624,response,right,x,1,1777580954.9222898,5.1143341064453125,0,0.3927190410362454,1.291367942439378,2.254003415250965,2.455462573521342,90,254337.0,65,69.5,0,0,4,0,0,0,-2.0,27.0,-998.0
1777580960.086474,response,right,x,1,1777580954.9222898,5.164184093475342,0,0.427815889392647,1.2573431648786875,2.268564960753498,2.4626105495468718,90,254338.0,65,69.5,0,0,4,0,0,0,-1.0,14.0,-999.0
1777580960.136496,response,right,x,1,1777580954.9222898,5.214206218719482,0,0.40790727788398057,1.2666547334029772,2.272390112297686,2.4660161387851445,90,254338.0,65,69.5,0,0,4,0,0,0,-1.0,14.0,-999.0
1777580960.186835,response,right,x,1,1777580954.9222898,5.264545202255249,0,0.4510725014349696,1.24909504887259,2.2695182995755974,2.4647803382206814,90,254334.0,65,69.5,0,0,4,0,0,0,12.0,13.0,-998.0
1777580960.2370958,response,right,x,1,1777580954.9222898,5.31480598449707,0,0.4460574970493722,1.2281075039665459,2.2794391311464826,2.465881603281367,90,254334.0,65,69.5,0,0,4,0,0,0,12.0,13.0,-998.0
1777580960.2864158,response,right,x,1,1777580954.9222898,5.364125967025757,0,0.40762590172139823,1.2655119895266562,2.2725139599218687,2.4656823756940685,90,254337.0,65,69.5,0,0,4,0,0,0,0.0,15.0,-999.0
1777580960.335605,response,right,x,1,1777580954.9222898,5.413315057754517,0,0.40762590172139823,1.2655119895266562,2.2725139599218687,2.4656823756940685,90,254337.0,65,69.5,0,0,4,0,0,0,0.0,15.0,-999.0
1777580960.385299,response,right,x,1,1777580954.9222898,5.4630091190338135,0,0.4241059992983953,1.2397735862419548,2.2903830698128065,2.476073541168699,90,254334.0,65,69.5,0,0,4,0,0,0,5.0,4.0,-988.0
1777580960.433794,response,right,x,1,1777580954.9222898,5.511504173278809,0,0.42384461449967603,1.2386042043466423,2.290500844365938,2.4757413812491236,90,254334.0,65,69.5,0,0,4,0,0,0,5.0,4.0,-988.0
1777580960.4822679,response,right,x,1,1777580954.9222898,5.559978008270264,0,0.44609624582179264,1.2288755667776865,2.284852013942982,2.4711506007033703,90,254334.0,65,69.5,0,0,4,0,0,0,13.0,0.0,-987.0
1777580960.5320032,response,right,x,1,1777580954.9222898,5.609713315963745,0,0.383822354181389,1.2717821856337057,2.2767962600393976,2.468020459495223,90,254334.0,65,69.5,0,0,4,0,0,0,13.0,0.0,-987.0
1777580960.5811179,response,right,x,1,1777580954.9222898,5.658828020095825,0,0.4456835677206933,1.2237009479841296,2.2861182588690654,2.4705169070015947,90,254338.0,65,69.5,0,0,4,0,0,0,26.0,1.0,-1001.0
1777580960.6306188,response,right,x,1,1777580954.9222898,5.70832896232605,0,0.4456835677206933,1.2237009479841296,2.2861182588690654,2.4705169070015947,90,254338.0,65,69.5,0,0,4,0,0,0,26.0,1.0,-1001.0
1777580960.6800718,response,right,x,1,1777580954.9222898,5.757781982421875,0,0.3970772504360905,1.2418177613008567,2.2893785521903256,2.4713521888400574,90,254325.0,65,69.5,0,0,4,0,0,0,-12.0,11.0,-995.0
1777580960.730054,response,right,x,1,1777580954.9222898,5.807764053344727,0,0.44422145861094353,1.2255464999859194,2.284977825466228,2.469814444609515,90,254325.0,65,69.5,0,0,4,0,0,0,-12.0,11.0,-995.0
1777580960.779687,response,right,x,1,1777580954.9222898,5.857397079467773,0,0.42134070136775276,1.23300340198496,2.290862575476019,2.473757060437465,90,254332.00000000003,65,69.5,0,0,4,0,0,0,7.0,14.0,-1012.0
1777580960.829099,response,right,x,1,1777580954.9222898,5.906809091567993,0,0.42689097100926743,1.250847725984606,2.2744139348763714,2.4655904974472604,90,254332.00000000003,65,69.5,0,0,4,0,0,0,7.0,14.0,-1012.0
1777580960.879143,response,right,x,1,1777580954.9222898,5.956853151321411,0,0.44057995665883654,1.2217158436052484,2.2862422790141212,2.469054755203511,90,254332.00000000003,65,69.5,0,0,4,0,0,0,7.0,14.0,-1012.0
1777580960.928144,response,right,x,1,1777580954.9222898,6.00585412979126,0,0.44057995665883654,1.2217158436052484,2.2862422790141212,2.469054755203511,90,254332.00000000003,65,69.5,0,0,4,0,0,0,14.0,17.0,-1010.0
1777580960.9778008,response,right,x,1,1777580954.9222898,6.055510997772217,0,0.44235342737896743,1.222277422867168,2.2851056260693,2.4685065195710054,90,254332.00000000003,65,69.5,0,0,4,0,0,0,14.0,17.0,-1010.0
1777580961.026536,response,right,x,1,1777580954.9222898,6.104246139526367,0,0.42523657080235056,1.248814871836848,2.2744078488387216,2.4645981195031226,90,254344.99999999997,65,69.5,0,0,4,0,0,0,-5.0,38.0,-1030.0
1777580961.075648,response,right,x,1,1777580954.9222898,6.153358221054077,0,0.42356201118859227,1.2469884654684642,2.267962265119592,2.457732099714112,90,254344.99999999997,65,69.5,0,0,4,0,0,0,-5.0,38.0,-1030.0
1777580961.125175,response,right,x,1,1777580954.9222898,6.202885150909424,0,0.4406683278645214,1.2178530193351396,2.279608465664561,2.4616431287146505,90,254336.0,65,69.5,0,0,4,0,0,0,9.0,11.0,-1002.0
1777580961.1746812,response,right,x,1,1777580954.9222898,6.252391338348389,0,0.4342759855709438,1.1994912145276035,2.2958999579593504,2.4696028933227674,90,254336.0,65,69.5,0,0,4,0,0,0,9.0,11.0,-1002.0
1777580961.223708,response,right,x,1,1777580954.9222898,6.30141806602478,0,0.3924341060215837,1.2344638281602527,2.283627455960659,2.462780697848303,90,254342.0,65,69.5,0,0,4,0,0,0,17.0,21.0,-1015.0
1777580961.272761,response,right,x,1,1777580954.9222898,6.350471258163452,0,0.400550807953549,1.2561818165077914,2.272555307318854,2.4612996317990046,90,254342.0,65,69.5,0,0,4,0,0,0,17.0,21.0,-1015.0
1777580961.32226,response,right,x,1,1777580954.9222898,6.399970054626465,0,0.43953112470160205,1.2179909249268706,2.2794018303639443,2.4612942666635114,90,254342.0,65,69.5,0,0,4,0,0,0,-2.0,10.0,-1002.0
1777580961.371813,response,right,x,1,1777580954.9222898,6.449523210525513,0,0.3909958247124103,1.2326409683268902,2.2771426811736735,2.455920908234161,90,254342.0,65,69.5,0,0,4,0,0,0,-2.0,10.0,-1002.0
1777580961.421321,response,right,x,1,1777580954.9222898,6.499031066894531,0,0.4050349885689678,1.271034415160596,2.249896093132767,2.4463823749065297,90,254339.0,65,69.5,0,0,4,0,0,0,-7.0,24.0,-1004.0
1777580961.470264,response,right,x,1,1777580954.9222898,6.547974109649658,0,0.4186726812177136,1.2410503646982205,2.2635714861702048,2.450797503458788,90,254339.0,65,69.5,0,0,4,0,0,0,-7.0,24.0,-1004.0
1777580961.520179,response,right,x,1,1777580954.9222898,6.597889184951782,0,0.39700185866673243,1.2491054214011057,2.2609650254136797,2.4475606915011263,90,254342.99999999997,65,69.5,0,0,4,0,0,0,-1.0,12.0,-977.0
1777580961.569371,response,right,x,1,1777580954.9222898,6.647081136703491,0,0.39700185866673243,1.2491054214011057,2.2609650254136797,2.4475606915011263,90,254342.99999999997,65,69.5,0,0,4,0,0,0,-1.0,12.0,-977.0
1777580961.620091,response,right,x,1,1777580954.9222898,6.697801113128662,0,0.43543186660267025,1.2100954727541304,2.2678588437370566,2.4472513807425265,90,254339.0,65,69.5,0,0,4,0,0,0,5.0,5.0,-999.0
1777580961.670321,response,right,x,1,1777580954.9222898,6.748031139373779,0,0.4114167268798946,1.2170134887492325,2.2669794859125862,2.4445798725963632,90,254339.0,65,69.5,0,0,4,0,0,0,5.0,5.0,-999.0
1777580961.729544,response,right,x,1,1777580954.9222898,6.807254076004028,0,0.3802312291394271,1.2721047386265698,2.2426471130144496,2.4361051981102624,90,254340.0,65,69.5,0,0,4,0,0,0,1.0,18.0,-1010.0
1777580961.779443,response,right,x,1,1777580954.9222898,6.8571531772613525,0,0.3992998112818342,1.2614650564688275,2.23974728505339,2.4327002042402555,90,254340.0,65,69.5,0,0,4,0,0,0,1.0,18.0,-1010.0
1777580961.828962,response,right,x,1,1777580954.9222898,6.906672239303589,0,0.39486535955493424,1.242559984774914,2.2558330007041865,2.4402066525576074,90,254340.0,65,69.5,0,0,4,0,0,0,0.0,13.0,-1000.0
1777580961.878711,response,right,x,1,1777580954.9222898,6.956421136856079,0,0.39486535955493424,1.242559984774914,2.2558330007041865,2.4402066525576074,90,254340.0,65,69.5,0,0,4,0,0,0,0.0,13.0,-1000.0
1777580961.9277718,response,right,x,1,1777580954.9222898,7.005481958389282,0,0.39486535955493424,1.242559984774914,2.2558330007041865,2.4402066525576074,90,254348.99999999997,65,69.5,0,0,4,0,0,0,0.0,12.0,-995.0
1777580961.977073,response,right,x,1,1777580954.9222898,7.05478310585022,0,0.3990212412774142,1.2604324423666884,2.2398706008239824,2.4324025668674296,90,254348.99999999997,65,69.5,0,0,4,0,0,0,0.0,12.0,-995.0
1777580962.026386,response,right,x,1,1777580954.9222898,7.104096174240112,0,0.38695066905670383,1.2235519737579543,2.26575144477581,2.441638442371786,90,254348.0,65,69.5,0,0,4,0,0,0,12.0,14.0,-1010.0
1777580962.075907,response,right,x,1,1777580954.9222898,7.1536171436309814,0,0.4312581076725433,1.2056112883642012,2.2628696202748304,2.440404069357344,90,254348.0,65,69.5,0,0,4,0,0,0,12.0,14.0,-1010.0
