timestamp,elapsed,pos_x,pos_y,pos_z,marker_id,tello_height_cm,tello_baro_cm,tello_battery,tello_temp_c,tello_pitch,tello_roll,tello_yaw,tello_vgx,tello_vgy,tello_vgz,tello_agx,tello_agy,tello_agz
1777594636.415338,8.106231689453125e-06,0.9101501058753986,1.477374857156153,2.942156046583751,2,140,252396.0,86,74.0,0,0,0,0,0,0,0.0,23.0,-1027.0
1777594636.596919,0.18158912658691406,0.9073532213745057,1.4173371806798678,2.973566601935357,2,140,252394.0,86,74.0,0,0,0,0,0,0,-13.0,2.0,-1020.0
1777594636.646682,0.2313520908355713,0.8699686814176424,1.3861818778084478,2.9807441684518197,2,140,252394.0,86,74.0,0,0,0,0,0,0,-13.0,2.0,-1020.0
1777594636.697388,0.2820580005645752,0.9079408154024028,1.4141750742957067,2.973628694594864,2,140,252398.99999999997,86,74.0,0,0,0,0,0,0,-3.0,27.0,-1028.0
1777594636.746898,0.33156800270080566,0.9079408154024028,1.4141750742957067,2.973628694594864,2,140,252398.99999999997,86,74.0,0,0,0,0,0,0,-3.0,27.0,-1028.0
1777594636.796243,0.38091301918029785,0.908237360474065,1.4126067649172014,2.9736599747402104,2,140,252394.0,86,74.0,0,0,0,0,0,0,-1.0,9.0,-983.0
1777594636.846263,0.43093299865722656,0.908237360474065,1.4126067649172014,2.9736599747402104,2,140,252394.0,86,74.0,0,0,0,0,0,0,-1.0,9.0,-983.0
1777594636.8957472,0.48041725158691406,0.8797331733933756,1.4403706027350216,2.9498055031983403,2,140,252394.99999999997,86,74.0,0,0,0,0,0,0,-11.0,29.0,-980.0
1777594636.960126,0.5447959899902344,0.9364438378164963,1.375488888631542,2.986848780422511,2,140,252394.99999999997,86,74.0,0,0,0,0,0,0,-11.0,29.0,-980.0
1777594637.010117,0.5947871208190918,0.9012629070430651,1.343654033245547,2.994840925938308,2,140,252398.99999999997,86,74.0,0,0,0,0,0,0,5.0,6.0,-1010.0
1777594637.061697,0.646367073059082,0.9368002323439789,1.3738879484011157,2.986875229454656,2,140,252398.99999999997,86,74.0,0,0,0,0,0,0,5.0,6.0,-1010.0
1777594637.112111,0.6967811584472656,0.9091373725284347,1.4079558000752659,2.973753846593043,2,140,252402.0,86,74.0,0,0,0,0,0,0,-9.0,15.0,-1023.0
1777594637.163243,0.747913122177124,0.9094804439036333,1.401908908019919,2.9638245349439596,2,140,252402.0,86,74.0,0,0,0,0,0,0,-9.0,15.0,-1023.0
1777594637.225125,0.8097951412200928,0.9417130428690893,1.3698513104588788,2.9871551582859617,2,140,252400.0,86,74.0,0,0,0,0,0,0,-10.0,11.0,-999.0
1777594637.2755032,0.860173225402832,0.9052866023361997,1.3988903459607904,2.9640381985431885,2,140,252400.0,86,74.0,0,0,0,0,0,0,-10.0,11.0,-999.0
1777594637.326407,0.9110770225524902,0.9424150509943124,1.4225100916485514,2.945983901796856,2,140,252391.0,86,74.0,0,0,0,0,0,0,0.0,3.0,-990.0
1777594637.376802,0.9614720344543457,0.9056009722603651,1.3973791033134568,2.9640716878918654,2,140,252391.0,86,74.0,0,0,0,0,0,0,0.0,3.0,-990.0
1777594637.428033,1.0127031803131104,0.9059167899908777,1.3958777857654288,2.964104921283402,2,140,252392.99999999997,86,74.0,0,0,0,0,0,0,-19.0,25.0,-1019.0
1777594637.4790761,1.0637462139129639,0.9107756169122435,1.3948601093299255,2.9645212803494267,2,140,252392.99999999997,86,74.0,0,0,0,0,0,0,-19.0,25.0,-1019.0
1777594637.5308611,1.1155312061309814,0.9434863602292698,1.4181909348602684,2.946056562755085,2,140,252389.0,86,74.0,0,0,0,0,0,0,-24.0,6.0,-1014.0
1777594637.58218,1.1668500900268555,0.9109670386668298,1.3881771622378247,2.954363610200148,2,140,252381.0,86,74.0,0,0,0,0,0,0,-25.0,25.0,-996.0
1777594637.633493,1.218163013458252,0.9116055491788216,1.385248573271272,2.9544284868862283,2,140,252381.0,86,74.0,0,0,0,0,0,0,-25.0,25.0,-996.0
1777594637.684893,1.2695629596710205,0.9483377394692547,1.4132407916746605,2.946306194756576,2,140,252394.0,86,74.0,0,0,0,0,0,0,-3.0,-6.0,-1024.0
1777594637.734418,1.3190879821777344,0.9487050052788805,1.4118524591940922,2.9463290152629202,2,140,252394.0,86,74.0,0,0,0,0,0,0,-3.0,-6.0,-1024.0
1777594637.785268,1.3699381351470947,0.9150603135848772,1.4374897199916323,2.9238902388070724,2,140,252394.0,86,74.0,0,0,0,0,0,0,-3.0,-6.0,-1024.0
1777594637.834683,1.4193530082702637,0.8819549749287876,1.4138589257510543,2.940913386740032,2,140,252394.99999999997,86,74.0,0,0,0,0,0,0,-4.0,-11.0,-1032.0
1777594637.886067,1.4707369804382324,0.9403053597408243,1.341812184913953,2.9678731603928,2,140,252394.99999999997,86,74.0,0,0,0,0,0,0,-4.0,-11.0,-1032.0
1777594637.935909,1.5205790996551514,0.9482165507891048,1.4017182899419622,2.936830962563232,2,140,252394.99999999997,86,74.0,0,0,0,0,0,0,-35.0,15.0,-1005.0
1777594637.986826,1.5714960098266602,0.9122159209951056,1.376439778567896,2.954945525263343,2,140,252394.99999999997,86,74.0,0,0,0,0,0,0,-35.0,15.0,-1005.0
1777594638.036272,1.6209421157836914,0.9048957009490024,1.3080008329047692,2.9758187513909493,2,140,252392.99999999997,86,74.0,0,0,0,0,0,0,-14.0,20.0,-979.0
1777594638.086829,1.6714990139007568,0.9125589227151955,1.3750440911396664,2.954979595025859,2,140,252392.99999999997,86,74.0,0,0,0,0,0,0,-14.0,20.0,-979.0
1777594638.1366038,1.7212738990783691,0.9125589227151955,1.3750440911396664,2.954979595025859,2,140,252392.0,86,74.0,0,0,0,0,0,0,-16.0,4.0,-974.0
1777594638.1880379,1.7727079391479492,0.9061229687466094,1.3097523310360222,2.986229426264945,2,140,252392.0,86,74.0,0,0,0,0,0,0,-16.0,4.0,-974.0
1777594638.238504,1.823173999786377,0.9452786135404485,1.3381506044998566,2.968139994867211,2,140,252387.0,86,74.0,0,0,0,0,0,0,-15.0,4.0,-1016.0
1777594638.288789,1.8734591007232666,0.9129033432433077,1.3736575057158773,2.955013813162175,2,140,252387.0,86,74.0,0,0,0,0,0,0,-15.0,4.0,-1016.0
1777594638.338308,1.922978162765503,0.9086245243953809,1.3677850700284717,2.945392390439555,2,140,252398.0,85,74.0,0,0,0,0,0,0,-45.0,37.0,-973.0
1777594638.388316,1.9729859828948975,0.9049423382570803,1.3090805527622456,2.9860477144178508,2,140,252398.0,85,74.0,0,0,0,0,0,0,-45.0,37.0,-973.0
1777594638.4393432,2.0240132808685303,0.9086245243953809,1.3677850700284717,2.945392390439555,2,140,252398.99999999997,85,74.0,0,0,0,0,0,0,-3.0,-3.0,-986.0
1777594638.490672,2.0753421783447266,0.8698843596107053,1.341478344138574,2.9619136177735084,2,140,252398.99999999997,85,74.0,0,0,0,0,0,0,-3.0,-3.0,-986.0
1777594638.54128,2.1259500980377197,0.8698843596107053,1.341478344138574,2.9619136177735084,2,140,252394.99999999997,85,74.0,0,0,0,0,0,0,9.0,-21.0,-1006.0
1777594638.593048,2.177718162536621,0.8698843596107053,1.341478344138574,2.9619136177735084,2,140,252394.99999999997,85,74.0,0,0,0,0,0,0,9.0,-21.0,-1006.0
1777594638.645122,2.2297921180725098,0.9083762652860503,1.3715070176522555,2.9550120453243167,2,140,252398.99999999997,85,74.0,0,0,0,0,0,0,-1.0,-18.0,-996.0
1777594638.695452,2.2801220417022705,0.8735839855860159,1.3417817480610683,2.962364237856126,2,140,252398.99999999997,85,74.0,0,0,0,0,0,0,-1.0,-18.0,-996.0
1777594638.74662,2.3312900066375732,0.9481230168196048,1.3974427280143589,2.93727684472473,2,140,252394.99999999997,85,74.0,0,0,0,0,0,0,-36.0,-1.0,-1009.0
1777594638.796865,2.381535053253174,0.9401267647615524,1.3371729108284038,2.968327046686058,2,140,252394.99999999997,85,74.0,0,0,0,0,0,0,-36.0,-1.0,-1009.0
1777594638.8477361,2.432406187057495,0.9115684488936215,1.3734005380172183,2.9553462973275235,2,140,252390.0,85,74.0,0,0,0,0,0,0,-7.0,-10.0,-1027.0
1777594638.899816,2.4844861030578613,0.8681825917068049,1.3426648554697567,2.9621553847916964,2,140,252390.0,85,74.0,0,0,0,0,0,0,-7.0,-10.0,-1027.0
1777594638.9512682,2.535938262939453,0.9102315617084461,1.3731367336545433,2.9556871610079494,2,140,252394.99999999997,85,74.0,0,0,0,0,0,0,-17.0,6.0,-1006.0
1777594639.001761,2.5864310264587402,0.9763420144634299,1.3687596207041006,2.9596302890080755,2,140,252394.99999999997,85,74.0,0,0,0,0,0,0,-17.0,6.0,-1006.0
1777594639.052524,2.6371941566467285,0.8987177346706323,1.309443899558509,2.986396320396161,2,140,252386.0,85,74.0,0,0,0,0,0,0,-12.0,9.0,-929.0
1777594639.103379,2.688049077987671,0.9056186693645555,1.3730277108389288,2.9560486403263697,2,140,252386.0,85,74.0,0,0,0,0,0,0,-12.0,9.0,-929.0
1777594639.15419,2.7388601303100586,0.9088925299857822,1.3728661991646058,2.9560363131181058,2,140,252398.0,85,74.0,0,0,0,0,0,0,-44.0,39.0,-963.0
1777594639.204722,2.7893919944763184,0.9017554355990823,1.3088868972137808,2.9872117549898447,2,140,252398.0,85,74.0,0,0,0,0,0,0,-44.0,39.0,-963.0
1777594639.2540832,2.8387532234191895,0.9090845623499058,1.3674009920406744,2.9467977408018498,2,140,252394.0,85,74.5,0,0,0,0,0,0,-17.0,2.0,-1041.0
1777594639.304754,2.8894240856170654,0.8690884072375151,1.3424779177865438,2.963211306508871,2,140,252394.0,85,74.5,0,0,0,0,0,0,-17.0,2.0,-1041.0
1777594639.355838,2.9405081272125244,0.8690884072375151,1.3424779177865438,2.963211306508871,2,140,252398.99999999997,85,74.5,0,0,0,0,0,0,-5.0,0.0,-1023.0
1777594639.406771,2.991441011428833,0.8690884072375151,1.3424779177865438,2.963211306508871,2,140,252398.99999999997,85,74.5,0,0,0,0,0,0,-5.0,0.0,-1023.0
1777594639.457279,3.0419490337371826,0.9042772975237441,1.3727411247682997,2.9564057774618266,2,140,252398.0,85,74.5,0,0,0,0,0,0,-18.0,21.0,-1055.0
1777594639.5075,3.092170000076294,0.9042772975237441,1.3727411247682997,2.9564057774618266,2,140,252398.0,85,74.5,0,0,0,0,0,0,-18.0,21.0,-1055.0
1777594639.5578408,3.1425108909606934,0.9355366202957778,1.3376290408039972,2.969456250146288,2,140,252398.99999999997,85,74.5,0,0,0,0,0,0,3.0,-4.0,-1023.0
1777594639.608562,3.1932320594787598,0.8690884072375151,1.3424779177865438,2.963211306508871,2,140,252398.99999999997,85,74.5,0,0,0,0,0,0,12.0,0.0,-1036.0
1777594639.6599438,3.2446138858795166,0.8690884072375151,1.3424779177865438,2.963211306508871,2,140,252398.99999999997,85,74.5,0,0,0,0,0,0,12.0,0.0,-1036.0
1777594639.7101078,3.2947778701782227,0.8690884072375151,1.3424779177865438,2.963211306508871,2,140,252390.0,85,74.5,0,0,0,0,0,0,5.0,2.0,-960.0
1777594639.761309,3.3459789752960205,0.9042772975237441,1.3727411247682997,2.9564057774618266,2,140,252390.0,85,74.5,0,0,0,0,0,0,5.0,2.0,-960.0
1777594639.812053,3.3967230319976807,0.9042772975237441,1.3727411247682997,2.9564057774618266,2,140,252392.99999999997,85,74.5,0,0,0,0,0,0,-11.0,6.0,-982.0
1777594639.8632362,3.447906255722046,0.8650612787677495,1.3436099671888972,2.9627009942097513,2,140,252392.99999999997,85,74.5,0,0,0,0,0,0,-11.0,6.0,-982.0
1777594639.9143329,3.4990029335021973,0.9085208350980541,1.374258056874591,2.9559980585657066,2,140,252398.0,85,74.5,0,0,0,0,0,0,10.0,-8.0,-975.0
1777594639.964146,3.548815965652466,0.9085208350980541,1.374258056874591,2.9559980585657066,2,140,252398.0,85,74.5,0,0,0,0,0,0,10.0,-8.0,-975.0
1777594640.014362,3.599032163619995,0.9017554355990823,1.3088868972137808,2.9872117549898447,2,140,252392.99999999997,85,74.5,0,0,0,0,0,0,-14.0,5.0,-1015.0
1777594640.065548,3.6502180099487305,0.9088925299857822,1.3728661991646058,2.9560363131181058,2,140,252392.99999999997,85,74.5,0,0,0,0,0,0,-14.0,5.0,-1015.0
1777594640.116142,3.7008121013641357,0.9130566620590334,1.430217057609902,2.9250929512790127,2,140,252402.0,85,74.5,0,0,0,0,0,0,2.0,30.0,-1061.0
1777594640.167417,3.752087116241455,0.9057241738038541,1.3709693605827393,2.955697328940186,2,140,252402.0,85,74.5,0,0,0,0,0,0,2.0,30.0,-1061.0
1777594640.218451,3.8031210899353027,0.8711540299136014,1.3398772885703454,2.962995521933252,2,140,252400.0,84,74.5,0,0,0,0,0,0,-1.0,3.0,-995.0
1777594640.2688699,3.8535399436950684,0.8711540299136014,1.3398772885703454,2.962995521933252,2,140,252400.0,84,74.5,0,0,0,0,0,0,-1.0,3.0,-995.0
1777594640.3192792,3.90394926071167,0.9067712706950056,1.3689077228048547,2.9561592142790203,2,140,252394.0,84,74.5,0,0,0,0,0,0,-11.0,6.0,-974.0
1777594640.369698,3.9543681144714355,0.9067712706950056,1.3689077228048547,2.9561592142790203,2,140,252394.0,84,74.5,0,0,0,0,0,0,-11.0,6.0,-974.0
1777594640.420406,4.005076169967651,0.8714925020747895,1.338465961651325,2.9630401118186174,2,140,252396.0,84,74.5,0,0,0,0,0,0,-2.0,41.0,-1052.0
1777594640.469965,4.054635047912598,0.8714925020747895,1.338465961651325,2.9630401118186174,2,140,252396.0,84,74.5,0,0,0,0,0,0,-2.0,41.0,-1052.0
1777594640.52116,4.105829954147339,0.8718333872504016,1.3370652475507008,2.9630845982518017,2,140,252392.99999999997,84,74.5,0,0,0,0,0,0,-11.0,11.0,-1029.0
1777594640.572201,4.15687108039856,0.9110994051086685,1.366679313077519,2.95644782933936,2,140,252392.99999999997,84,74.5,0,0,0,0,0,0,-11.0,11.0,-1029.0
1777594640.622858,4.207528114318848,0.9104001022236181,1.3673957298250223,2.9561894024618773,2,140,252394.99999999997,84,74.5,0,0,0,0,0,0,8.0,7.0,-1012.0
1777594640.673404,4.258074045181274,0.9104001022236181,1.3673957298250223,2.9561894024618773,2,140,252394.99999999997,84,74.5,0,0,0,0,0,0,8.0,7.0,-1012.0
1777594640.724802,4.30947208404541,0.8988513819157073,1.3032498081603117,2.9868993667310164,2,140,252400.0,84,74.5,0,0,0,0,0,0,-32.0,23.0,-1016.0
1777594640.775168,4.359838008880615,0.8988513819157073,1.3032498081603117,2.9868993667310164,2,140,252400.0,84,74.5,0,0,0,0,0,0,-32.0,23.0,-1016.0
1777594640.826599,4.411268949508667,0.8667824228465061,1.3365173701701942,2.962936462794734,2,140,252392.99999999997,84,74.5,0,0,0,0,0,0,-25.0,-7.0,-1017.0
1777594640.8773818,4.462051868438721,0.9322501877212772,1.2625065105172895,3.0010939774198127,2,140,252392.99999999997,84,74.5,0,0,0,0,0,0,-25.0,-7.0,-1017.0
1777594640.928224,4.512894153594971,0.909095945915224,1.3671105108916062,2.956552859548043,2,140,252404.0,84,74.5,0,0,0,0,0,0,18.0,-16.0,-980.0
1777594640.9800582,4.564728260040283,0.909095945915224,1.3671105108916062,2.956552859548043,2,140,252404.0,84,74.5,0,0,0,0,0,0,18.0,-16.0,-980.0
1777594641.029142,4.61381196975708,0.8650652788056908,1.337653477403681,2.963202309532414,2,140,252404.0,84,74.5,0,0,0,0,0,0,-15.0,26.0,-985.0
1777594641.079415,4.664085149765015,0.8650652788056908,1.337653477403681,2.963202309532414,2,140,252404.0,84,74.5,0,0,0,0,0,0,-15.0,26.0,-985.0
1777594641.128787,4.713457107543945,0.9359502433359045,1.3315811972185583,2.969994180275391,2,140,252401.00000000003,84,74.5,0,0,0,0,0,0,-40.0,27.0,-971.0
1777594641.179094,4.763764142990112,0.9079471275120603,1.362453218770003,2.947047104507847,2,140,252401.00000000003,84,74.5,0,0,0,0,0,0,-40.0,27.0,-971.0
1777594641.230637,4.815307140350342,0.8777946746162179,1.3963455791756068,2.9337440838394944,2,140,252391.0,84,73.5,0,0,0,0,0,0,-21.0,40.0,-945.0
1777594641.282379,4.867048978805542,0.9036560078048006,1.3653036457887289,2.9573496401421244,2,140,252391.0,84,73.5,0,0,0,0,0,0,-21.0,40.0,-945.0
1777594641.333245,4.917915105819702,0.8777721117483669,1.3958105054868395,2.9335495257316855,2,140,252403.00000000003,84,73.5,0,0,0,0,0,0,15.0,-8.0,-992.0
1777594641.383299,4.967969179153442,0.907056420523864,1.3608055686377605,2.9474676596470606,2,140,252403.00000000003,84,73.5,0,0,0,0,0,0,15.0,-8.0,-992.0
1777594641.4333792,5.018049240112305,0.907056420523864,1.3608055686377605,2.9474676596470606,2,140,252390.0,84,73.5,0,0,0,0,0,0,12.0,12.0,-1020.0
1777594641.48359,5.068259954452515,0.8768957863089921,1.3947853934458299,2.9341418520425693,2,140,252390.0,84,73.5,0,0,0,0,0,0,12.0,12.0,-1020.0
1777594641.535638,5.12030816078186,0.8950608907855948,1.2942341687213488,2.9785731901164354,2,140,252390.0,84,73.5,0,0,0,0,0,0,-20.0,9.0,-986.0
1777594641.586823,5.171493053436279,0.8950608907855948,1.2942341687213488,2.9785731901164354,2,140,252390.0,84,73.5,0,0,0,0,0,0,-20.0,9.0,-986.0
1777594641.6374102,5.222080230712891,0.9036367610531209,1.3586002463014164,2.9476825908264237,2,140,252390.0,84,73.5,0,0,0,0,0,0,-6.0,6.0,-994.0
1777594641.6878998,5.272569894790649,0.8662280010427269,1.3288606433856383,2.954695654266424,2,140,252390.0,84,73.5,0,0,0,0,0,0,-6.0,6.0,-994.0
1777594641.737885,5.322555065155029,0.8662280010427269,1.3288606433856383,2.954695654266424,2,140,252381.0,84,73.5,0,0,0,0,0,0,-21.0,41.0,-966.0
1777594641.788074,5.372744083404541,0.893793556830774,1.290621870415424,2.9686760741315785,2,140,252381.0,84,73.5,0,0,0,0,0,0,-21.0,41.0,-966.0
1777594641.837386,5.422055959701538,0.8658113617380578,1.3295972193590537,2.9545381230722647,2,140,252381.0,84,73.5,0,0,0,0,0,0,-28.0,9.0,-971.0
1777594641.887112,5.471781969070435,0.8372361228216656,1.3612590497517876,2.9304548277673335,2,140,252381.0,84,73.5,0,0,0,0,0,0,-28.0,9.0,-971.0
1777594641.9384818,5.523151874542236,0.8648703593562368,1.328571932237229,2.9550423863237167,2,130,252385.0,84,73.5,0,0,0,0,0,0,-21.0,39.0,-989.0
1777594641.987839,5.572509050369263,0.9012226240414034,1.3542274371367085,2.9388390541902774,2,130,252385.0,84,73.5,0,0,0,0,0,0,-21.0,39.0,-989.0
1777594642.037125,5.621795177459717,0.9012226240414034,1.3542274371367085,2.9388390541902774,2,130,252384.0,84,73.5,0,0,0,0,0,0,-8.0,15.0,-984.0
1777594642.086772,5.671442031860352,0.8640955348054755,1.3313775938894754,2.9549290300915168,2,130,252384.0,84,73.5,0,0,0,0,0,0,-8.0,15.0,-984.0
1777594642.137461,5.722131013870239,0.9035309166770247,1.356807465408043,2.9387494076593463,2,130,252390.0,84,73.5,0,0,0,0,0,0,-20.0,12.0,-1046.0
1777594642.187945,5.7726149559021,0.9031036077077731,1.358170617506612,2.9387034519701687,2,130,252390.0,84,73.5,0,0,0,0,0,0,-20.0,12.0,-1046.0
1777594642.2387898,5.82345986366272,0.8953913391931557,1.294404677863847,2.9693811418231455,2,140,252394.0,83,74.0,0,0,0,0,0,0,-27.0,29.0,-954.0
1777594642.289054,5.873723983764648,0.8949485774782784,1.2958922951176755,2.9693306199937943,2,140,252394.0,83,74.0,0,0,0,0,0,0,-27.0,29.0,-954.0
1777594642.3386948,5.923364877700806,0.902255160862713,1.3609264886610046,2.9386113251416233,2,140,252392.0,83,74.0,0,0,0,0,0,0,10.0,-5.0,-1014.0
1777594642.389774,5.974444150924683,0.901834227082618,1.3623186546626305,2.938565325997691,2,140,252392.0,83,74.0,0,0,0,0,0,0,10.0,-5.0,-1014.0
1777594642.440407,6.0250771045684814,0.9292581983921598,1.3274906798274633,2.9516255589816516,2,140,252398.99999999997,83,74.0,0,0,0,0,0,0,-2.0,18.0,-1019.0
1777594642.491445,6.076115131378174,0.8977618765348289,1.3652499205476198,2.9384840644169428,2,140,252398.99999999997,83,74.0,0,0,0,0,0,0,-2.0,18.0,-1019.0
1777594642.54229,6.126960039138794,0.8977618765348289,1.3652499205476198,2.9384840644169428,2,140,252394.0,83,74.0,0,0,0,0,0,0,-4.0,30.0,-1018.0
1777594642.5932212,6.177891254425049,0.9049535796308038,1.4243846649669631,2.9079497439348314,2,140,252394.0,83,74.0,0,0,0,0,0,0,-4.0,30.0,-1018.0
1777594642.6434371,6.228107213973999,0.8611026024580521,1.3429819010337267,2.9544843740415923,2,140,252387.0,83,74.0,0,0,0,0,0,0,-12.0,-1.0,-1040.0
1777594642.695133,6.279803037643433,0.8335899308914078,1.3764821956995352,2.929839988200041,2,140,252387.0,83,74.0,0,0,0,0,0,0,-12.0,-1.0,-1040.0
1777594642.745693,6.330363035202026,0.8965003599818908,1.3695398001580816,2.938351368954598,2,140,252394.99999999997,83,74.0,0,0,0,0,0,0,3.0,19.0,-1006.0
1777594642.797309,6.381978988647461,0.8861999494861504,1.3093443973394723,2.968375397859207,2,140,252394.99999999997,83,74.0,0,0,0,0,0,0,3.0,19.0,-1006.0
1777594642.84773,6.4323999881744385,0.8964592480054718,1.377834931827982,2.9474673405562988,2,140,252390.0,83,74.0,0,0,0,0,0,0,-25.0,30.0,-986.0
1777594642.9000561,6.484726190567017,0.8960553264246315,1.379302355539492,2.9474238181799977,2,140,252390.0,83,74.0,0,0,0,0,0,0,-25.0,30.0,-986.0
1777594642.950424,6.5350940227508545,0.9031300160168916,1.4368238613718987,2.9171999876363763,2,140,252389.0,83,74.0,0,0,0,0,0,0,4.0,-13.0,-1020.0
1777594643.002336,6.587006092071533,0.9264134804683412,1.3463895413982545,2.9609368799636835,2,140,252389.0,83,74.0,0,0,0,0,0,0,4.0,-13.0,-1020.0
1777594643.0525599,6.637229919433594,0.8701063558472145,1.413213899384675,2.924063005201284,2,140,252392.0,83,74.0,0,0,0,0,0,0,-23.0,20.0,-1017.0
1777594643.102546,6.68721604347229,0.8697620426730217,1.4146677577910611,2.924017143449999,2,140,252392.0,83,74.0,0,0,0,0,0,0,-23.0,20.0,-1017.0
1777594643.153738,6.738408088684082,0.8980911001750725,1.387683230217601,2.9470785061334785,2,140,252396.99999999997,83,74.0,0,0,0,0,0,0,-40.0,1.0,-985.0
1777594643.203142,6.787811994552612,0.8951528088071646,1.3885775848095983,2.946797827741558,2,140,252396.99999999997,83,74.0,0,0,0,0,0,0,-40.0,1.0,-985.0
1777594643.254713,6.839383125305176,0.8691492921223474,1.4247636725830772,2.9329351932322227,2,140,252403.00000000003,83,74.0,0,0,0,0,0,0,-20.0,13.0,-1021.0
1777594643.305217,6.889887094497681,0.8592831854981454,1.3659682625118363,2.9633857460349744,2,140,252403.00000000003,83,74.0,0,0,0,0,0,0,-20.0,13.0,-1021.0
1777594643.356301,6.94097113609314,0.8934415350722642,1.3968935279573849,2.9568137920550104,2,140,252402.0,83,74.0,0,0,0,0,0,0,-3.0,-8.0,-962.0
1777594643.407191,6.99186110496521,0.9237198994050912,1.3626236761609922,2.970061451082575,2,140,252402.0,83,74.0,0,0,0,0,0,0,-3.0,-8.0,-962.0
1777594643.4576051,7.0422751903533936,0.8837065745465924,1.335932374226086,2.9872671147874437,2,140,252396.99999999997,83,74.0,0,0,0,0,0,0,19.0,1.0,-1035.0
1777594643.508266,7.092936038970947,0.893060656887087,1.3984485261575785,2.956772397567502,2,140,252396.99999999997,83,74.0,0,0,0,0,0,0,19.0,1.0,-1035.0
1777594643.558309,7.142979145050049,0.893060656887087,1.3984485261575785,2.956772397567502,2,140,252394.0,83,74.0,0,0,0,0,0,0,-14.0,26.0,-1010.0
1777594643.609119,7.193789005279541,0.9044398856538847,1.4551961490010417,2.9263892324360574,2,140,252394.0,83,74.0,0,0,0,0,0,0,-14.0,26.0,-1010.0
1777594643.659312,7.2439820766448975,0.8980324638638629,1.4038101717837015,2.9665918055261535,2,140,252392.0,83,74.0,0,0,0,0,0,0,1.0,-15.0,-1000.0
1777594643.7104251,7.295095205307007,0.9305736322172669,1.4279954813510312,2.948489827415794,2,140,252392.0,83,74.0,0,0,0,0,0,0,1.0,-15.0,-1000.0
1777594643.76129,7.3459601402282715,0.9013657236021994,1.4596564052192273,2.935531598163258,2,140,252394.99999999997,83,74.0,0,0,0,0,0,0,-21.0,17.0,-956.0
1777594643.8115351,7.396205186843872,0.9013657236021994,1.4596564052192273,2.935531598163258,2,140,252394.99999999997,83,74.0,0,0,0,0,0,0,-21.0,17.0,-956.0
1777594643.8623722,7.447042226791382,0.8958065703076643,1.4026377036390958,2.9657976127323353,2,140,252400.0,83,74.0,0,0,0,0,0,0,3.0,6.0,-1000.0
1777594643.91391,7.498579978942871,0.9068046139502896,1.4583068811551647,2.93516996341381,2,140,252400.0,83,74.0,0,0,0,0,0,0,3.0,6.0,-1000.0
1777594643.964716,7.549386024475098,0.9002671970086765,1.4009628718388263,2.96631968144497,2,140,252394.99999999997,83,74.0,0,0,0,0,0,0,7.0,-10.0,-988.0
1777594644.016077,7.600747108459473,0.8957568710169572,1.4004813760346075,2.965897021053036,2,140,252394.99999999997,83,74.0,0,0,0,0,0,0,7.0,-10.0,-988.0
1777594644.0675762,7.6522462368011475,0.8961183935358157,1.3989420845208094,2.9659384601289993,2,140,252400.0,83,74.0,0,0,0,0,0,0,-16.0,18.0,-1007.0
1777594644.1184,7.703070163726807,0.8983816823043469,1.3982964410270244,2.965565982001655,2,140,252400.0,83,74.0,0,0,0,0,0,0,-16.0,18.0,-1007.0
1777594644.1687198,7.753389835357666,0.9013655188246988,1.3974022017431524,2.965840821804569,2,140,252398.99999999997,83,74.0,0,0,0,0,0,0,1.0,-15.0,-972.0
1777594644.2199838,7.804653882980347,0.8591991831720915,1.3717992020344667,2.982142830393088,2,140,252398.99999999997,83,74.0,0,0,0,0,0,0,1.0,-15.0,-972.0
1777594644.270877,7.855546951293945,0.898193655378619,1.4005721879395514,2.9758722234491692,2,140,252392.0,82,73.5,0,0,0,0,0,0,4.0,-16.0,-1056.0
1777594644.3213031,7.905973196029663,0.8595156759892497,1.370239109066024,2.9821878651638465,2,140,252392.0,82,73.5,0,0,0,0,0,0,4.0,-16.0,-1056.0
1777594644.370743,7.955413103103638,0.8985665620679423,1.3990654353006544,2.975910379429865,2,140,252398.99999999997,82,73.5,0,0,0,0,0,0,-20.0,19.0,-973.0
1777594644.4203598,8.005029916763306,0.8984072053266023,1.398357072759941,2.9754739178648504,2,140,252398.99999999997,82,73.5,0,0,0,0,0,0,-20.0,19.0,-973.0
1777594644.4698381,8.054508209228516,0.8989413628114405,1.3975669010292604,2.9759488848717996,2,140,252398.99999999997,82,73.5,0,0,0,0,0,0,-20.0,19.0,-973.0
1777594644.519723,8.104393005371094,0.8918240962906334,1.3344433486640965,3.0066575058972727,2,140,252392.0,82,73.5,0,0,0,0,0,0,0.0,-5.0,-966.0
1777594644.570803,8.155472993850708,0.8601567611608886,1.3671449847183172,2.9822790635132908,2,140,252402.0,82,73.5,0,0,0,0,0,0,5.0,-15.0,-995.0
1777594644.6214652,8.206135272979736,0.8921979903837562,1.3328455566517818,3.0066990706202263,2,140,252402.0,82,73.5,0,0,0,0,0,0,5.0,-15.0,-995.0
1777594644.6732721,8.257942199707031,0.8921979903837562,1.3328455566517818,3.0066990706202263,2,140,252394.0,82,73.5,0,0,0,0,0,0,-11.0,-5.0,-1007.0
1777594644.723052,8.307722091674805,0.9327068968303952,1.3636225068539032,2.9992871153470313,2,140,252394.0,82,73.5,0,0,0,0,0,0,-11.0,-5.0,-1007.0
1777594644.772855,8.357525110244751,0.9084141464201945,1.453150117299621,2.944289850632161,2,140,252396.0,82,73.5,0,0,0,0,0,0,-18.0,13.0,-1037.0
1777594644.823942,8.40861201286316,0.9011207377792311,1.394872891634726,2.9756736625803413,2,140,252396.0,82,73.5,0,0,0,0,0,0,-18.0,13.0,-1037.0
1777594644.874646,8.45931601524353,0.9011207377792311,1.394872891634726,2.9756736625803413,2,140,252391.0,82,73.5,0,0,0,0,0,0,-2.0,-13.0,-990.0
1777594644.9262311,8.51090121269226,0.8660728882804021,1.370213647357284,2.992029319803491,2,140,252391.0,82,73.5,0,0,0,0,0,0,-2.0,-13.0,-990.0
1777594644.977345,8.562015056610107,0.8660728882804021,1.370213647357284,2.992029319803491,2,140,252391.0,82,73.5,0,0,0,0,0,0,-16.0,32.0,-1002.0
1777594645.0290291,8.613699197769165,0.9014434240243733,1.3997585515664044,2.985233577264972,2,140,252391.0,82,73.5,0,0,0,0,0,0,-16.0,32.0,-1002.0
1777594645.079802,8.664472103118896,0.9014434240243733,1.3997585515664044,2.985233577264972,2,140,252396.99999999997,82,73.5,0,0,0,0,0,0,-22.0,29.0,-1006.0
1777594645.130343,8.715013027191162,0.872829763377912,1.4298936223945047,2.9610989766822446,2,140,252396.99999999997,82,73.5,0,0,0,0,0,0,-22.0,29.0,-1006.0
1777594645.1817029,8.766372919082642,0.9355423290745292,1.3634380933598194,2.9984290526325403,2,140,252396.99999999997,82,73.5,0,0,0,0,0,0,-6.0,2.0,-985.0
1777594645.2312021,8.815872192382812,0.9355423290745292,1.3634380933598194,2.9984290526325403,2,140,252396.99999999997,82,73.5,0,0,0,0,0,0,-6.0,2.0,-985.0
1777594645.2815318,8.866201877593994,0.9036948356515502,1.3992046780638925,2.984840215881846,2,140,252394.0,82,74.0,0,0,0,0,0,0,0.0,-15.0,-985.0
1777594645.332354,8.9170241355896,0.9036948356515502,1.3992046780638925,2.984840215881846,2,140,252394.0,82,74.0,0,0,0,0,0,0,0.0,-15.0,-985.0
1777594645.383324,8.967993974685669,0.9036948356515502,1.3992046780638925,2.984840215881846,2,140,252392.0,82,74.0,0,0,0,0,0,0,-37.0,11.0,-997.0
1777594645.434207,9.018877029418945,0.9063805804724409,1.3998058884888391,2.9850694670138562,2,140,252392.0,82,74.0,0,0,0,0,0,0,-37.0,11.0,-997.0
1777594645.4852622,9.069932222366333,0.9063805804724409,1.3998058884888391,2.9850694670138562,2,140,252392.0,82,74.0,0,0,0,0,0,0,-4.0,-14.0,-1012.0
1777594645.536284,9.120954036712646,0.9063805804724409,1.3998058884888391,2.9850694670138562,2,140,252392.0,82,74.0,0,0,0,0,0,0,-4.0,-14.0,-1012.0
1777594645.5878,9.172470092773438,0.9060741490875783,1.4002162649569008,2.9856403873528863,2,140,252394.0,82,74.0,0,0,0,0,0,0,-29.0,24.0,-1007.0
1777594645.637354,9.222023963928223,0.8541382199139014,1.3112259154748838,3.032929237257566,2,140,252394.0,82,74.0,0,0,0,0,0,0,-29.0,24.0,-1007.0
1777594645.688749,9.27341914176941,0.9332337115595113,1.3661701154601336,2.9987556424786987,2,140,252389.0,82,74.0,0,0,0,0,0,0,0.0,-1.0,-968.0
1777594645.739325,9.323995113372803,0.8992902171104311,1.4024721539128122,2.985495623282942,2,140,252389.0,82,74.0,0,0,0,0,0,0,0.0,-1.0,-968.0
1777594645.79052,9.375190019607544,0.8911857209903336,1.3394686071239712,3.017160258665356,2,140,252392.99999999997,82,74.0,0,0,0,0,0,0,-4.0,6.0,-980.0
1777594645.8411222,9.425792217254639,0.8911857209903336,1.3394686071239712,3.017160258665356,2,140,252392.99999999997,82,74.0,0,0,0,0,0,0,-4.0,6.0,-980.0
1777594645.89099,9.4756600856781,0.9299301302684059,1.367935347838613,2.9995815696074035,2,140,252398.99999999997,82,74.0,0,0,0,0,0,0,-12.0,22.0,-979.0
1777594645.9399,9.524569988250732,0.902092435492929,1.4041742009489675,2.986224193360789,2,140,252398.99999999997,82,74.0,0,0,0,0,0,0,-12.0,22.0,-979.0
1777594645.989006,9.573676109313965,0.9219630603030518,1.3022685015721367,3.0312701891661433,2,140,252398.0,82,74.0,0,0,0,0,0,0,-6.0,1.0,-987.0
1777594646.037497,9.622167110443115,0.8608289769304134,1.374979898398399,2.992880600841602,2,140,252398.0,82,74.0,0,0,0,0,0,0,-6.0,1.0,-987.0
1777594646.084317,9.668987035751343,0.8952686110786854,1.400015335390563,2.9765900155586227,2,140,252391.0,82,74.0,0,0,0,0,0,0,-11.0,9.0,-1008.0
1777594646.135054,9.719724178314209,0.8952686110786854,1.400015335390563,2.9765900155586227,2,140,252391.0,82,74.0,0,0,0,0,0,0,-11.0,9.0,-1008.0
1777594646.1848729,9.769542932510376,0.8838893358284975,1.3375653870910829,3.0078549192330684,2,140,252394.0,82,74.0,0,0,0,0,0,0,-44.0,44.0,-934.0
1777594646.235103,9.819772958755493,0.8943537474784533,1.3959528067280083,2.966683668933979,2,140,252394.0,82,74.0,0,0,0,0,0,0,-44.0,44.0,-934.0
1777594646.286808,9.871478080749512,0.8837931103712954,1.3328708239008593,2.998270760627466,2,140,252386.0,81,73.5,0,0,0,0,0,0,-26.0,0.0,-1042.0
1777594646.3381279,9.922797918319702,0.8928851469836026,1.3956643793756167,2.967059554185897,2,140,252386.0,81,73.5,0,0,0,0,0,0,-26.0,0.0,-1042.0
1777594646.38942,9.974090099334717,0.874338129956044,1.4854788749054735,2.923236859319991,2,140,252394.0,81,73.5,0,0,0,0,0,0,-15.0,14.0,-1023.0
1777594646.4402702,10.024940252304077,0.8910077949663564,1.3968954893119854,2.9673980164456384,2,140,252394.0,81,73.5,0,0,0,0,0,0,-15.0,14.0,-1023.0
1777594646.4919198,10.076589822769165,0.8891125379931225,1.398132988009185,2.9677413317314816,2,140,252389.0,81,73.5,0,0,0,0,0,0,-7.0,32.0,-1055.0
1777594646.541816,10.12648606300354,0.8891125379931225,1.398132988009185,2.9677413317314816,2,140,252389.0,81,73.5,0,0,0,0,0,0,-7.0,32.0,-1055.0
1777594646.5928488,10.177518844604492,0.8629634873689849,1.4275385100438216,2.94445540457097,2,140,252392.99999999997,81,73.5,0,0,0,0,0,0,-1.0,16.0,-996.0
1777594646.64356,10.228229999542236,0.8578329774302016,1.4283408372878443,2.9443336230594754,2,140,252392.99999999997,81,73.5,0,0,0,0,0,0,-1.0,16.0,-996.0
1777594646.694526,10.27919602394104,0.8582276435757984,1.4289064757765515,2.9442015225369746,2,140,252400.0,81,73.5,0,0,0,0,0,0,14.0,-5.0,-940.0
1777594646.745779,10.330449104309082,0.8848380229211935,1.3935472027046472,2.9591764933067406,2,140,252400.0,81,73.5,0,0,0,0,0,0,14.0,-5.0,-940.0
1777594646.796732,10.381402015686035,0.8545356593336358,1.4293118562329683,2.945021319039755,2,140,252396.0,81,73.5,0,0,0,0,0,0,-9.0,11.0,-1050.0
1777594646.848063,10.432733058929443,0.853652787054808,1.4241721587358378,2.935740942183765,2,140,252396.0,81,73.5,0,0,0,0,0,0,-9.0,11.0,-1050.0
1777594646.8986292,10.483299255371094,0.8813713612103028,1.3944574820397837,2.9599596532987644,2,140,252391.0,81,73.5,0,0,0,0,0,0,-14.0,0.0,-1031.0
1777594646.949592,10.53426218032837,0.8534650385678177,1.4295858651880278,2.945293044981771,2,140,252391.0,81,73.5,0,0,0,0,0,0,-14.0,0.0,-1031.0
1777594647.000384,10.585054159164429,0.8793940426612782,1.3956971719234086,2.9603329304961297,2,140,252392.99999999997,81,73.5,0,0,0,0,0,0,-7.0,26.0,-1011.0
1777594647.051568,10.636238098144531,0.8793940426612782,1.3956971719234086,2.9603329304961297,2,140,252392.99999999997,81,73.5,0,0,0,0,0,0,-7.0,26.0,-1011.0
1777594647.101099,10.685769081115723,0.8693555354437397,1.3335757761165143,2.990708607426728,2,140,252396.0,81,73.5,0,0,0,0,0,0,-12.0,-4.0,-949.0
1777594647.151875,10.736545085906982,0.8386336197078568,1.3709829016423156,2.9764510341362485,2,140,252396.0,81,73.5,0,0,0,0,0,0,-12.0,-4.0,-949.0
1777594647.202358,10.787028074264526,0.8778626053965469,1.395359813143659,2.9607678608529535,2,140,252390.0,81,73.5,0,0,0,0,0,0,-5.0,1.0,-1008.0
1777594647.251873,10.836543083190918,0.83846653042047,1.3699971005496314,2.976434827903093,2,140,252390.0,81,73.5,0,0,0,0,0,0,-5.0,1.0,-1008.0
1777594647.301444,10.886114120483398,0.8505296786667406,1.4290088897759783,2.9460949019707723,2,140,252394.99999999997,81,74.0,0,0,0,0,0,0,4.0,-21.0,-959.0
1777594647.352036,10.936706066131592,0.8768006497551465,1.393439304273613,2.961269120021123,2,140,252394.99999999997,81,74.0,0,0,0,0,0,0,4.0,-21.0,-959.0
1777594647.401345,10.98601508140564,0.8482352100470187,1.4297005101256501,2.946534612354046,2,140,252398.0,81,74.0,0,0,0,0,0,0,-13.0,1.0,-1007.0
1777594647.4521759,11.036845922470093,0.8486533759260206,1.4281771408440402,2.9465985867302393,2,140,252398.0,81,74.0,0,0,0,0,0,0,-13.0,1.0,-1007.0
1777594647.503042,11.087712049484253,0.8486533759260206,1.4281771408440402,2.9465985867302393,2,140,252391.0,81,74.0,0,0,0,0,0,0,0.0,0.0,-982.0
1777594647.553906,11.138576030731201,0.8768006497551465,1.393439304273613,2.961269120021123,2,140,252391.0,81,74.0,0,0,0,0,0,0,0.0,0.0,-982.0
1777594647.604331,11.189001083374023,0.8519461271689508,1.428613230080138,2.9470573868426237,2,140,252394.0,81,74.0,0,0,0,0,0,0,13.0,11.0,-976.0
1777594647.655599,11.240269184112549,0.8486533759260206,1.4281771408440402,2.9465985867302393,2,140,252394.0,81,74.0,0,0,0,0,0,0,13.0,11.0,-976.0
1777594647.704407,11.289077043533325,0.8807185169011233,1.3980701041304182,2.9709061694482557,2,140,252391.0,81,74.0,0,0,0,0,0,0,-35.0,5.0,-1029.0
1777594647.755289,11.339959144592285,0.8807185169011233,1.3980701041304182,2.9709061694482557,2,140,252391.0,81,74.0,0,0,0,0,0,0,-35.0,5.0,-1029.0
1777594647.805473,11.390143156051636,0.8490748764031216,1.4266621687251968,2.9466628881749943,2,140,252396.99999999997,81,74.0,0,0,0,0,0,0,-12.0,11.0,-1040.0
1777594647.856339,11.441009044647217,0.8772760285178749,1.3918716848294048,2.9613277829735183,2,140,252396.99999999997,81,74.0,0,0,0,0,0,0,-12.0,11.0,-1040.0
1777594647.90661,11.49128007888794,0.8772760285178749,1.3918716848294048,2.9613277829735183,2,140,252398.99999999997,81,74.0,0,0,0,0,0,0,-13.0,25.0,-982.0
1777594647.957621,11.542291164398193,0.8490748764031216,1.4266621687251968,2.9466628881749943,2,140,252398.99999999997,81,74.0,0,0,0,0,0,0,-13.0,25.0,-982.0
1777594648.009046,11.593716144561768,0.8772760285178749,1.3918716848294048,2.9613277829735183,2,140,252394.99999999997,81,74.0,0,0,0,0,0,0,6.0,-7.0,-1031.0
1777594648.0597062,11.644376277923584,0.8490748764031216,1.4266621687251968,2.9466628881749943,2,140,252386.0,81,74.0,0,0,0,0,0,0,-9.0,8.0,-1033.0
1777594648.1111171,11.695787191390991,0.8385000514417789,1.3625640940208827,2.9666685060784985,2,140,252386.0,81,74.0,0,0,0,0,0,0,-9.0,8.0,-1033.0
1777594648.162422,11.747092008590698,0.8501090547866881,1.4202836859463916,2.9370629915685744,2,140,252392.0,81,74.0,0,0,0,0,0,0,-8.0,20.0,-985.0
1777594648.2131999,11.79786992073059,0.8501090547866881,1.4202836859463916,2.9370629915685744,2,140,252392.0,81,74.0,0,0,0,0,0,0,-8.0,20.0,-985.0
1777594648.26241,11.847079992294312,0.8501090547866881,1.4202836859463916,2.9370629915685744,2,140,252388.0,80,74.0,0,0,0,0,0,0,-19.0,12.0,-959.0
1777594648.312771,11.897441148757935,0.8385000514417789,1.3625640940208827,2.9666685060784985,2,140,252388.0,80,74.0,0,0,0,0,0,0,-19.0,12.0,-959.0
1777594648.3627121,11.94738221168518,0.8385000514417789,1.3625640940208827,2.9666685060784985,2,140,252396.0,80,74.0,0,0,0,0,0,0,-26.0,38.0,-983.0
1777594648.412409,11.997079133987427,0.8385000514417789,1.3625640940208827,2.9666685060784985,2,140,252396.0,80,74.0,0,0,0,0,0,0,-26.0,38.0,-983.0
1777594648.463677,12.048346996307373,0.8748972291584182,1.3866681904198357,2.9511626194894602,2,140,252392.99999999997,80,74.0,0,0,0,0,0,0,-14.0,25.0,-1017.0
1777594648.5148559,12.099525928497314,0.8637089914476336,1.325791469522391,2.981163563664058,2,140,252392.99999999997,80,74.0,0,0,0,0,0,0,-14.0,25.0,-1017.0
1777594648.565676,12.150346040725708,0.8376641603007025,1.3658027202909988,2.9665319083370028,2,140,252387.0,80,74.0,0,0,0,0,0,0,-12.0,31.0,-960.0
1777594648.616215,12.20088505744934,0.8670942246783574,1.3279708572103783,2.9816536069278436,2,140,252387.0,80,74.0,0,0,0,0,0,0,-12.0,31.0,-960.0
1777594648.6664882,12.251158237457275,0.8670942246783574,1.3279708572103783,2.9816536069278436,2,140,252390.0,80,74.0,0,0,0,0,0,0,-20.0,15.0,-987.0
1777594648.717268,12.3019380569458,0.8478721430523843,1.4238560983482156,2.9374338254030956,2,140,252390.0,80,74.0,0,0,0,0,0,0,-20.0,15.0,-987.0
1777594648.7674692,12.352139234542847,0.8478721430523843,1.4238560983482156,2.9374338254030956,2,140,252390.0,80,74.0,0,0,0,0,0,0,-9.0,4.0,-1011.0
1777594648.8182411,12.402911186218262,0.8483279264954797,1.4202388764018825,2.92734913342302,2,140,252390.0,80,74.0,0,0,0,0,0,0,-9.0,4.0,-1011.0
1777594648.867981,12.452651023864746,0.8483279264954797,1.4202388764018825,2.92734913342302,2,140,252381.0,80,74.0,0,0,0,0,0,0,-11.0,5.0,-1028.0
1777594648.919262,12.503931999206543,0.8760367553456773,1.3859109384189985,2.9418534184515526,2,140,252381.0,80,74.0,0,0,0,0,0,0,-11.0,5.0,-1028.0
1777594648.968694,12.553364038467407,0.8760367553456773,1.3859109384189985,2.9418534184515526,2,140,252394.99999999997,80,74.0,0,0,0,0,0,0,-24.0,20.0,-1012.0
1777594649.020009,12.604679107666016,0.8515482078467703,1.4206834480020771,2.927801655405243,2,140,252394.99999999997,80,74.0,0,0,0,0,0,0,-24.0,20.0,-1012.0
1777594649.070593,12.655263185501099,0.8511308305979423,1.422218545959737,2.927738414240999,2,140,252391.0,80,74.0,0,0,0,0,0,0,-11.0,11.0,-895.0
1777594649.120425,12.705095052719116,0.8078587971266895,1.3995655021792128,2.941978588328617,2,140,252391.0,80,74.0,0,0,0,0,0,0,-11.0,11.0,-895.0
1777594649.170774,12.755444049835205,0.8355940809929104,1.5008991468861828,2.874699665796171,2,140,252392.0,80,74.0,0,0,0,0,0,0,-16.0,-7.0,-994.0
1777594649.221632,12.806302070617676,0.8482850946244748,1.4222912692809153,2.9271993105752543,2,140,252392.0,80,74.0,0,0,0,0,0,0,-16.0,-7.0,-994.0
1777594649.272126,12.856796026229858,0.8750344769826913,1.3880884161916094,2.941639478055865,2,140,252385.0,80,73.5,0,0,0,0,0,0,-1.0,3.0,-997.0
1777594649.323033,12.907703161239624,0.84599539763459,1.4230172981756204,2.9276284159282118,2,140,252385.0,80,73.5,0,0,0,0,0,0,-1.0,3.0,-997.0
1777594649.373562,12.958232164382935,0.8455243364444489,1.4266279781318207,2.937717028360037,2,140,252390.0,80,73.5,0,0,0,0,0,0,-22.0,8.0,-989.0
1777594649.4249861,13.009656190872192,0.8507154934728894,1.4237620502560349,2.927675300767388,2,140,252390.0,80,73.5,0,0,0,0,0,0,-22.0,8.0,-989.0
1777594649.4759529,13.060622930526733,0.8507154934728894,1.4237620502560349,2.927675300767388,2,140,252390.0,80,73.5,0,0,0,0,0,0,0.0,-19.0,-1027.0
1777594649.52691,13.11158013343811,0.8470850482953904,1.424858826724559,2.927156291773098,2,140,252390.0,80,73.5,0,0,0,0,0,0,0.0,-19.0,-1027.0
1777594649.5781848,13.16285490989685,0.8359062217113381,1.3668118091814359,2.957006620099334,2,140,252392.0,80,73.5,0,0,0,0,0,0,-19.0,22.0,-979.0
1777594649.6287968,13.213466882705688,0.8257097777056822,1.4602504225785933,2.9123021541917713,2,140,252392.0,80,73.5,0,0,0,0,0,0,-19.0,22.0,-979.0
1777594649.679328,13.263998031616211,0.8510088272360659,1.4287227020839115,2.927088891834099,2,140,252389.0,80,73.5,0,0,0,0,0,0,-39.0,28.0,-1000.0
1777594649.729409,13.31407904624939,0.8762014404506036,1.3997264870212436,2.9503073105570095,2,140,252389.0,80,73.5,0,0,0,0,0,0,-39.0,28.0,-1000.0
1777594649.7801359,13.364805936813354,0.8404627905347161,1.3764016074752035,2.96630922917432,2,140,252389.0,80,73.5,0,0,0,0,0,0,-39.0,28.0,-1000.0
1777594649.831025,13.415694952011108,0.8843156211491302,1.4560267893309744,2.9202630147449637,2,140,252401.00000000003,80,73.5,0,0,0,0,0,0,-29.0,30.0,-992.0
1777594649.881421,13.46609115600586,0.8489211787878823,1.4301048992249594,2.926187228897741,2,140,252401.00000000003,80,73.5,0,0,0,0,0,0,-29.0,30.0,-992.0
1777594649.931902,13.516571998596191,0.838113380288217,1.3779747806551903,2.965342053208704,2,140,252390.0,80,73.5,0,0,0,0,0,0,-22.0,25.0,-995.0
1777594649.982173,13.566843032836914,0.867919942311637,1.3459817224634438,2.9898875866072427,2,140,252390.0,80,73.5,0,0,0,0,0,0,-22.0,25.0,-995.0
1777594650.032789,13.617459058761597,0.8495551780074061,1.4355881740192293,2.9358225185287044,2,140,252385.0,80,73.5,0,0,0,0,0,0,-17.0,25.0,-1012.0
1777594650.0825331,13.667203187942505,0.8725275026614956,1.3469371966709152,2.9898413056127358,2,140,252385.0,80,73.5,0,0,0,0,0,0,-17.0,25.0,-1012.0
1777594650.133451,13.71812105178833,0.8163099165086479,1.4145902976580844,2.9501414603152543,2,140,252390.0,80,73.5,0,0,0,0,0,0,-1.0,10.0,-986.0
1777594650.18456,13.769230127334595,0.8503572261126231,1.4398376242841535,2.944996140242086,2,140,252390.0,80,73.5,0,0,0,0,0,0,-1.0,10.0,-986.0
1777594650.235483,13.820152997970581,0.8503572261126231,1.4398376242841535,2.944996140242086,2,140,252394.0,80,73.5,0,0,0,0,0,0,-13.0,15.0,-979.0
1777594650.286462,13.871132135391235,0.870053274151362,1.3445600637868909,2.9895573085492426,2,140,252394.0,80,73.5,0,0,0,0,0,0,-13.0,15.0,-979.0
1777594650.337022,13.921692132949829,0.8408754589607694,1.3807604672336389,2.974966834545824,2,140,252390.0,79,73.5,0,0,0,0,0,0,2.0,10.0,-984.0
1777594650.388832,13.973502159118652,0.8792404690853038,1.4090073817482671,2.9689404886358166,2,140,252390.0,79,73.5,0,0,0,0,0,0,2.0,10.0,-984.0
1777594650.440429,14.025099039077759,0.8879639496081463,1.4649016599462348,2.938500550609567,2,140,252394.99999999997,79,73.5,0,0,0,0,0,0,-3.0,30.0,-974.0
1777594650.489588,14.074258089065552,0.8563825781059324,1.4432645114775058,2.954339620115303,2,140,252394.99999999997,79,73.5,0,0,0,0,0,0,-3.0,30.0,-974.0
1777594650.539928,14.124598026275635,0.8568886066617902,1.4425914706739706,2.95449772430425,2,140,252394.0,79,73.5,0,0,0,0,0,0,-25.0,21.0,-985.0
1777594650.591595,14.176265001296997,0.8898349697468639,1.4636831264734096,2.9381245994262084,2,140,252394.0,79,73.5,0,0,0,0,0,0,-25.0,21.0,-985.0
1777594650.6411872,14.225857257843018,0.8632982600231115,1.4939866208212633,2.924032561843946,2,140,252380.00000000003,79,73.5,0,0,0,0,0,0,-11.0,15.0,-967.0
1777594650.6927009,14.277370929718018,0.8443306820556007,1.3810403447167048,2.984291365452996,2,140,252380.00000000003,79,73.5,0,0,0,0,0,0,-11.0,15.0,-967.0
1777594650.74343,14.328099966049194,0.8335900034244822,1.4666985103535555,2.9297599525221436,2,140,252392.0,79,73.5,0,0,0,0,0,0,-23.0,14.0,-960.0
1777594650.794629,14.37929916381836,0.922320970510796,1.4326399920234234,2.9605700983825356,2,140,252392.0,79,73.5,0,0,0,0,0,0,-23.0,14.0,-960.0
1777594650.846055,14.43072509765625,0.8503583886611179,1.3784085267438724,2.984594944210184,2,140,252386.0,79,73.5,0,0,0,0,0,0,-10.0,38.0,-1059.0
1777594650.8979342,14.482604265213013,0.8772685065832468,1.3385499017387663,2.9991779217404866,2,140,252386.0,79,73.5,0,0,0,0,0,0,-10.0,38.0,-1059.0
1777594650.948307,14.532977104187012,0.8862031019632489,1.4046823191473972,2.978332210100406,2,140,252387.0,79,73.5,0,0,0,0,0,0,-22.0,26.0,-988.0
1777594650.999347,14.584017038345337,0.8486725559954248,1.3685516581277035,2.974379522664404,2,140,252387.0,79,73.5,0,0,0,0,0,0,-22.0,26.0,-988.0
1777594651.047783,14.632452964782715,0.8627559368453991,1.4309010835269622,2.954210528380811,2,140,252382.00000000003,79,73.5,0,0,0,0,0,0,-18.0,36.0,-1019.0
1777594651.098389,14.683058977127075,0.892544609053955,1.3956932955369492,2.9680895669755705,2,140,252382.00000000003,79,73.5,0,0,0,0,0,0,-18.0,36.0,-1019.0
1777594651.149436,14.734106063842773,0.8880090918166609,1.3941709677027068,2.968261381024063,2,140,252381.0,79,73.5,0,0,0,0,0,0,-8.0,6.0,-1018.0
1777594651.200386,14.785056114196777,0.8968136728812798,1.449663912873631,2.937737150579154,2,140,252381.0,79,73.5,0,0,0,0,0,0,-8.0,6.0,-1018.0
1777594651.248945,14.833615064620972,0.8907779854655417,1.392039823883867,2.967930018302311,2,140,252389.0,79,73.5,0,0,0,0,0,0,-21.0,53.0,-1006.0
1777594651.297821,14.882491111755371,0.8902412710633799,1.39579528401481,2.9782178922237637,2,140,252389.0,79,73.5,0,0,0,0,0,0,-21.0,53.0,-1006.0
1777594651.343976,14.928646087646484,0.8818921222554423,1.3273383837232458,2.999163697814987,2,140,252387.0,79,74.5,0,0,0,0,0,0,-8.0,13.0,-995.0
1777594651.3919628,14.976632833480835,0.8818921222554423,1.3273383837232458,2.999163697814987,2,140,252387.0,79,74.5,0,0,0,0,0,0,-8.0,13.0,-995.0
1777594651.440841,15.025511026382446,0.8511446564032918,1.3656085565069103,2.9841808602134243,2,140,252382.00000000003,79,74.5,0,0,0,0,0,0,-34.0,35.0,-989.0
1777594651.4903932,15.075063228607178,0.8823292324347326,1.3257275220957956,2.9992155845106208,2,140,252382.00000000003,79,74.5,0,0,0,0,0,0,-34.0,35.0,-989.0
1777594651.539739,15.124408960342407,0.8823292324347326,1.3257275220957956,2.9992155845106208,2,140,252379.0,79,74.5,0,0,0,0,0,0,-7.0,6.0,-1018.0
1777594651.59149,15.176160097122192,0.8911018700321289,1.3928028871807379,2.97831285694188,2,140,252379.0,79,74.5,0,0,0,0,0,0,-7.0,6.0,-1018.0
1777594651.64238,15.227050065994263,0.882768974746219,1.3241258185187923,2.9992676638694418,2,140,252376.00000000003,79,74.5,0,0,0,0,0,0,17.0,5.0,-983.0
1777594651.6942132,15.278883218765259,0.882768974746219,1.3241258185187923,2.9992676638694418,2,140,252376.00000000003,79,74.5,0,0,0,0,0,0,10.0,-13.0,-985.0
1777594651.745388,15.330058097839355,0.8807821356624169,1.330110940105667,3.0091596182624736,2,140,252376.00000000003,79,74.5,0,0,0,0,0,0,10.0,-13.0,-985.0
1777594651.797984,15.382653951644897,0.9288507454168219,1.4167771155860795,2.960508026453483,2,140,252376.00000000003,79,74.5,0,0,0,0,0,0,-4.0,36.0,-983.0
1777594651.850199,15.434869050979614,0.8867273090987433,1.327263644536575,3.0098087238508358,2,140,252376.00000000003,79,74.5,0,0,0,0,0,0,-4.0,36.0,-983.0
1777594651.915075,15.49974513053894,0.8953658777506478,1.3897581440200115,2.9783879762182814,2,140,252375.0,79,74.5,0,0,0,0,0,0,-29.0,55.0,-1061.0
1777594651.96606,15.550729990005493,0.8905480593740333,1.3895220650180207,2.9788205763217177,2,140,252375.0,79,74.5,0,0,0,0,0,0,-29.0,55.0,-1061.0
1777594652.0163221,15.600992202758789,0.8905480593740333,1.3895220650180207,2.9788205763217177,2,140,252382.00000000003,79,74.5,0,0,0,0,0,0,0.0,10.0,-1011.0
1777594652.067698,15.652368068695068,0.8900641555412518,1.3901907705558605,2.9786080262129846,2,140,252382.00000000003,79,74.5,0,0,0,0,0,0,0.0,10.0,-1011.0
1777594652.118433,15.703103065490723,0.8886675813719891,1.3906651436818733,2.979191366546991,2,140,252381.0,79,74.5,0,0,0,0,0,0,-13.0,3.0,-956.0
1777594652.167737,15.75240707397461,0.8886675813719891,1.3906651436818733,2.979191366546991,2,140,252381.0,79,74.5,0,0,0,0,0,0,-13.0,3.0,-956.0
1777594652.218322,15.802992105484009,0.9156321204329183,1.291387190966578,3.035165161488314,2,140,252377.0,79,74.5,0,0,0,0,0,0,-9.0,3.0,-1006.0
1777594652.2690828,15.853752851486206,0.8872303242725589,1.3903271507382158,2.979619342056978,2,140,252377.0,79,74.5,0,0,0,0,0,0,-9.0,3.0,-1006.0
1777594652.320142,15.904812097549438,0.8857899019676813,1.389982884151772,2.9800551387972356,2,140,252373.99999999997,78,74.5,0,0,0,0,0,0,-32.0,28.0,-1013.0
1777594652.370323,15.95499300956726,0.8800013744553095,1.327459596111452,3.0113754877342123,2,140,252373.99999999997,78,74.5,0,0,0,0,0,0,-32.0,28.0,-1013.0
1777594652.420032,16.00470209121704,0.8481506359586087,1.3670183197783738,2.9960663002984917,2,140,252373.99999999997,78,74.5,0,0,0,0,0,0,-14.0,3.0,-1003.0
1777594652.470218,16.054888010025024,0.8838689677239517,1.3911246778581936,2.9804434693973847,2,140,252373.99999999997,78,74.5,0,0,0,0,0,0,-14.0,3.0,-1003.0
1777594652.520868,16.10553812980652,0.8567632098401075,1.426636663486478,2.966585634141254,2,140,252384.0,78,74.5,0,0,0,0,0,0,-49.0,13.0,-981.0
1777594652.57076,16.15543007850647,0.8763476360835882,1.328339795772647,3.012168471503303,2,140,252384.0,78,74.5,0,0,0,0,0,0,-49.0,13.0,-981.0
1777594652.619037,16.203706979751587,0.880463657240373,1.3919123613836573,2.9812940322412276,2,140,252381.0,78,74.5,0,0,0,0,0,0,9.0,-13.0,-1020.0
1777594652.670627,16.25529718399048,0.880463657240373,1.3919123613836573,2.9812940322412276,2,140,252381.0,78,74.5,0,0,0,0,0,0,9.0,-13.0,-1020.0
1777594652.72145,16.30612015724182,0.8789943467285453,1.391545737558134,2.9817588744873436,2,140,252382.00000000003,78,74.5,0,0,0,0,0,0,2.0,-11.0,-1001.0
1777594652.7718341,16.356504201889038,0.8267436183636652,1.4557241619087429,2.9431046059747263,2,140,252382.00000000003,78,74.5,0,0,0,0,0,0,2.0,-11.0,-1001.0
1777594652.821627,16.406296968460083,0.8775220511761543,1.3911724346355645,2.9822317774041958,2,140,252378.00000000003,78,74.5,0,0,0,0,0,0,8.0,17.0,-999.0
1777594652.871649,16.456319093704224,0.8415779845544366,1.3616113537405234,2.9881894383975887,2,140,252378.00000000003,78,74.5,0,0,0,0,0,0,8.0,17.0,-999.0
1777594652.9223838,16.5070538520813,0.812686103265376,1.393962324053796,2.962999665173293,2,140,252384.0,78,74.5,0,0,0,0,0,0,-15.0,16.0,-1008.0
1777594652.973261,16.557931184768677,0.8400423258617686,1.3612681847666748,2.9886107686255605,2,140,252384.0,78,74.5,0,0,0,0,0,0,-15.0,16.0,-1008.0
1777594653.0246289,16.609298944473267,0.8796600703346584,1.3862043429384223,2.972730926356815,2,140,252383.0,78,74.5,0,0,0,0,0,0,-23.0,6.0,-936.0
1777594653.074839,16.65950918197632,0.8358274035111597,1.3559105185687814,2.978621247278389,2,140,252383.0,78,74.5,0,0,0,0,0,0,-23.0,6.0,-936.0
1777594653.125686,16.71035599708557,0.8649127896390207,1.321569850573161,3.003904395019375,2,140,252378.00000000003,78,74.5,0,0,0,0,0,0,-12.0,3.0,-1050.0
1777594653.176783,16.76145315170288,0.8348185332143329,1.354906158921549,2.9791200029822225,2,140,252378.00000000003,78,74.5,0,0,0,0,0,0,-12.0,3.0,-1050.0
1777594653.228344,16.813014030456543,0.8459528855205758,1.4164591866636127,2.9488085420219123,2,140,252381.0,78,74.5,0,0,0,0,0,0,6.0,-5.0,-1059.0
1777594653.27911,16.86378002166748,0.8228807921922772,1.4511446045649894,2.934120464427047,2,140,252381.0,78,74.5,0,0,0,0,0,0,6.0,-5.0,-1059.0
1777594653.330213,16.914883136749268,0.8186775252927609,1.2934801211327431,3.00837286230841,2,140,252373.99999999997,78,73.5,0,0,0,0,0,0,-6.0,16.0,-989.0
1777594653.380697,16.965367078781128,0.8440431706872484,1.4175961456011459,2.9491919833837934,2,140,252373.99999999997,78,73.5,0,0,0,0,0,0,-6.0,16.0,-989.0
1777594653.429455,17.014125108718872,0.8440431706872484,1.4175961456011459,2.9491919833837934,2,140,252378.00000000003,78,73.5,0,0,0,0,0,0,-19.0,21.0,-968.0
1777594653.4790778,17.063747882843018,0.8440431706872484,1.4175961456011459,2.9491919833837934,2,140,252378.00000000003,78,73.5,0,0,0,0,0,0,-19.0,21.0,-968.0
1777594653.530226,17.114896059036255,0.8361532502567877,1.3604634978120922,2.9788313864472626,2,140,252371.99999999997,78,73.5,0,0,0,0,0,0,-15.0,30.0,-999.0
1777594653.580857,17.16552710533142,0.8473286600877283,1.4180109760210744,2.9496611751859794,2,140,252371.99999999997,78,73.5,0,0,0,0,0,0,-15.0,30.0,-999.0
1777594653.630929,17.215599060058594,0.8165139205811082,1.294835700338994,3.008683493541453,2,140,252373.99999999997,78,73.5,0,0,0,0,0,0,0.0,8.0,-1001.0
1777594653.682039,17.266709089279175,0.8722684475087664,1.3822682137390587,2.964015342908159,2,140,252373.99999999997,78,73.5,0,0,0,0,0,0,0.0,8.0,-1001.0
1777594653.7330601,17.31773018836975,0.8084317232169039,1.3935474983336822,2.9538415591558587,2,140,252373.99999999997,78,73.5,0,0,0,0,0,0,-17.0,24.0,-1024.0
1777594653.784726,17.369395971298218,0.8712091525689178,1.385348088566991,2.9638789931020866,2,140,252373.99999999997,78,73.5,0,0,0,0,0,0,-17.0,24.0,-1024.0
1777594653.8357189,17.42038893699646,0.846380204405717,1.4209924306063582,2.949514777946069,2,140,252380.00000000003,78,73.5,0,0,0,0,0,0,13.0,-2.0,-1045.0
1777594653.887109,17.471779108047485,0.8706838243387033,1.3869022834250884,2.9638106546999285,2,140,252380.00000000003,78,73.5,0,0,0,0,0,0,13.0,-2.0,-1045.0
1777594653.937572,17.522242069244385,0.8706838243387033,1.3869022834250884,2.9638106546999285,2,140,252389.0,78,73.5,0,0,0,0,0,0,3.0,24.0,-1055.0
1777594653.9884238,17.5730938911438,0.8706838243387033,1.3869022834250884,2.9638106546999285,2,140,252389.0,78,73.5,0,0,0,0,0,0,3.0,24.0,-1055.0
1777594654.037421,17.622091054916382,0.870161224725873,1.3884648841179228,2.963742540068556,2,140,252384.0,78,73.5,0,0,0,0,0,0,13.0,2.0,-978.0
1777594654.088835,17.673505067825317,0.870161224725873,1.3884648841179228,2.963742540068556,2,140,252384.0,78,73.5,0,0,0,0,0,0,13.0,2.0,-978.0
1777594654.140212,17.724882125854492,0.834310066969264,1.366906780535392,2.978520629285119,2,140,252387.0,78,73.5,0,0,0,0,0,0,-24.0,26.0,-996.0
1777594654.1907141,17.775384187698364,0.8299293941058483,1.3657558515923673,2.9789987473997805,2,140,252387.0,78,73.5,0,0,0,0,0,0,-24.0,26.0,-996.0
1777594654.2420568,17.82672691345215,0.8309631197787248,1.3667271268023224,2.978520481748653,2,140,252383.0,77,73.5,0,0,0,0,0,0,-41.0,38.0,-1020.0
1777594654.292654,17.877324104309082,0.8354569792170063,1.3688690461268085,2.978026168070382,2,140,252383.0,77,73.5,0,0,0,0,0,0,-41.0,38.0,-1020.0
1777594654.3434749,17.928144931793213,0.8706656291168083,1.3919932485384585,2.963123816486946,2,140,252387.0,77,73.5,0,0,0,0,0,0,12.0,22.0,-973.0
1777594654.394086,17.978755950927734,0.8433482043179606,1.4220422829552501,2.938647102900707,2,140,252387.0,77,73.5,0,0,0,0,0,0,12.0,22.0,-973.0
1777594654.445746,18.030416011810303,0.8179188336112868,1.4557418398167385,2.923573406770397,2,140,252387.0,77,73.5,0,0,0,0,0,0,-17.0,23.0,-978.0
1777594654.4974751,18.08214521408081,0.8474963435154836,1.4276990508438892,2.9483338012646785,2,140,252387.0,77,73.5,0,0,0,0,0,0,-17.0,23.0,-978.0
1777594654.548086,18.132755994796753,0.8722034467139137,1.3923645045996014,2.9626483247001545,2,140,252387.0,77,73.5,0,0,0,0,0,0,-6.0,-11.0,-1040.0
1777594654.5988328,18.183502912521362,0.8722034467139137,1.3923645045996014,2.9626483247001545,2,140,252387.0,77,73.5,0,0,0,0,0,0,-6.0,-11.0,-1040.0
1777594654.64904,18.233710050582886,0.8722034467139137,1.3923645045996014,2.9626483247001545,2,140,252386.0,77,73.5,0,0,0,0,0,0,-20.0,47.0,-1008.0
1777594654.697997,18.28266716003418,0.8722034467139137,1.3923645045996014,2.9626483247001545,2,140,252386.0,77,73.5,0,0,0,0,0,0,-20.0,47.0,-1008.0
1777594654.748668,18.333338022232056,0.8722034467139137,1.3923645045996014,2.9626483247001545,2,140,252378.00000000003,77,73.5,0,0,0,0,0,0,22.0,-2.0,-1037.0
1777594654.79842,18.383090019226074,0.8722034467139137,1.3923645045996014,2.9626483247001545,2,140,252378.00000000003,77,73.5,0,0,0,0,0,0,22.0,-2.0,-1037.0
1777594654.849611,18.43428111076355,0.8442111872880371,1.4272640682651199,2.947863581106723,2,140,252385.0,77,73.5,0,0,0,0,0,0,-14.0,12.0,-1055.0
1777594654.899446,18.484116077423096,0.8370543118734006,1.3691921347856755,2.9776164623375005,2,140,252385.0,77,73.5,0,0,0,0,0,0,-14.0,12.0,-1055.0
1777594654.950668,18.535338163375854,0.8442111872880371,1.4272640682651199,2.947863581106723,2,140,252382.00000000003,77,73.5,0,0,0,0,0,0,4.0,-23.0,-998.0
1777594655.0009458,18.585615873336792,0.8479425874794213,1.426174656778243,2.9484021743538875,2,140,252382.00000000003,77,73.5,0,0,0,0,0,0,4.0,-23.0,-998.0
1777594655.050818,18.635488033294678,0.8732068810379906,1.3892229455531058,2.962776794274464,2,140,252381.0,77,73.5,0,0,0,0,0,0,-21.0,34.0,-986.0
1777594655.101102,18.68577218055725,0.8815817832171516,1.450764405746507,2.9421487955025665,2,140,252381.0,77,73.5,0,0,0,0,0,0,-21.0,34.0,-986.0
1777594655.151795,18.736464977264404,0.8455547499842861,1.422724080253205,2.9480741682458858,2,140,252378.00000000003,77,73.5,0,0,0,0,0,0,-14.0,2.0,-1020.0
1777594655.20276,18.78743004798889,0.8446733193978166,1.4279007543140283,2.9582331589631874,2,140,252378.00000000003,77,73.5,0,0,0,0,0,0,-14.0,2.0,-1020.0
1777594655.253439,18.838109016418457,0.8639110886664236,1.3302605027554204,3.003089527287357,2,140,252371.99999999997,77,73.5,0,0,0,0,0,0,-17.0,37.0,-976.0
1777594655.303082,18.887752056121826,0.8193765079539422,1.455449849416611,2.9334422904627706,2,140,252371.99999999997,77,73.5,0,0,0,0,0,0,-17.0,37.0,-976.0
1777594655.353846,18.93851613998413,0.8715988714825876,1.3916539704630841,2.9721467517396327,2,140,252371.99999999997,77,73.0,0,0,0,0,0,0,-36.0,21.0,-1014.0
1777594655.4049191,18.98958921432495,0.8355028852793848,1.3625780511626573,2.9779049068996692,2,140,252371.99999999997,77,73.0,0,0,0,0,0,0,-36.0,21.0,-1014.0
1777594655.455918,19.04058814048767,0.8507494804770062,1.4219690426369098,2.9481686942931398,2,140,252373.0,77,73.0,0,0,0,0,0,0,-16.0,35.0,-926.0
1777594655.506984,19.091654062271118,0.8355028852793848,1.3625780511626573,2.9779049068996692,2,140,252373.0,77,73.0,0,0,0,0,0,0,-16.0,35.0,-926.0
1777594655.5576231,19.142293214797974,0.824433943141792,1.4560007788904392,2.933069911285736,2,140,252381.0,77,73.0,0,0,0,0,0,0,-11.0,19.0,-961.0
1777594655.608314,19.192984104156494,0.8474586652091077,1.421546562893134,2.94770788763392,2,140,252381.0,77,73.0,0,0,0,0,0,0,-11.0,19.0,-961.0
1777594655.659641,19.244311094284058,0.8745684920332986,1.3911550683595744,2.9721604751386614,2,140,252378.00000000003,77,73.0,0,0,0,0,0,0,-29.0,27.0,-1017.0
1777594655.7112288,19.295898914337158,0.8745684920332986,1.3911550683595744,2.9721604751386614,2,140,252378.00000000003,77,73.0,0,0,0,0,0,0,-29.0,27.0,-1017.0
1777594655.7634392,19.348109245300293,0.8839694960822473,1.4482109694868153,2.941773075221551,2,140,252381.0,77,73.0,0,0,0,0,0,0,-18.0,-12.0,-1015.0
1777594655.813979,19.398648977279663,0.8511977832262874,1.4204801539651908,2.9482362858891746,2,140,252381.0,77,73.0,0,0,0,0,0,0,-18.0,-12.0,-1015.0
1777594655.865113,19.449783086776733,0.8248352841092141,1.4545619174446842,2.933141240457124,2,140,252371.99999999997,77,73.0,0,0,0,0,0,0,-6.0,11.0,-945.0
1777594655.9164732,19.501143217086792,0.8844620387629315,1.4467758280080152,2.9418302515391925,2,140,252371.99999999997,77,73.0,0,0,0,0,0,0,-6.0,11.0,-945.0
1777594655.967059,19.55172896385193,0.8516485936545144,1.4190010423435857,2.9483036730933687,2,140,252378.00000000003,77,73.0,0,0,0,0,0,0,-34.0,20.0,-988.0
1777594656.018059,19.602729082107544,0.8654627680335447,1.3252671601887211,3.0032990528925394,2,140,252386.0,77,73.0,0,0,0,0,0,0,8.0,3.0,-985.0
1777594656.0684428,19.65311288833618,0.8354153750215705,1.3584128135861029,2.978539135416197,2,140,252386.0,77,73.0,0,0,0,0,0,0,8.0,3.0,-985.0
1777594656.1184828,19.703152894973755,0.8368890716609725,1.357830037222076,2.9781222921380675,2,140,252373.99999999997,77,73.0,0,0,0,0,0,0,-25.0,12.0,-978.0
1777594656.16844,19.75311017036438,0.8368890716609725,1.357830037222076,2.9781222921380675,2,140,252373.99999999997,77,73.0,0,0,0,0,0,0,-25.0,12.0,-978.0
1777594656.217355,19.802025079727173,0.8757625376457656,1.3815230943963006,2.9630997360203417,2,140,252375.0,77,73.0,0,0,0,0,0,0,3.0,1.0,-1017.0
1777594656.266583,19.851253032684326,0.9069685349695258,1.3507050425635554,2.9866117806935293,2,140,252375.0,77,73.0,0,0,0,0,0,0,3.0,1.0,-1017.0
1777594656.317277,19.901947021484375,0.8757625376457656,1.3815230943963006,2.9630997360203417,2,140,252380.00000000003,77,74.0,0,0,0,0,0,0,-1.0,-1.0,-989.0
1777594656.36723,19.951900005340576,0.8757625376457656,1.3815230943963006,2.9630997360203417,2,140,252380.00000000003,77,74.0,0,0,0,0,0,0,-1.0,-1.0,-989.0
1777594656.418091,20.002761125564575,0.8506727816982453,1.4172036995551283,2.9488178818998403,2,140,252375.0,77,74.0,0,0,0,0,0,0,-21.0,-1.0,-935.0
1777594656.4687412,20.05341124534607,0.8353509545500061,1.3574780326474216,2.978546164921812,2,140,252375.0,77,74.0,0,0,0,0,0,0,-21.0,-1.0,-935.0
1777594656.518456,20.103126049041748,0.8466136504888699,1.4115924933353634,2.9391341745851647,2,140,252376.00000000003,77,74.0,0,0,0,0,0,0,-4.0,-18.0,-1011.0
1777594656.569443,20.154113054275513,0.8344819532388502,1.3532724340645175,2.9686559459455317,2,140,252376.00000000003,77,74.0,0,0,0,0,0,0,-4.0,-18.0,-1011.0
1777594656.620026,20.20469617843628,0.8737590179384003,1.3826600006912164,2.963521317685969,2,140,252371.0,77,74.0,0,0,0,0,0,0,-7.0,25.0,-1009.0
