timestamp,elapsed,master_age_s,master_seq,master_pos_x,master_pos_y,master_pos_z,master_state,pos_x,pos_y,pos_z,marker_id,received_count,crc_errors,target_x,target_y,target_z,err_x_cm,err_y_cm,err_z_cm,err_3d_cm,cmd_lr,cmd_fb,cmd_ud,feedback,disconnect_event,disp_during_disconnect_cm,tello_height_cm,tello_baro_cm,tello_battery,tello_temp_c,tello_pitch,tello_roll,tello_yaw,tello_vgx,tello_vgy,tello_vgz
1778110726.5470269,3.814697265625e-06,-0.003903627395629883,636,-0.00873470213264227,1.3291220664978027,3.868797779083252,3,1.6145585325245624,0.8688398388920628,3.9554530677119764,4,637,0,0.9912652978673577,1.3291220664978027,3.868797779083252,-62.329323465720464,46.02822276057399,-8.66552886287244,77.96559013221608,-30,30,30,ok,,,80,249858.0,85,70.5,0,0,0,0,0,0
1778110726.6073189,0.060295820236206055,-0.003603219985961914,639,-0.08104436099529266,1.398248314857483,3.831322193145752,3,1.6145585325245624,0.8688398388920628,3.9554530677119764,4,640,0,0.9551104684360325,1.3636851906776428,3.850059986114502,-65.94480640885298,49.484535178558,-10.53930815974744,83.11746946716532,-30,13,30,ok,,,80,249853.00000000003,85,71.0,0,0,0,0,0,0
1778110726.67658,0.12955689430236816,0.005502223968505859,642,-0.008991245180368423,1.4585001468658447,3.817291736602783,3,1.938595284516736,1.010792453669215,3.9538628793370485,4,643,0,0.9670765638972322,1.3952901760737102,3.839137236277262,-97.15187206195039,38.44977224044952,-11.472564305978628,105.11180220241127,-30,10,-13,ok,,,80,249852.0,85,71.0,0,0,0,0,0,0
1778110726.742305,0.195281982421875,-0.009643316268920898,646,-0.08052562922239304,1.403671145439148,3.8485467433929443,3,1.62426728336101,0.6834962805489115,3.992380204027065,4,647,0,0.9551760156173259,1.3973854184150696,3.841489613056183,-66.9091267743684,71.3889137866158,-15.089059097088198,98.9994341487707,30,22,30,ok,,,80,249853.00000000003,85,71.0,0,0,0,0,0,0
1778110726.8101594,0.2631363868713379,-0.0017735958099365234,649,-0.07423592358827591,1.40461266040802,3.8471367359161377,3,1.4445812863176752,0.7189922702407492,3.9469139218382323,4,650,0,0.9492936277762055,1.3988308668136598,3.842619037628174,-49.528765854146975,67.98385965729106,-10.42948842100584,84.7565811584036,30,-10,30,ok,,,80,249853.00000000003,85,71.0,0,0,0,0,0,0
1778110726.8785203,0.3314971923828125,0.0074520111083984375,652,-0.005587753374129534,1.4602402448654175,3.816375494003296,3,1.6215055515999093,0.688446871993063,3.9914808587762947,4,653,0,0.956813397584483,1.4090657631556194,3.8382451136906943,-66.46921540154263,72.06188911625564,-15.323574508560034,99.22642992076045,-30,28,30,ok,,,80,249853.00000000003,85,71.0,-1,-1,0,0,0,0
1778110726.9437325,0.3967094421386719,-0.007574558258056641,656,-0.004730543587356806,1.3347697257995605,3.8848297595977783,3,1.6174268666566525,0.6900726712590944,3.990321833803835,4,657,0,0.9623071202742202,1.3984520435333252,3.844900063105992,-65.51197463824323,70.83793722742307,-14.542177069784312,97.57718527179968,-30,6,30,ok,,,80,249842.99999999997,85,71.0,0,0,0,0,0,0
1778110727.0089884,0.46196532249450684,-0.002908468246459961,659,-0.07655800133943558,1.4038630723953247,3.8483076095581055,3,1.938595284516736,1.010792453669215,3.9538628793370485,4,660,0,0.9574489800725132,1.3991284221410751,3.845326006412506,-98.11463044442227,38.833596847186016,-10.85368729245424,106.07700730685097,-30,-6,-30,ok,,,80,249842.99999999997,85,71.0,0,0,0,0,0,0
1778110727.0783622,0.531339168548584,-0.01241159439086914,663,-0.07128480821847916,1.4047422409057617,3.847546100616455,3,2.0441811470945055,1.115208127732272,3.937492020039439,4,664,0,0.9496302168117836,1.40858094394207,3.8426695466041565,-109.45509302827219,29.337281620979795,-9.482247343528272,113.71458348611337,-30,1,-9,ok,,,80,249851.00000000003,85,71.0,0,0,0,0,0,0
1778110727.1490073,0.6019842624664307,-0.0018572807312011719,666,-0.002069236943498254,1.336299180984497,3.8843088150024414,3,1.8847222873340428,0.7038321056918144,4.023844476659505,4,667,0,0.9595021073182579,1.4008373022079468,3.8492928743362427,-92.52201800157849,69.70051965161323,-17.45516023232625,117.14592982056833,6,30,30,ok,,,80,249855.00000000003,84,71.0,0,0,0,0,0,-1
1778110727.2122445,0.6652214527130127,0.0013990402221679688,669,0.0028674763161689043,1.4684110879898071,3.8323895931243896,3,1.606246945456454,0.6763150038061365,3.991510168643881,4,670,0,0.9609844475053251,1.402076169848442,3.8511801064014435,-64.5262497951129,72.57611660423055,-14.03300622424375,98.1216330768187,30,-3,30,ok,,,80,249855.00000000003,84,71.0,0,0,0,0,0,-1
1778110727.2808688,0.7338457107543945,0.009860038757324219,672,0.0028674763161689043,1.4684110879898071,3.8323895931243896,3,1.5962514247696806,0.6761627165338049,3.9900083099046517,4,673,0,0.9714085856976453,1.4101686626672745,3.849160462617874,-62.48428390720353,73.40059461334695,-14.084784728677757,97.41824359863047,-30,9,30,ok,,,80,249852.0,84,71.0,0,-1,0,0,0,0
1778110727.343192,0.7961690425872803,-0.007585763931274414,676,-0.08535652607679367,1.2624543905258179,3.8994643688201904,3,1.3588595816885363,0.5736455490639352,3.952297200621386,4,677,0,0.9700185103865806,1.3923988789319992,3.8557014167308807,-38.88410713019557,81.8753329868064,-9.659578389050516,91.15290118074776,30,-9,30,ok,,,80,249852.0,84,71.0,0,-1,0,0,0,0
1778110727.4124057,0.8653826713562012,0.0015392303466796875,679,-0.08535652607679367,1.2624543905258179,3.8994643688201904,3,1.5890715314035981,0.8581876685679214,3.9748257980672177,4,680,0,0.9600474137987476,1.3676756471395493,3.8660875260829926,-62.90241176048505,50.94879785716279,-10.873827198422514,81.6745586233363,-30,12,-30,ok,,,80,249856.0,84,71.0,0,0,0,0,0,0
1778110727.4769585,0.9299354553222656,0.006171703338623047,682,-0.067863829433918,1.4119311571121216,3.863337993621826,3,1.7546748230253282,0.8856033905034539,3.9820393152642954,4,683,0,0.9521557530679274,1.3773208260536194,3.8634010553359985,-80.25190699574007,49.17174355501655,-11.86382599282969,94.86295013271182,-30,11,30,ok,,,80,249848.99999999997,84,71.0,0,0,0,0,-1,-1
1778110727.5451164,0.9980933666229248,-0.005613803863525391,686,-0.000170006271218881,1.4678655862808228,3.8321876525878906,3,1.561094963516264,0.660926247217273,3.9895608695245284,4,687,0,0.9617042524514545,1.3853211402893066,3.8613860607147217,-59.93907110648096,72.43948930720336,-12.81748088098067,94.8918314310063,30,12,30,ok,,,80,249848.99999999997,84,71.0,0,0,0,0,-1,-1
1778110727.611822,1.0647988319396973,0.0008645057678222656,689,-0.07063937932252884,1.4125386476516724,3.864189863204956,3,1.9130701203201383,0.9597768282701641,3.9890974943000805,4,690,0,0.9617849310634483,1.3862956911325455,3.8634665310382843,-95.128518925669,42.65188628623814,-12.563096326179624,105.00690408761903,-30,7,-30,ok,,,80,249866.0,84,71.5,0,0,0,0,0,-1
1778110727.6765575,1.1295344829559326,-0.014232873916625977,693,-0.0017124753212556243,1.3441500663757324,3.901606559753418,3,1.5615879066966316,0.8328314157004708,3.960246083695814,4,694,0,0.9618295262662286,1.38727705180645,3.8656287491321564,-59.9758380430403,55.44456361059791,-9.461733456365762,82.2236291034028,30,-4,30,ok,,,80,249865.0,84,71.5,0,0,0,0,0,-1
1778110727.75041,1.2033870220184326,-0.0006270408630371094,696,-0.053944215178489685,1.534091830253601,3.812377452850342,3,1.5517460171069153,0.8292164526664693,3.9602211984113382,4,697,0,0.9547280648293963,1.3954871445894241,3.8631272315979004,-59.701795227751894,56.62706919229549,-9.709396681343785,82.85651273521673,-30,7,30,ok,,,80,249865.0,84,71.5,0,0,0,0,0,-1
1778110727.813427,1.2664039134979248,0.002538442611694336,699,-0.12397537380456924,1.4862174987792969,3.841442584991455,3,1.8957140239001156,0.9294164879862754,3.997536489744944,4,700,0,0.938872708564304,1.3977129459381104,3.8642588555812836,-95.68413153358115,46.829645795183495,-13.327763416366034,107.3596666831666,-30,23,3,ok,,,80,249862.0,84,71.5,0,0,0,0,0,-1
1778110727.8791246,1.332101583480835,0.008283853530883789,702,0.008104808628559113,1.3449993133544922,3.901496410369873,3,1.7065754080330786,0.8423450514706461,4.0091610462101555,4,703,0,0.9505553754024731,1.4080310612916946,3.864512860774994,-75.60200326306055,56.568600982104854,-14.464818543516156,95.5243450119249,23,14,30,ok,,,90,249860.0,84,71.5,0,0,0,0,0,-1
1778110727.9447956,1.3977725505828857,-0.005997657775878906,706,0.0011876164935529232,1.3457183837890625,3.901503562927246,3,1.6606311905134894,1.00082338793366,3.984348631790264,4,707,0,0.9613733932237665,1.4184390604496002,3.864767760038376,-69.92577972897229,41.76156725159401,-11.958087175188803,82.32034389446862,-28,0,-18,ok,,,90,249860.0,84,71.5,0,0,0,0,0,-1
1778110728.0111058,1.4640827178955078,-0.00025010108947753906,709,0.009562946856021881,1.3465266227722168,3.9014549255371094,3,1.7900271087907054,1.047527922982979,3.9796798884909044,4,710,0,0.971051740260009,1.4102634936571121,3.8695323765277863,-81.89753685306964,36.27355706741331,-11.014751196311812,90.24578787311596,-30,4,14,ok,,,90,249860.0,84,71.5,0,0,0,0,0,0
1778110728.081415,1.5343918800354004,-0.009833812713623047,713,-0.06096905469894409,1.4226771593093872,3.8805980682373047,3,1.6428440512046396,0.9880833821001009,3.9888369528957353,4,714,0,0.9634518592065433,1.4046149402856827,3.875583678483963,-67.93921919980963,41.653155818558176,-11.325327441177224,80.49214829270461,2,9,30,ok,,,90,249862.0,84,71.5,0,0,0,0,-1,0
1778110728.1472292,1.6002061367034912,-0.003499269485473633,716,0.013883554376661777,1.4875818490982056,3.865236759185791,3,1.6731692725499245,0.8050083089257648,4.019133013783836,4,717,0,0.9740172259189421,1.4139953404664993,3.8757145404815674,-69.91520466309824,60.89870315407345,-14.341847330226898,93.82151391751471,-30,21,30,ok,,,90,249862.0,84,71.5,0,0,0,0,-1,0
1778110728.211355,1.6643319129943848,0.00042247772216796875,719,0.015224359929561615,1.488908290863037,3.865233898162842,3,1.7766444961958048,1.019768568527458,3.991989754031061,4,720,0,0.9761343303252943,1.4320901185274124,3.8711679577827454,-80.05101658705105,41.232154999995444,-12.082179624831557,90.85282013812595,-30,0,-30,ok,,,90,249869.0,84,71.5,0,0,0,0,-1,0
1778110728.2778018,1.730778694152832,0.007016420364379883,722,0.009529360570013523,1.489554762840271,3.8652641773223877,3,1.8260062079211175,0.9643367622831903,3.9265704907457826,2,723,0,0.9840685272938572,1.4265229851007462,3.877778798341751,-84.19376806272602,46.218622281755586,-4.879169240403147,96.16942299244701,-30,-21,30,ok,,,90,249869.0,84,71.5,0,0,0,0,-1,0
1778110728.3463027,1.7992796897888184,-0.004495382308959961,726,0.08942312002182007,1.2809299230575562,3.934544563293457,3,1.7112938590662332,1.0686588297448805,3.9537315628173197,2,727,0,1.0107433390221559,1.4008620381355286,3.8894165456295013,-70.05505200440774,33.22032083906481,-6.43150171878184,77.79887044391691,0,11,-15,ok,,,90,249869.0,84,71.5,0,0,0,0,-1,0
1778110728.413538,1.8665149211883545,0.002572774887084961,729,-0.054414428770542145,1.4265224933624268,3.8815500736236572,3,1.7071740515396072,1.0610783419829324,3.934468328542244,2,730,0,1.0029284343472682,1.4110524356365204,3.8869232535362244,-70.4245617192339,34.9974093653588,-4.754507500601957,78.78478848867952,-30,-1,30,ok,,,90,249865.0,84,71.5,0,0,0,0,-1,0
1778110728.4777324,1.9307093620300293,0.006608486175537109,732,-0.054414428770542145,1.4265224933624268,3.8815500736236572,3,1.8159889967429557,0.9717854518135706,3.9207791403707044,2,733,0,0.9959781786892563,1.421152949333191,3.8844290673732758,-82.00108180536994,44.93674975196203,-3.635007299742865,93.57725243663984,-30,0,30,ok,,,90,249862.0,84,71.5,0,0,0,0,-1,0
1778110728.5446491,1.9976260662078857,-0.00609278678894043,736,0.013587068766355515,1.49076509475708,3.8653481006622314,3,1.7124836776341859,0.970352480705206,3.9599758734282102,2,737,0,0.996481193928048,1.4391827583312988,3.879915714263916,-71.60024837061378,46.88302776260929,-8.006015916429421,85.9576067010785,-16,22,30,ok,,,90,249862.0,84,71.5,0,0,0,0,-1,0
1778110728.611568,2.064544916152954,0.0006592273712158203,739,0.013587068766355515,1.49076509475708,3.8653481006622314,3,1.5983892323695466,1.1952343690000649,3.9173048087615423,2,740,0,1.0058007093612105,1.4476937502622604,3.878009468317032,-59.25885230083361,25.245938126219556,-3.929534044451044,64.53224159822297,-1,-11,-30,ok,,,90,249867.0,84,71.5,0,0,0,0,-1,0
1778110728.6777673,2.130744218826294,0.0068492889404296875,742,0.014328056946396828,1.3595763444900513,3.918012857437134,3,1.5880050897281475,1.0946583394738916,3.9560497123838094,2,743,0,1.0058562721824273,1.4316930621862411,3.8846064805984497,-58.21488175457201,33.70347227123496,-7.144323178535972,67.64567875715396,-30,18,30,ok,,,90,249869.0,84,71.5,0,0,0,0,-1,0
1778110728.7461493,2.1991262435913086,-0.004621267318725586,746,-0.05138471722602844,1.4276496171951294,3.8817965984344482,3,1.69646039696978,1.0903609821040743,3.9184363801417423,2,747,0,0.9975301375379786,1.4240357279777527,3.8866768181324005,-69.89302594318015,33.36747458736784,-3.1759562009341824,77.51458013575862,-30,-10,30,ok,,,90,249869.0,84,71.5,0,0,0,0,-1,0
1778110728.8120422,2.265019178390503,0.0011246204376220703,749,0.01879301480948925,1.3590441942214966,3.9184978008270264,3,1.8312342610376695,0.9045036859801776,3.9289669420067987,2,750,0,0.998688094317913,1.4077219069004059,3.8933310210704803,-83.25461667197564,50.32182209202283,-3.56359209363184,97.34637211765313,-30,5,30,ok,,,90,249866.0,84,71.5,0,0,0,0,-2,0
1778110728.8814151,2.3343920707702637,0.010564804077148438,752,-0.05138471722602844,1.4276496171951294,3.8817965984344482,3,1.6944791653572495,1.1005394454022213,3.911662515383415,2,753,0,0.981087114661932,1.4260618686676025,3.8867375254631042,-71.33920506953176,32.55224232653813,-2.492498992031056,78.45472077360061,-11,0,-30,ok,,,90,249869.99999999997,84,71.5,0,0,0,0,-2,0
1778110728.9453604,2.3983373641967773,-0.005448102951049805,756,0.015027792192995548,1.4920785427093506,3.8654003143310547,3,1.5948063758298696,0.871165943851824,3.995444088187104,2,757,0,0.9897673922823742,1.434256374835968,3.884718805551529,-60.50389835474954,56.3090430984144,-11.07252826355749,83.39083242736119,-10,30,30,ok,,,90,249869.99999999997,84,71.5,0,0,0,0,-2,0
1778110729.013346,2.466322898864746,0.002595663070678711,759,0.020083239302039146,1.361928105354309,3.918210744857788,3,1.5859686113440126,1.1213353681355835,3.9382641308648503,2,760,0,0.9990796007914469,1.4261820763349533,3.8893013894557953,-58.68890105525657,30.484670819936976,-4.896274140905499,66.31497389380857,-30,-18,-30,ok,,,90,249873.0,84,71.5,0,0,0,0,-2,-1
1778110729.0797417,2.5327186584472656,0.008854389190673828,762,0.020083239302039146,1.361928105354309,3.918210744857788,3,1.5825329037173275,1.012981064072341,3.9546946254531155,2,763,0,0.9998916221084073,1.410077452659607,3.89590921998024,-58.264128160892014,39.709638858726606,-5.8785405472875585,70.75394891880907,-30,9,30,ok,,,90,249873.0,84,71.5,0,0,0,0,-2,-1
1778110729.1404786,2.5934555530548096,0.009524106979370117,765,-0.05117771402001381,1.429134726524353,3.8818042278289795,3,1.4790489561034774,1.1540918748357,3.9576025228609395,2,766,0,0.9917960242601112,1.402373656630516,3.8979662358760834,-48.72529318433663,24.828178179481597,-5.963628698485612,55.01052167417656,-4,6,-30,ok,,,90,249869.99999999997,84,71.5,0,0,0,0,-2,-1
1778110729.2025125,2.655489444732666,-0.008404731750488281,769,0.015129811130464077,1.4934908151626587,3.865398645401001,3,1.5894769362375225,0.8951314665749872,3.9854167561307943,2,770,0,0.9918962435331196,1.419112965464592,3.8913894593715668,-59.758069270440295,52.398149888960475,-9.40272967592275,80.03127063888957,-30,20,30,ok,,,90,249867.0,83,71.5,0,0,0,0,-2,0
1778110729.2685704,2.7215473651885986,-0.002339601516723633,772,0.01379081979393959,1.3563786745071411,3.9015767574310303,3,1.4788152392156806,1.1617549181512108,3.952331976670724,2,773,0,1.0000431856606156,1.4102040976285934,3.8938619792461395,-47.877205355506504,24.844917947738267,-5.846999742458436,54.25572915804834,0,-7,-30,ok,,,90,249867.0,83,71.5,0,0,0,0,-2,0
1778110729.3340902,2.787067174911499,0.0032935142517089844,775,0.013907885178923607,1.3580217361450195,3.9015746116638184,3,1.5920777047728774,0.9112691770035312,3.998470841615086,2,776,0,0.9994325444567949,1.4100762903690338,3.8917465806007385,-59.26451603160825,49.88071133655026,-10.672426101434729,78.19379069204658,-30,26,30,ok,,,90,249869.0,83,71.5,0,-1,0,0,-2,0
1778110729.4025447,2.8555216789245605,-0.008374929428100586,779,-0.05076179280877113,1.4321526288986206,3.881819486618042,3,1.5856911978990218,0.907118764806002,3.999210165904346,2,780,0,0.999510410008952,1.4106391668319702,3.8917494416236877,-58.61807878900698,50.352040202596825,-10.746072428065823,78.01849259058645,-30,9,30,ok,,,90,249873.0,83,71.5,0,0,0,0,-2,0
1778110729.4683428,2.9213197231292725,-0.002332448959350586,782,-0.04035276174545288,1.5541119575500488,3.8284800052642822,3,1.3607774361297231,1.2068551258970912,3.9640482160441186,2,783,0,0.992587840766646,1.4183933436870575,3.887134402990341,-36.818959536307716,21.15382177899663,-7.6913813053777424,43.154111085486754,30,-4,-30,ok,,,90,249873.0,83,71.5,0,0,0,0,-2,0
1778110729.534585,2.9875619411468506,0.003802061080932617,785,-0.04035276174545288,1.5541119575500488,3.8284800052642822,3,1.4557698052794044,1.058124279008743,3.9904469410299868,2,786,0,0.9850333406357095,1.442416325211525,3.875918060541153,-47.07364646436949,38.42920462027819,-11.45288804888338,61.837695654510874,-30,24,30,ok,,,100,249867.99999999997,83,71.5,0,0,0,0,-2,0
1778110729.594015,3.0469918251037598,0.0031936168670654297,788,0.015071147121489048,1.4905527830123901,3.8491744995117188,3,1.5867462900045686,0.9211436537421107,3.9943302282222524,2,789,0,0.9844068291131407,1.458494409918785,3.8672885298728943,-60.23394608914279,53.73507561766744,-12.704169834935808,81.71280526515467,-30,15,30,ok,,,100,249879.0,83,71.5,0,0,0,0,-2,0
1778110729.6562047,3.1091816425323486,0.004470348358154297,791,-0.04166778549551964,1.5476847887039185,3.8128862380981445,3,1.3607541313521048,1.2114482161989826,3.960837713864023,2,792,0,0.9855955701787025,1.4733131676912308,3.85867378115654,-37.51585611734023,26.186495149224818,-10.216393270748325,46.87799782285866,30,-1,-30,ok,,,100,249879.0,83,71.5,0,0,0,0,-2,0
1778110729.7170413,3.170018196105957,0.0061969757080078125,794,0.01464617345482111,1.4933842420578003,3.8486757278442383,3,1.320387914127716,1.09998808141339,4.007834617083153,2,795,0,0.9855351154692471,1.4732998460531235,3.8565834164619446,-33.485279865846884,37.33117646397335,-15.125120062120878,52.37986216831789,-21,30,30,ok,,,100,249877.0,83,71.5,0,0,0,0,-2,0
1778110729.7806268,3.2336037158966064,-0.011186838150024414,798,0.01941150613129139,1.3623673915863037,3.901453971862793,3,1.460735825479536,1.0702941632745975,4.004814406941199,2,799,0,0.9862377012614161,1.4740484356880188,3.856568068265915,-47.449812421811984,40.37542724134213,-14.82463386752837,64.04240464795434,-30,10,30,ok,,,100,249873.99999999997,83,71.5,-1,0,0,0,-2,0
1778110729.8491805,3.302157402038574,-0.001697540283203125,801,-0.05100429430603981,1.4297454357147217,3.8639700412750244,3,1.3294478510667338,1.1034434925282408,4.005692901660809,2,802,0,0.9781236788257957,1.4830138981342316,3.8518674969673157,-35.132417224093814,37.957040560599076,-15.382540469349326,53.95967215817695,5,13,30,ok,,,100,249873.99999999997,83,71.5,-1,0,0,0,-2,0
1778110729.921424,3.3744008541107178,-0.009507179260253906,805,0.017870178446173668,1.3568899631500244,3.883833646774292,3,1.3266102074358725,1.103992970848167,4.006160208383855,2,806,0,0.9867026752326638,1.473606064915657,3.852119266986847,-33.99075322032088,36.961309406748995,-15.404094139700764,52.52424024972613,-30,12,30,ok,,,100,249869.99999999997,83,71.5,-1,0,0,0,-2,0
1778110729.9911454,3.444122314453125,2.9802322387695312e-05,808,0.01321533415466547,1.4857902526855469,3.8319520950317383,3,1.278361989262599,0.9558554065301279,4.037482273022548,2,809,0,0.9933986872201785,1.4650658518075943,3.852553278207779,-28.49633020424205,50.92104452774664,-18.492899481476943,61.21258810194161,-15,25,30,ok,,,100,249880.00000000003,83,71.5,-1,0,0,0,-2,0
1778110730.0600019,3.5129787921905518,0.008258581161499023,811,0.013295037671923637,1.4872790575027466,3.8319509029388428,3,1.3329111399928815,1.10197313999354,4.006554894477387,2,812,0,1.0001046621473506,1.4567117393016815,3.852987140417099,-33.28064778455308,35.47385993081416,-15.356775406028778,51.008105299272884,-30,0,-19,ok,,,100,249880.00000000003,83,71.5,-1,0,0,0,-2,0
1778110730.122655,3.575631856918335,-0.008086919784545898,815,0.013295037671923637,1.4872790575027466,3.8319509029388428,3,1.2766360438739743,0.9546936929835822,4.057525877822934,2,816,0,0.9998826484661549,1.456302523612976,3.8508341908454895,-27.67533954078194,50.16088306293939,-20.66916869774449,60.90363817545934,-12,30,30,ok,,,100,249875.0,83,71.5,-1,0,0,0,-1,0
1778110730.185787,3.638763904571533,-0.005579233169555664,818,0.013295037671923637,1.4872790575027466,3.8319509029388428,3,1.2000910841415309,1.1573082970074382,4.014721769329851,2,819,0,1.0067530013620853,1.4487518072128296,3.853217273950577,-19.333808277944552,29.14435102053914,-16.150449537927436,38.523062692546375,2,-4,-30,ok,,,100,249875.0,83,71.5,-1,0,0,0,-1,0
1778110730.250126,3.7031028270721436,-0.0014193058013916016,821,0.01321533415466547,1.4857902526855469,3.8319520950317383,3,1.2053478515530582,1.1525720170198057,3.9970445660128044,2,822,0,1.0065741464495659,1.447802558541298,3.8511268198490143,-19.877370510349234,29.52305415214922,-14.591774616379016,38.46609508816354,-30,6,30,ok,,,100,249875.0,83,71.5,-1,0,0,0,-1,0
1778110730.3206208,3.7735977172851562,0.009730100631713867,824,0.08269282430410385,1.4226231575012207,3.847982168197632,3,1.2358613849521172,0.7476450510121856,4.08725379981867,2,825,0,1.0144843112211674,1.4553345292806625,3.844442844390869,-22.137707373094972,70.7689478268477,-24.28109554278013,78.02495539898432,-30,30,30,ok,,,100,249880.00000000003,83,71.5,-1,0,0,0,-1,0
1778110730.3844311,3.8374080657958984,-0.006685018539428711,828,0.007358582224696875,1.4869205951690674,3.832519054412842,3,1.0060172966196017,0.8590429861380076,4.07328781151402,2,829,0,1.0217796707875095,1.4624814242124557,3.8405114710330963,1.5762374167907822,60.34384380744482,-23.277634048092377,64.69708074347943,30,13,22,ok,,,100,249871.99999999997,83,71.5,-1,0,0,0,-1,0
1778110730.455363,3.9083399772644043,0.0044972896575927734,831,0.007358582224696875,1.4869205951690674,3.832519054412842,3,1.127880870735595,1.012100860841762,4.030731292389235,2,832,0,1.020465721259825,1.4787352532148361,3.834097146987915,-10.741514947577002,46.6634392373074,-19.663414540131985,51.76395054668813,-30,1,-2,ok,,,100,249871.99999999997,83,71.5,-1,0,0,0,-1,0
1778110730.5169191,3.969896078109741,0.006165742874145508,834,-0.057419486343860626,1.4236923456192017,3.848604679107666,3,1.1610153533582606,1.3093805627917923,3.9532690089880815,2,835,0,1.0116363686975092,1.470973014831543,3.836178719997406,-14.93789846607514,16.15924520397507,-11.709028899067553,24.927161368759187,-30,-21,-30,ok,,,100,249873.0,83,71.5,0,0,0,0,-1,0
1778110730.5772483,4.0302252769470215,0.006374835968017578,837,-0.057419486343860626,1.4236923456192017,3.848604679107666,3,1.1329500274673479,1.013293557678339,4.050357496028277,2,838,0,1.0027970531955361,1.4630246758460999,3.838260442018509,-13.01529742718117,44.97311181677608,-21.20970540097682,51.39873886389099,-19,30,30,ok,,,100,249873.0,83,71.5,0,0,0,0,-1,0
1778110730.6443753,4.0973522663116455,-0.006390810012817383,841,0.018214065581560135,1.5978368520736694,3.7794647216796875,3,,,,,842,0,,,,,,,,0,0,0,lost_self,,,100,249867.99999999997,83,71.0,-1,0,0,0,-1,0
1778110730.7099872,4.162964105606079,-0.0010559558868408203,844,0.018214065581560135,1.5978368520736694,3.7794647216796875,3,1.0954876205684587,1.2039937938277105,3.9844390648109558,2,845,0,1.0034119316842407,1.4768444001674652,3.8316996693611145,-9.207568888421802,27.285060633975466,-15.273939544984128,32.59673431278938,-17,1,4,ok,,,100,249867.99999999997,83,71.0,-1,0,0,0,-1,0
1778110730.7782567,4.231233596801758,0.007140398025512695,847,-0.04608054831624031,1.5428674221038818,3.796415090560913,3,,,,,848,0,,,,,,,,0,0,0,lost_self,,,100,249883.0,83,71.0,-1,-1,0,0,-1,0
1778110730.848265,4.301241874694824,-0.002597808837890625,851,0.013432233594357967,1.357525110244751,3.884054660797119,3,1.1341805005637238,0.9873222722416644,4.041553878639628,2,852,0,1.003429081174545,1.4606251567602158,3.838212639093399,-13.075141938917877,47.33028845185514,-20.334123954622907,53.14689208844323,-30,25,30,ok,,,100,249883.0,83,71.0,-1,-1,0,0,-1,0
1778110730.9117799,4.36475682258606,0.0007414817810058594,854,-0.060327112674713135,1.4255328178405762,3.848419427871704,3,1.0205985318880204,0.8064879621560439,4.069925872795189,2,855,0,0.9942362753208727,1.4530929774045944,3.8402710556983948,-2.6362256567147746,64.66050152485505,-22.96548170967938,68.668358749256,20,28,30,ok,,,100,249869.99999999997,83,71.0,0,0,0,0,-1,0
1778110730.9756315,4.428608417510986,0.004943370819091797,857,-0.060327112674713135,1.4255328178405762,3.848419427871704,3,1.0048085431461051,0.7932575329683635,4.073549775242961,2,858,0,0.9763587831985205,1.4534566849470139,3.840325713157654,-2.8449759947584585,66.01991519786503,-23.322406208530744,70.07608523954342,-21,19,30,ok,,,100,249866.0,83,71.0,0,0,0,0,-1,0
1778110731.0424755,4.495452404022217,-0.008405923843383789,861,0.07805346697568893,1.4240953922271729,3.8481626510620117,3,0.7289385702884702,0.6525930907270168,4.068833819852787,2,862,0,0.9851956437923945,1.445603534579277,3.8422811627388,25.625707350392435,79.30104438522602,-22.65526571139871,86.36314944610127,30,15,30,ok,,,100,249866.0,83,71.0,0,0,0,0,-1,0
1778110731.1119552,4.564932107925415,0.0009531974792480469,864,0.008557944558560848,1.481797695159912,3.815966844558716,3,1.0063596898428422,0.7721765870062727,4.078482067437346,2,865,0,0.9853455640841275,1.4449631720781326,3.8402121365070343,-2.101412575871464,67.278658507186,-23.826993093031135,71.40419753204942,-30,23,25,ok,,,100,249886.0,82,71.0,0,0,0,0,-1,0
1778110731.181583,4.634559869766235,-0.011145830154418945,868,0.008582803420722485,1.4833216667175293,3.8159632682800293,3,1.0032131395920443,1.0572975134610059,4.026151232405959,2,869,0,0.9935958503047004,1.4524168372154236,3.8361319601535797,-0.9617289287343844,39.51193237544177,-19.001927225237925,43.854201176706965,-15,-1,-30,ok,,,100,249867.0,82,71.0,-1,0,0,0,-1,0
1778110731.2500536,4.703030586242676,-0.0012216567993164062,871,0.0053170728497207165,1.4844393730163574,3.8150827884674072,3,0.7855303094495758,1.0749810335283903,3.995286607823452,2,872,0,1.001437920203898,1.460010215640068,3.8319417238235474,21.59076107543223,38.50291821116778,-16.334488399990477,47.06857960340102,30,3,30,ok,,,100,249867.0,82,71.0,-1,0,0,0,-1,0
1778110731.309884,4.762861013412476,-0.0023813247680664062,874,0.014077399857342243,1.486534833908081,3.8147592544555664,3,0.9022820107056777,1.1480281572735653,3.9749470336295247,2,875,0,1.0009208369883709,1.4460974633693695,3.8363535404205322,9.863882628269316,29.80693060958042,-13.85934932089925,34.319540446622035,-30,3,10,ok,,,100,249875.0,82,71.0,-2,0,0,0,-1,0
1778110731.3769534,4.829930305480957,0.00577545166015625,877,0.008183888159692287,1.4802590608596802,3.7990784645080566,3,0.8906438857791876,1.145812048172021,3.9960598523657986,2,878,0,1.0002647938090377,1.4614392071962357,3.8257315158843994,10.962090802985003,31.562715902421456,-17.03283364813992,37.50319842353535,-7,28,30,ok,,,100,249873.0,82,71.0,-1,0,0,1,-1,0
1778110731.435799,4.888775825500488,0.004972934722900391,880,0.008656291291117668,1.4879837036132812,3.8159520626068115,3,0.9979727114067503,1.029096390877633,4.020568631375601,2,881,0,1.0088877193047665,1.4692455679178238,3.821673095226288,1.091500789801625,44.01491770401908,-19.889553614931277,48.31251077585325,-30,28,30,ok,,,100,249873.0,82,71.0,-1,0,0,1,-1,0
1778110731.5007274,4.953704357147217,0.00998997688293457,883,0.008656291291117668,1.4879837036132812,3.8159520626068115,3,0.992587929893646,1.217537237591046,3.9511943820184863,2,884,0,1.0175106448004954,1.477051928639412,3.8176146745681763,2.4922714906849386,25.95146910483659,-13.357970745031,29.293780027638512,-12,-11,-28,ok,,,100,249878.00000000003,82,71.0,0,0,0,1,0,0
1778110731.5675383,5.020515203475952,-0.003483295440673828,887,0.00824904814362526,1.4834048748016357,3.799074411392212,3,0.9871714471361266,1.2127172497991072,3.9532444198316474,2,888,0,1.0087850924464874,1.4844656139612198,3.8114786446094513,2.1613645310360807,27.174836416211257,-14.176577522219613,30.726512674356076,-18,16,30,ok,,,100,249878.00000000003,82,71.0,0,0,0,1,0,0
1778110731.6341205,5.087097406387329,0.003104686737060547,890,0.00824904814362526,1.4834048748016357,3.799074411392212,3,0.8800557365600299,1.11935780878747,3.97115470682659,2,891,0,1.0087464803946204,1.4846665114164352,3.8093670904636383,12.869074383459056,36.53087026289652,-16.17876163629517,41.97463383682621,27,22,30,ok,,,100,249879.0,82,72.0,0,0,0,1,0,0
1778110731.703003,5.155979871749878,-0.007912158966064453,894,-0.050985489040613174,1.546352505683899,3.7807512283325195,3,0.7498653310203789,1.0356631203379036,3.9750798330634747,2,895,0,1.0013004438369535,1.4925453662872314,3.8049655854701996,25.14351128165746,45.68822459493278,-17.01142475932751,54.85433983332694,30,18,30,ok,,,100,249888.0,82,72.0,-1,-1,0,1,0,0
1778110731.7700381,5.223015069961548,-0.0017287731170654297,897,-0.050985489040613174,1.546352505683899,3.7807512283325195,3,0.8703915061196357,1.1061011636899152,3.9583390486645986,2,898,0,0.9942626236006618,1.5002845078706741,3.8006741404533386,12.387111748102608,39.418334418075894,-15.766490821126,44.22474260601071,-30,10,28,ok,,,100,249888.0,82,72.0,-1,-1,0,1,0,0
1778110731.8389323,5.291909217834473,-0.011907815933227539,901,0.008283428847789764,1.4849988222122192,3.799072742462158,3,0.6796725096469354,1.1436888339325808,3.914796170630987,2,902,0,0.9935383772244677,1.5000925064086914,3.7987133264541626,31.386586757753232,35.64036724761106,-11.608284417682446,48.88870905401744,30,-1,30,ok,,,100,249879.0,82,72.0,0,-1,0,1,-1,0
1778110731.9087362,5.361713171005249,-0.00424957275390625,904,0.008283428847789764,1.4849988222122192,3.799072742462158,3,0.7219800182676986,1.018849454031045,3.9634718638623347,2,905,0,0.9935508198104799,1.5006849765777588,3.7987126111984253,27.157080154278123,48.18355225467137,-16.475925266390945,57.71150512478628,-16,30,30,ok,,,110,249871.99999999997,82,72.0,0,0,0,1,-1,0
1778110731.9840767,5.437053680419922,0.013054609298706055,907,0.008283428847789764,1.4849988222122192,3.799072742462158,3,0.5762888360093433,0.965613510902079,3.949327934028644,2,908,0,0.9935042120050639,1.500311866402626,3.7966026961803436,41.72153759957206,53.469835550054704,-15.272523784830039,69.5194936415722,30,10,30,ok,,,110,249876.00000000003,82,72.0,0,0,0,1,-1,-1
1778110732.04621,5.499186992645264,-0.0045986175537109375,911,-0.05927679315209389,1.4263290166854858,3.8153228759765625,3,0.7671076418403707,1.1789303503314272,3.911753839482772,2,912,0,0.9850125764496624,1.4926050305366516,3.7965240478515625,21.790493460929174,31.367468020522438,-11.522979163120972,39.89389306752369,-30,-1,-30,ok,,,110,249876.00000000003,82,72.0,0,0,0,1,-1,-1
1778110732.112964,5.565940856933594,0.0020864009857177734,914,0.009320447221398354,1.479603886604309,3.7834174633026123,3,0.5499785530523562,0.9600561507998281,3.93284961381217,2,915,0,0.9851465013343841,1.4921299070119858,3.7945669293403625,43.51679482820279,53.20737562121577,-13.828268447180747,70.11388778882781,30,22,30,ok,,,110,249869.99999999997,82,72.0,0,1,0,1,-1,-1
1778110732.1785233,5.631500244140625,-0.012402772903442383,918,0.07557544112205505,1.425421953201294,3.8144431114196777,3,0.8252291393461679,1.0502338475508761,3.9299500745066647,2,919,0,0.9935623004566878,1.484882041811943,3.7964880168437958,16.83331611105199,43.46481942610669,-13.34620576628689,48.483731987077206,-30,12,22,ok,,,110,249875.0,82,72.0,0,1,0,1,0,-1
1778110732.2535012,5.706478118896484,0.0016217231750488281,921,0.07557544112205505,1.425421953201294,3.8144431114196777,3,0.6281107917471791,1.1134934050599181,3.8958582724050648,2,922,0,1.0093824167270213,1.4697657227516174,3.8006995022296906,38.12716249798422,35.62723176916993,-9.515877017537422,53.042738231493516,30,-3,19,ok,,,110,249875.0,82,72.0,0,1,0,1,0,-1
1778110732.3146122,5.767589092254639,0.003690481185913086,924,0.00797977764159441,1.359978199005127,3.833970308303833,3,0.728684068323561,1.156230665842103,3.8887208864745895,2,925,0,1.0167530750622973,1.446468934416771,3.8073518872261047,28.806900673873624,29.023826857466783,-8.136899924848473,41.69447436140226,-30,5,20,ok,,,110,249884.0,82,72.0,0,0,0,1,0,-1
1778110732.375217,5.82819390296936,0.0041179656982421875,927,0.008039035834372044,1.3618626594543457,3.8339684009552,3,0.5670809080146957,1.2102264157818579,3.8535106903210283,2,928,0,1.01672252593562,1.4310769140720367,3.811713844537735,44.96416179209244,22.08504982901789,-4.179684578329335,50.269225524071814,30,-7,13,ok,,,110,249884.0,82,72.0,0,0,0,1,0,-1
1778110732.4353275,5.8883044719696045,0.00457763671875,930,0.012004656717181206,1.4869645833969116,3.782113790512085,3,0.706811607836956,1.1500022782476127,3.875960153395212,2,931,0,1.017187679419294,1.4313226342201233,3.809593975543976,31.037607158233804,28.13203559725106,-6.636617785123633,42.41213482695331,-30,19,30,ok,,,110,249889.0,82,72.0,0,0,0,1,0,-1
1778110732.5032418,5.956218719482422,-0.0078122615814208984,934,0.00949150137603283,1.4878761768341064,3.7833995819091797,3,0.7524792085338847,1.2931045576249,3.836180454902677,2,935,0,1.0173386884853244,1.4316823035478592,3.8076348304748535,26.485947995143967,13.857774592295913,-2.854562442782349,30.028184836784533,-18,-6,-17,ok,,,110,249886.0,82,72.0,0,0,0,1,0,-1
1778110732.5687652,6.021742105484009,-0.0019028186798095703,937,0.013428770005702972,1.4895849227905273,3.7822558879852295,3,0.6432822846184688,1.2424248041635668,3.834355507685235,2,938,0,1.026426883880049,1.4395892918109894,3.803501456975937,38.314459926158015,19.716448764742257,-3.0854050709298253,43.20018420999608,30,8,30,ok,,,110,249886.0,82,72.0,0,0,0,1,0,-1
1778110732.636721,6.08969783782959,0.0059778690338134766,940,-0.06275282800197601,1.4306272268295288,3.798476457595825,3,0.6358000835621511,1.2418785241329748,3.8359064047881253,2,941,0,1.0174177244771272,1.4334672093391418,3.8053838312625885,38.16176409149761,19.1588685206167,-3.052257352553678,42.81003102675367,5,7,30,ok,,,120,249894.99999999997,82,72.0,0,0,0,1,0,-1
1778110732.6965866,6.149563550949097,0.005895376205444336,943,0.005996610037982464,1.598138689994812,3.73309063911438,3,0.6732570186149545,1.1393131791520057,3.8662132459927707,2,944,0,1.0087203705916181,1.4550568014383316,3.7952147722244263,33.546335197666366,31.57436222863259,-7.099847376834445,46.61228151585623,-14,26,30,ok,,,120,249886.0,82,72.0,0,0,0,1,0,-1
1778110732.7580812,6.211058139801025,0.007247447967529297,946,0.005996610037982464,1.598138689994812,3.73309063911438,3,0.5040664184273432,1.288566031202577,3.783439264703985,2,947,0,1.000023016706109,1.4766463935375214,3.785045713186264,49.59565982787658,18.80803623349443,0.1606448482279088,53.04241234606655,30,-24,-13,ok,,,120,249886.0,82,72.0,0,0,0,1,0,-1
1778110732.8178742,6.270851135253906,0.0068340301513671875,949,-0.043646737933158875,1.5464670658111572,3.748110294342041,3,0.4314491409858632,1.1729998998275675,3.8069099430879674,2,950,0,0.9935697022592649,1.4999575018882751,3.77431321144104,56.21205612734017,32.695760206070766,-3.2596731646927335,65.11093194431132,30,22,30,ok,,,120,249891.0,82,72.0,0,0,0,0,0,0
1778110732.8784063,6.331383228302002,-0.012604475021362305,953,-0.0501096174120903,1.5476690530776978,3.7480201721191406,3,0.6014155199482083,1.2943429633426913,3.781851206371796,0,954,0,0.9863011206034571,1.5231833010911942,3.7635696828365326,38.48856006552488,22.884033774850288,-1.8281523535263577,44.81506888038564,-30,2,7,ok,,,120,249891.0,82,72.0,0,0,0,0,0,0
1778110732.947393,6.400369882583618,-0.0033190250396728516,956,0.061105530709028244,1.5467113256454468,3.749086618423462,3,0.5994471900968189,1.2973327405309485,3.780086872416238,0,957,0,0.992438729852438,1.530651643872261,3.7594412863254547,39.29915397556191,23.331890334131256,-2.0645586090783485,45.7500055957283,11,8,30,ok,,,120,249896.99999999997,82,72.0,0,0,0,0,0,-1
1778110733.0165331,6.469510078430176,0.00558924674987793,959,-0.0580129474401474,1.5502376556396484,3.748638153076172,3,0.6841873188948281,1.2786716812978125,3.753874013982715,0,960,0,0.9840006737504154,1.5384468287229538,3.7550961077213287,29.981335485558734,25.97751474251413,0.12220937386135944,39.67022415901153,-30,-2,30,ok,,,120,249892.0,82,72.0,0,0,0,0,0,-1
1778110733.0803988,6.5333757400512695,0.009479522705078125,962,0.005178612656891346,1.496553659439087,3.7823963165283203,3,0.5374024694566095,1.4028949125358907,3.751465812154042,0,963,0,0.982969404081814,1.5393179208040237,3.755113661289215,44.55669346252045,13.642300826813303,0.3647849135173242,46.599832319391595,30,5,-10,ok,,,120,249892.0,82,72.0,0,0,0,0,0,-1
1778110733.1457338,6.598710775375366,-0.005466938018798828,966,-0.05316421389579773,1.5510973930358887,3.7479794025421143,3,0.6663840867891941,1.200142361305907,3.77497772543222,0,967,0,0.9841679808450863,1.5543766915798187,3.748801529407501,31.778389405589213,35.42343302739117,-2.6176196024718656,47.660650153376814,-30,19,30,ok,,,120,249889.0,81,72.0,0,1,0,0,0,-1
1778110733.2083304,6.661307334899902,-0.002537250518798828,969,-0.05793599411845207,1.5595264434814453,3.7638444900512695,3,0.665515222202404,1.202247111762433,3.77417724199165,0,970,0,0.976176405325532,1.5495501607656479,3.7526457607746124,31.066118312312796,34.7303049003215,-2.153148121703774,46.64690592416509,1,5,30,ok,,,130,249885.0,81,72.0,0,0,0,0,0,0
1778110733.281295,6.734272003173828,0.010385274887084961,972,-0.001170832896605134,1.4994311332702637,3.7831852436065674,3,0.4789394152877219,1.2405509627044666,3.786193206931032,0,973,0,0.9752804749587085,1.5372117161750793,3.758907586336136,49.63410596709866,29.666075347061273,-2.728562059489592,57.888388754250045,30,10,29,ok,,,130,249885.0,81,72.0,0,0,0,0,0,0
1778110733.339911,6.792887926101685,0.008904695510864258,975,-0.09988251328468323,1.6098600625991821,3.7271716594696045,3,0.5006943027163414,1.322594164893474,3.7423998258452764,0,976,0,0.968251003039768,1.5451358407735825,3.7562902569770813,46.75567003234266,22.254167588010844,1.3890431131804881,51.800290500911785,1,-11,13,ok,,,130,249892.0,81,72.0,0,0,0,0,0,-1
1778110733.401065,6.854042053222656,-0.009978532791137695,979,-0.05793599411845207,1.5595264434814453,3.7638444900512695,3,0.5079323639329802,1.326935960659441,3.7392959800120913,0,980,0,0.9672727059514727,1.546618014574051,3.7582682967185974,45.93403420184925,21.968205391460984,1.897231670650612,50.9523015593034,10,3,30,ok,,,130,249892.0,81,72.0,0,0,0,0,0,-1
1778110733.47118,6.924156904220581,3.314018249511719e-05,982,-0.06435892730951309,1.4457674026489258,3.814330816268921,3,0.5008677967190777,1.3249940899917552,3.741114998304093,0,983,0,0.9515896486991551,1.5340000241994858,3.76642382144928,45.072185198007745,20.900593420773063,2.5308823145186565,49.746779284230186,10,2,30,ok,,,130,249890.0,81,72.0,0,0,0,0,0,0
1778110733.5366416,6.989618539810181,0.005832195281982422,985,-0.06872192770242691,1.4447120428085327,3.815020799636841,3,0.4767479634350464,1.240842341680295,3.74880001215883,0,986,0,0.9502510261663701,1.5208093225955963,3.7747216522693634,47.350306273132375,27.996698091530135,2.592164011053333,55.06891975014515,23,4,30,ok,,,130,249900.0,81,72.0,0,0,0,0,0,0
1778110733.6033168,7.056293725967407,-0.007757663726806641,989,-0.05796842649579048,1.557861566543579,3.7638440132141113,3,0.6485686869672845,1.2016597482883304,3.7220474255680696,0,990,0,0.9423576462722849,1.5284728109836578,3.7724026143550873,29.378895930500036,32.68130626953274,5.035518878701772,44.232835721394956,-30,-5,30,ok,,,130,249900.0,81,72.0,0,0,0,0,0,0
1778110733.671396,7.124372959136963,0.00015115737915039062,992,-0.04799101501703262,1.5639939308166504,3.7789194583892822,3,0.445597882105248,1.4190706489967475,3.6758905289466015,0,993,0,0.9430042961321305,1.530084878206253,3.7762701213359833,49.740641402688254,11.101422920950554,10.037959238938177,51.94356190812501,30,-18,-30,ok,,,130,249888.0,81,72.0,0,0,0,1,0,0
1778110733.7366505,7.189627408981323,0.0058019161224365234,995,-0.04799101501703262,1.5639939308166504,3.7789194583892822,3,0.4968948996007107,1.3187387607385885,3.7060693962281372,0,996,0,0.944247418519808,1.5306433141231537,3.778154492378235,44.735251891909726,21.190455338456516,7.208509615009762,50.02240268273227,-4,12,30,ok,,,130,249894.0,81,72.0,0,1,0,1,0,0
1778110733.8023162,7.255293130874634,0.011397361755371094,998,0.07885871827602386,1.3144152164459229,3.8830373287200928,3,0.5147211264341491,1.3920813273183654,3.6640275856151585,0,999,0,0.9542511124163866,1.507516324520111,3.7906360030174255,43.95299859822374,11.543499720174566,12.660841740226703,47.17430852843734,10,-23,0,ok,,,130,249894.0,81,72.0,0,1,0,1,0,0
1778110733.866024,7.319000959396362,-0.00503849983215332,1002,-0.11902492493391037,1.5101099014282227,3.7932822704315186,3,0.4154582538146961,1.348390914094497,3.684008888875003,0,1003,0,0.9518583109602332,1.4950475543737411,3.798899829387665,53.640005714553716,14.665664027924418,11.489094051266191,56.78319466669828,30,3,30,ok,,,130,249901.00000000003,81,72.0,1,1,0,1,0,0
1778110733.9352312,7.3882081508636475,0.004276752471923828,1005,-0.05143214017152786,1.561589002609253,3.7799072265625,3,0.5705858556022305,1.2972843324504613,3.67190483312497,0,1006,0,0.9526712927035987,1.495305374264717,3.8009076714515686,38.20854371013682,19.802104181425584,12.900283832659865,44.926979259957534,-30,-7,30,ok,,,130,249898.0,81,72.0,2,1,0,1,0,0
1778110734.000844,7.4538209438323975,-0.010705709457397461,1009,0.0022679956164211035,1.506227970123291,3.8160037994384766,3,0.571767062479445,1.3001168301817398,3.6713950786287035,0,1010,0,0.9609996580693405,1.5028629451990128,3.801116794347763,38.92325955898956,20.274611501727293,12.972171571905955,45.76414799308963,14,-2,30,ok,,,130,249898.0,81,72.0,2,1,0,1,0,0
1778110734.0687683,7.521745204925537,-0.002215862274169922,1012,-0.049116477370262146,1.6603412628173828,3.730001211166382,3,0.515785131557839,1.4006981804733938,3.6454590051275484,0,1013,0,0.9634503393608611,1.529816597700119,3.7904893457889557,44.76652078030221,12.911841722672524,14.50303406614073,48.79646541060341,30,-8,11,ok,,,130,249906.0,81,72.0,1,1,0,0,0,0
1778110734.1346352,7.587612152099609,0.003799915313720703,1015,-0.11799056828022003,1.5125832557678223,3.808863639831543,3,0.44625903165712566,1.432343539983488,3.6559127959927418,0,1016,0,0.9559475716378074,1.5241568088531494,3.7961167991161346,50.96885399806818,9.181326886966135,14.020400312339287,53.65344785006795,30,0,22,ok,,,130,249900.0,81,72.0,1,1,0,0,0,-1
1778110734.200008,7.652984857559204,0.008715152740478516,1018,0.008493930101394653,1.5033392906188965,3.815223455429077,3,0.5772481853883217,1.310450786150806,3.669837339186654,0,1019,0,0.9630081897776108,1.5165749788284302,3.800654798746109,38.576000438928915,20.612419267762427,13.08174595594549,45.65207240849164,-30,1,30,ok,,,130,249912.0,81,72.0,1,0,0,0,0,-1
1778110734.2605686,7.713545560836792,0.009646892547607422,1021,-0.10319997370243073,1.6156045198440552,3.759610414505005,3,0.5816176371728474,1.3174130222669993,3.6856140707082576,0,1022,0,0.9561070699419361,1.5230263024568558,3.7982411682605743,37.448943276908864,20.561328018985648,11.26270975523167,44.181898934881154,7,6,30,ok,,,130,249912.0,81,72.0,1,0,0,0,0,-1
1778110734.3227172,7.775694131851196,0.011794328689575195,1024,-0.09677661955356598,1.6134164333343506,3.7589290142059326,3,0.5272650960272737,1.417448701569402,3.659123208894419,0,1025,0,0.9341526527132373,1.5604014545679092,3.7827276289463043,40.688755668596365,14.29527529985073,12.36044200518851,44.86323952102527,27,-6,13,ok,,,130,249900.0,81,72.0,0,0,0,0,0,-1
1778110734.3822422,7.835219144821167,0.011289834976196289,1027,-0.09677661955356598,1.6134164333343506,3.7589290142059326,3,0.5058375957823497,1.3534050540726557,3.683657274275839,0,1028,0,0.9369336908857804,1.5733147710561752,3.778433471918106,43.10960951034307,21.990971698351956,9.477619764226697,49.313958924094095,25,11,30,ok,,,130,249906.0,81,72.0,1,1,0,0,0,-1
1778110734.4443147,7.897291660308838,-0.006865978240966797,1031,-0.04731883481144905,1.5517631769180298,3.7800209522247314,3,0.4643596831842802,1.4538200863289532,3.668489022306862,0,1032,0,0.9374478540557902,1.5720865428447723,3.778447687625885,47.308817087151,11.826645651581913,10.99586653190232,49.98902681930307,30,-7,0,ok,,,130,249906.0,81,72.0,1,1,0,0,0,-1
1778110734.514576,7.967552900314331,0.003660917282104492,1034,0.008198662661015987,1.4956519603729248,3.8155081272125244,3,0.5124194450056994,1.3619303210984992,3.699456105146923,0,1035,0,0.9381891874363646,1.5707645416259766,3.778385728597641,42.57697424306652,20.883422052747736,7.892962345071819,48.07509653561459,-1,11,30,ok,,,130,249907.00000000003,81,72.0,1,0,0,0,0,-1
1778110734.5813186,8.034295558929443,0.010147809982299805,1037,0.008198662661015987,1.4956519603729248,3.8155081272125244,3,0.4929184308689979,1.5266794356006983,3.6420554175318576,0,1038,0,0.9453535799402744,1.5501783788204193,3.789074093103409,45.24351490712765,2.3498943219721014,14.701867557155124,47.63026930581066,27,-30,-30,ok,,,130,249907.00000000003,81,72.0,1,0,0,0,0,-1
1778110734.645006,8.09798288345337,-0.0058324337005615234,1041,0.007101395167410374,1.3676968812942505,3.8673906326293945,3,0.6149377854966626,1.424782519396231,3.671716072871748,0,1042,0,0.9609900753712282,1.5320675820112228,3.7963899672031403,34.60522898745656,10.728506261499193,12.467389433139209,38.315251782480594,-29,6,30,ok,,,140,249904.0,81,72.0,0,0,0,0,0,-1
1778110734.712496,8.165472984313965,0.0009217262268066406,1044,0.07157626748085022,1.5531671047210693,3.796488046646118,3,0.5039628260412236,1.5400020656170423,3.6558320675067812,0,1045,0,0.9688753675436601,1.5382960587739944,3.7940480411052704,46.491254150243655,-0.17060068430478914,13.821597359848914,48.50260168933019,30,-8,-10,ok,,,140,249911.0,81,72.0,0,1,0,0,0,-1
1778110734.784436,8.237412929534912,-0.006567955017089844,1048,0.08091618865728378,1.4340084791183472,3.8480374813079834,3,0.5488153561506975,1.4564152660384555,3.6871408382242716,0,1049,0,0.9918898878386244,1.515596553683281,3.8051014244556427,44.30745316879269,5.918128764482544,11.796058623137107,46.23117620630304,9,5,30,ok,,,140,249911.0,81,72.0,0,1,0,0,0,-1
1778110734.851604,8.304580926895142,0.0005671977996826172,1051,0.08254595100879669,1.4340344667434692,3.8479855060577393,3,0.5564018718613164,1.4716387416146839,3.7011596849781205,0,1052,0,1.0143052091589198,1.4931738078594208,3.8162334859371185,45.790333729760334,2.153506624473689,11.5073800958998,47.26322090733967,24,0,15,ok,,,140,249906.0,81,72.0,0,1,0,0,0,0
1778110734.9105303,8.363507270812988,-0.0011005401611328125,1054,0.015585188753902912,1.598846435546875,3.764228343963623,3,0.5620015576272593,1.470598315506101,3.701496386854636,0,1055,0,1.0283504351973534,1.4913525581359863,3.81689590215683,46.6348877570094,2.0754242629885233,11.539951530219383,48.086283109636156,22,-2,30,ok,,,140,249911.0,81,72.0,0,0,0,0,0,0
1778110734.9808497,8.433826684951782,0.009788036346435547,1057,0.07142621278762817,1.5493160486221313,3.7971842288970947,3,0.4912059264035456,1.5052363199445118,3.713675675044879,0,1058,0,1.043193566147238,1.491046667098999,3.8190413117408752,55.19876397436925,-1.4189652845512768,10.53656366959963,56.213309640514964,30,2,15,ok,,,140,249911.0,81,72.0,0,0,0,0,0,0
1778110735.0445993,8.497576236724854,-0.006337881088256836,1061,0.022657761350274086,1.6058528423309326,3.7796027660369873,3,0.5680858195833823,1.4847091268685908,3.717852524592069,0,1062,0,1.0450009534833953,1.50482177734375,3.814553141593933,47.6915133900013,2.01126504751592,9.670061700186405,48.70354945797528,-6,2,30,ok,,,140,249906.0,81,72.0,0,0,0,0,1,0
1778110735.1163604,8.569337368011475,0.005469560623168945,1064,-0.04753391444683075,1.4320238828659058,3.848302125930786,3,0.5709718922682536,1.4879729259288261,3.71784274823007,0,1065,0,1.0380343813449144,1.4968682676553726,3.818652391433716,46.70624890766608,0.8895341726546491,10.080964320364583,47.79007009513214,16,-2,26,ok,,,140,249910.0,80,72.0,0,1,0,0,1,0
1778110735.1807265,8.633703470230103,-0.0101776123046875,1068,0.026678062975406647,1.4927692413330078,3.831076145172119,3,0.654381828456994,1.474284535847599,3.715090316324393,0,1069,0,1.040481464820914,1.5125023126602173,3.8141130805015564,38.609963636391996,3.8217776812618176,9.90227641771635,40.04235700981355,-13,0,30,ok,,,140,249910.0,80,72.0,0,1,0,0,1,0
1778110735.2520359,8.705012798309326,0.0007078647613525391,1071,-0.04933667555451393,1.4305732250213623,3.848156452178955,3,0.5377390812536746,1.5909514524789117,3.7028491106619708,0,1072,0,1.0253673469414935,1.497178077697754,3.820571631193161,48.76282656878188,-9.377337478115777,11.772252053119026,51.032672196914596,30,-10,-30,ok,,,140,249917.99999999997,80,72.0,0,1,0,0,1,0
1778110735.3100526,8.7630295753479,-0.0018024444580078125,1074,0.022757647559046745,1.4917254447937012,3.830460548400879,3,0.6119141036871044,1.572554738004611,3.7057673057102467,0,1075,0,1.0180975293042138,1.5043926984071732,3.818374514579773,40.61834256171094,-6.816203959743783,11.260720886952624,42.69794168077867,-13,0,30,ok,,,140,249914.0,80,72.0,0,1,0,0,1,0
1778110735.377242,8.830219030380249,0.006006479263305664,1077,-0.04954361915588379,1.42894446849823,3.848149061203003,3,0.6172891249295396,1.577683027674401,3.707392198616698,0,1078,0,1.0015863330336288,1.5037564486265182,3.818394958972931,38.42972081040892,-7.392657904788269,11.100276035623269,40.67813860699918,7,-1,22,ok,,,140,249914.0,80,72.0,0,1,0,0,1,0
1778110735.442073,8.895050048828125,-0.009053230285644531,1081,0.020536115393042564,1.4910320043563843,3.8319430351257324,3,0.5748647819517047,1.6646862562227218,3.675645829999556,0,1082,0,1.0022051988635212,1.490279644727707,3.8268592953681946,42.73404169118166,-17.44066114950149,15.121346536863856,48.56984765966749,30,-19,-18,ok,,,140,249915.0,80,72.0,0,0,0,0,1,-1
1778110735.5134835,8.966460466384888,0.0021975040435791016,1084,0.014929596334695816,1.4902254343032837,3.8319947719573975,3,0.5624415878405016,1.622866869217468,3.734866104356894,0,1085,0,0.9951431218069047,1.482893317937851,3.8312106132507324,43.27015339664031,-13.997355127961697,9.634450889383839,46.48714628246186,21,18,30,ok,,,150,249923.99999999997,80,72.0,0,0,0,0,1,-1
1778110735.5813258,9.034302711486816,-0.010238885879516602,1088,-0.048852212727069855,1.4342849254608154,3.8641304969787598,3,0.6930965970357004,1.5764870562500883,3.7076940470830757,0,1089,0,0.9862043750472367,1.4614473283290863,3.841776579618454,29.31077780115363,-11.503972792100203,13.408253253537827,34.2234472346225,-30,-17,30,ok,,,150,249923.99999999997,80,72.0,0,0,0,0,1,-1
1778110735.6485348,9.101511716842651,-0.00234222412109375,1091,-0.05400596559047699,1.4265466928482056,3.8488545417785645,3,0.6433077055895697,1.666912003104064,3.7217414756198153,2,1092,0,0.9853953686542809,1.4607626795768738,3.8418456315994263,34.20876630647112,-20.61493235271903,12.0104155979611,41.706896443558136,30,2,-18,ok,,,150,249928.00000000003,80,72.0,0,0,0,0,1,-1
1778110735.7168772,9.169854164123535,0.005468606948852539,1094,0.021905919536948204,1.4894168376922607,3.831997871398926,3,0.5160165424327006,1.5978930010689867,3.6789044899634677,3,1095,0,0.9847988507244736,1.4603436291217804,3.841960847377777,46.878230829177305,-13.754937194720629,16.305635741430933,51.50379189765126,30,-21,30,ok,,,150,249928.00000000003,80,72.0,0,0,0,0,1,-1
1778110735.7838223,9.236799240112305,-0.007128715515136719,1098,0.02262766659259796,1.4814951419830322,3.814985752105713,3,0.5079316949477184,1.6138890816599922,3.6720900056982013,3,1099,0,0.9937943934928626,1.4667088687419891,3.837814509868622,48.58626985451442,-14.718021291800309,16.57245041704205,53.403107418453665,30,-6,15,ok,,,150,249921.99999999997,80,72.0,0,0,0,0,1,0
1778110735.847252,9.300228834152222,-0.0036084651947021484,1101,-0.046884872019290924,1.4253422021865845,3.8484177589416504,3,0.500037857320597,1.6290020341121234,3.665337922362762,3,1102,0,0.9850890785455704,1.4584109634160995,3.8400591611862183,48.50512212249733,-17.059107069602387,17.47212388234565,54.30501928082313,23,-10,7,ok,,,150,249926.00000000003,80,72.0,0,0,0,0,1,-1
1778110735.912264,9.365241050720215,0.0012083053588867188,1104,-0.046884872019290924,1.4253422021865845,3.8484177589416504,3,0.5470089057066068,1.437820633800618,3.6959748225764093,3,1105,0,0.9854214219376445,1.4579606801271439,3.840092748403549,43.84125162310377,2.0140046326525773,14.41179258271399,46.19319564598032,3,7,30,ok,,,150,249926.00000000003,80,72.0,0,0,0,0,1,-1
1778110735.9796846,9.432661533355713,0.008551597595214844,1107,-0.08645177632570267,1.6046711206436157,3.7751450538635254,3,0.6221121570897453,1.6199670647156512,3.7035398534780626,3,1108,0,0.9720479354728013,1.4721655696630478,3.8329930007457733,34.9935778383056,-14.780149505260344,12.945314726771073,40.13208794342199,-16,1,-30,ok,,,150,249928.00000000003,80,72.0,0,0,0,0,0,-1
1778110736.046015,9.498991966247559,-0.005075216293334961,1111,-0.045351989567279816,1.4251267910003662,3.8485770225524902,3,0.6163049409256873,1.6346330854788533,3.6983876100729973,3,1112,0,0.9645127372350544,1.464028239250183,3.83506578207016,34.820779630936705,-17.060484622867023,13.667817199716259,41.11393993134443,15,-7,8,ok,,,150,249931.0,80,72.0,0,1,0,0,1,0
1778110736.114164,9.567141056060791,0.0031363964080810547,1114,0.025361264124512672,1.479753851890564,3.815155506134033,3,0.6130266430749256,1.6479500397982108,3.7095132855930313,3,1115,0,0.9737894218415022,1.4697118550539017,3.828943908214569,36.076277876657656,-17.823818474430908,11.94306226215378,41.97407612611581,21,2,13,ok,,,150,249931.0,80,72.0,0,1,0,0,1,0
1778110736.1834447,9.63642168045044,0.012231588363647461,1117,-0.0348101481795311,1.5419085025787354,3.7962734699249268,3,0.7098471382090117,1.379705386013296,3.73161694103287,3,1118,0,0.9761888990178704,1.484132081270218,3.8223712742328644,26.634176080885872,10.442669525692194,9.075433319999426,30.013199967284553,-25,9,30,ok,,,160,249939.0,80,72.0,0,1,0,0,1,0
1778110736.245493,9.698469877243042,-0.005463600158691406,1121,0.08308231085538864,1.5405011177062988,3.7959351539611816,3,0.7359577829177046,1.864323823551683,3.702995103827932,3,1122,0,0.9838359479326755,1.4905176162719727,3.8178634345531464,24.787816501497083,-37.380620727971035,11.48683307252143,46.300043055663366,3,-12,-30,ok,,,160,249925.0,80,72.0,0,0,0,0,1,0
1778110736.3123124,9.765289306640625,0.0011782646179199219,1124,0.09032871574163437,1.4225521087646484,3.8479199409484863,3,0.7609772980896095,1.7052782055554383,3.7348838942562685,3,1125,0,0.992298579076305,1.4831497371196747,3.821980208158493,23.132128098669558,-22.21284684357636,8.70963139022245,33.231966451339986,3,9,30,ok,,,160,249925.0,80,72.0,0,0,0,0,1,0
1778110736.375364,9.828341007232666,0.0043182373046875,1127,0.019925162196159363,1.3509193658828735,3.867832899093628,3,0.7539755967871006,1.7299217869691237,3.727586217831481,3,1128,0,1.0006498333532363,1.4738468825817108,3.8244071006774902,24.667423656613575,-25.607490438741287,9.682088284600932,36.850619940184075,17,-6,-3,ok,,,160,249942.0,80,72.0,0,0,0,0,1,0
1778110736.4371297,9.890106678009033,0.006121158599853516,1130,0.031779032200574875,1.4846580028533936,3.831414222717285,3,0.7293438643845273,1.4947028314998985,3.750659074997723,3,1131,0,1.0104828213807195,1.481261357665062,3.8222816586494446,28.113895699619228,-1.3441473834836515,7.162258365172169,29.042999302535428,26,8,30,ok,,,160,249929.0,80,72.0,0,0,0,0,1,0
1778110736.5035284,9.956505298614502,-0.0074994564056396484,1134,-0.035030707716941833,1.5405266284942627,3.7962634563446045,3,0.7422404403846297,1.752197573478406,3.734521008577149,3,1135,0,1.0169104549568146,1.4732432961463928,3.8249214589595795,27.467001457218498,-27.895427733201327,9.040045038243028,40.17852002952029,10,-8,-30,ok,,,160,249929.0,80,72.0,0,0,0,0,1,0
1778110736.5708482,10.02382516860962,-0.00015854835510253906,1137,-0.04146971181035042,1.532518982887268,3.7805490493774414,3,0.9399408157305676,2.0463496510674877,3.6938317791777093,3,1138,0,1.0173957396764308,1.4866673201322556,3.8164179623126984,7.745492394586318,-55.96823309352321,12.258618313498904,57.81616980570048,-30,-16,-30,ok,,,160,249934.0,80,72.0,0,-1,0,0,1,0
1778110736.637041,10.090018033981323,0.006036281585693359,1140,-0.036482833325862885,1.5329344272613525,3.7808985710144043,3,0.7229567147281926,1.5476222455286786,3.756496077178411,3,1141,0,1.0096652274951339,1.4933148920536041,3.8121358454227448,28.67085127669413,-5.430735347507443,5.56397682443337,29.706370317624,30,25,30,ok,,,160,249937.0,80,72.0,0,0,0,0,1,0
1778110736.7016046,10.154581546783447,0.010135173797607422,1143,-0.036482833325862885,1.5329344272613525,3.7808985710144043,3,0.7263945714213239,1.781308692601585,3.7392520281409705,3,1144,0,1.0094561418518424,1.4921931326389313,3.8102139830589294,28.30615704305185,-28.91155599626538,7.096195491795898,41.07885815269074,12,-6,-30,ok,,,160,249937.0,80,72.0,0,0,0,0,1,0
1778110736.7660854,10.219062328338623,-0.005070209503173828,1147,-0.03930847346782684,1.5318940877914429,3.780609607696533,3,0.7195432521554765,1.5709918411314907,3.75155376377295,3,1148,0,0.9941572938114405,1.4911172538995743,3.8082982897758484,27.46140416559639,-7.987458723191643,5.6744526002898255,29.156948192735488,10,5,30,ok,,,160,249927.0,80,72.0,0,0,0,0,1,0
1778110736.8337474,10.286724328994751,0.0028595924377441406,1150,-0.03930847346782684,1.5318940877914429,3.780609607696533,3,0.7091765680923744,1.7974949546131018,3.747026484604671,3,1151,0,0.9779526451602578,1.5047850012779236,3.7998844981193542,26.877607706788343,-29.270995333517824,5.285801351468322,40.08910899211923,10,1,-30,ok,,,160,249933.0,80,72.0,0,0,0,0,1,0
1778110736.9052582,10.358235120773315,-0.005627870559692383,1154,-0.040786001831293106,1.5306841135025024,3.7804808616638184,3,1.0039528767407222,1.6811142348228272,3.7782314288014964,3,1155,0,0.9703637496568263,1.5272555947303772,3.788965493440628,-3.358912708389594,-15.385864009244997,1.0734064639131624,15.784780876855157,-30,17,30,ok,,,160,249933.0,80,72.0,0,0,0,0,1,0
1778110736.973018,10.425994873046875,0.0018463134765625,1157,-0.040786001831293106,1.5306841135025024,3.7804808616638184,3,0.8589249783758368,1.8700691941435204,3.752311885689418,3,1158,0,0.9612931204028428,1.5330088585615158,3.7825988233089447,10.236814202700595,-33.70603355820045,3.028693761952672,35.35621655594443,30,-5,-30,ok,,,160,249938.0,80,72.0,0,0,0,0,1,0
1778110737.0422695,10.495246410369873,-0.008903741836547852,1161,-0.040786001831293106,1.5306841135025024,3.7804808616638184,3,0.6982714245745583,1.6260150094151087,3.7704855054068376,3,1162,0,0.9605737086385489,1.5317785441875458,3.7806259989738464,26.230228406399057,-9.42364652275629,1.0140493567008857,27.89011100973867,30,9,30,ok,,,160,249939.0,80,72.0,0,0,0,0,1,0
1778110737.1093757,10.562352657318115,-0.0015532970428466797,1164,-0.040786001831293106,1.5306841135025024,3.7804808616638184,3,0.8457325568229567,1.878791966621252,3.7635239713260153,3,1165,0,0.960659172385931,1.53154918551445,3.7806174755096436,11.492661556297435,-34.724278110680196,1.7093504183628205,36.6166442865566,-30,0,-30,ok,,,160,249939.0,80,72.0,0,0,0,0,1,0
