timestamp,elapsed,master_age_s,master_seq,master_pos_x,master_pos_y,master_pos_z,master_state,pos_x,pos_y,pos_z,marker_id,received_count,crc_errors,target_x,target_y,target_z,err_x_cm,err_y_cm,err_z_cm,err_3d_cm,cmd_lr,cmd_fb,cmd_ud,feedback,tello_height_cm,tello_baro_cm,tello_battery,tello_temp_c,tello_pitch,tello_roll,tello_yaw,tello_vgx,tello_vgy,tello_vgz
1778083925.017236,1.0728836059570312e-05,0.000301361083984375,972,-0.585850715637207,1.2512749433517456,3.110775947570801,4,1.8936125688581376,1.2894949709005177,3.667823778279603,4,973,0,0.41414928436279297,1.2512749433517456,3.110775947570801,-147.94632844953446,-3.8220027548772073,-55.704783070880204,158.1320545105566,-30,30,-21,ok,90,248469.99999999997,83,75.0,0,0,0,0,0,0
1778083925.0860112,0.0687859058380127,-0.010638713836669922,976,-0.585850715637207,1.2512749433517456,3.110775947570801,4,1.8936125688581376,1.2894949709005177,3.667823778279603,4,977,0,0.41414928436279297,1.2512749433517456,3.110775947570801,-147.94632844953446,-3.8220027548772073,-55.704783070880204,158.1320545105566,-30,30,-2,ok,90,248469.99999999997,83,75.0,0,0,0,0,0,0
1778083925.153588,0.13636279106140137,-0.0036017894744873047,979,-0.585850715637207,1.2512749433517456,3.110775947570801,4,1.8936125688581376,1.2894949709005177,3.667823778279603,4,980,0,0.41414928436279297,1.2512749433517456,3.110775947570801,-147.94632844953446,-3.8220027548772073,-55.704783070880204,158.1320545105566,-30,30,-2,ok,90,248469.99999999997,83,75.0,0,0,0,0,0,0
1778083925.221502,0.20427680015563965,0.004955768585205078,982,-0.585850715637207,1.2512749433517456,3.110775947570801,4,1.8936125688581376,1.2894949709005177,3.667823778279603,4,983,0,0.41414928436279297,1.2512749433517456,3.110775947570801,-147.94632844953446,-3.8220027548772073,-55.704783070880204,158.1320545105566,-30,30,-2,ok,80,248475.0,83,75.0,0,0,0,0,0,0
1778083925.285999,0.26877379417419434,0.008869171142578125,985,-0.585850715637207,1.2512749433517456,3.110775947570801,4,1.8936125688581376,1.2894949709005177,3.667823778279603,4,986,0,0.41414928436279297,1.2512749433517456,3.110775947570801,-147.94632844953446,-3.8220027548772073,-55.704783070880204,158.1320545105566,-30,30,-2,ok,80,248475.0,83,75.0,0,0,0,0,0,0
1778083925.351417,0.33419179916381836,-0.005486726760864258,989,-0.585850715637207,1.2512749433517456,3.110775947570801,4,,,,,990,0,,,,,,,,0,0,0,lost_self,80,248475.0,83,75.0,0,0,0,0,0,0
1778083925.4194884,0.40226316452026367,0.002683877944946289,992,-0.585850715637207,1.2512749433517456,3.110775947570801,4,,,,,993,0,,,,,,,,0,0,0,lost_self,80,248479.0,83,75.0,0,0,0,0,0,0
1778083925.4878821,0.4706568717956543,0.00998234748840332,995,-0.585850715637207,1.2512749433517456,3.110775947570801,4,1.9539064109676705,1.0483405927253804,3.7506747864635193,4,996,0,0.41414928436279297,1.2512749433517456,3.110775947570801,-153.97571266048774,20.293435062636522,-63.98988388927185,167.97335751871196,-30,30,30,ok,90,248471.99999999997,83,75.0,-2,-1,0,0,0,0
1778083925.5453362,0.5281109809875488,0.008756637573242188,998,-0.585850715637207,1.2512749433517456,3.110775947570801,4,1.8795380312302614,1.140074808838591,3.7147896344520928,4,999,0,0.41414928436279297,1.2512749433517456,3.110775947570801,-146.53887468674685,11.120013451315458,-60.401368688129196,158.88870895382985,-30,23,-30,ok,90,248471.99999999997,83,75.0,-2,-1,0,0,0,0
1778083925.6062143,0.5889890193939209,0.009348392486572266,1001,-0.585850715637207,1.2512749433517456,3.110775947570801,4,1.8983013201812884,1.2802142958534128,3.669364286462121,4,1002,0,0.41414928436279297,1.2512749433517456,3.110775947570801,-148.41520358184954,-2.8939352501667237,-55.85883388913202,158.6053493389414,-30,18,-30,ok,90,248473.99999999997,83,75.0,-2,-1,0,0,0,0
1778083925.6695952,0.6523699760437012,-0.007185459136962891,1005,-0.585850715637207,1.2512749433517456,3.110775947570801,4,1.9497866433008182,1.0418249185974116,3.7374539110668095,4,1006,0,0.41414928436279297,1.2512749433517456,3.110775947570801,-153.56373589380252,20.945002475433405,-62.66779634960087,167.1758559411989,-30,30,30,ok,90,248477.0,83,75.0,-1,-1,0,0,0,0
1778083925.735826,0.7186007499694824,-0.002742767333984375,1008,-0.585850715637207,1.2512749433517456,3.110775947570801,4,1.8696817178691876,1.1316971267132252,3.7018827612686422,4,1009,0,0.41414928436279297,1.2512749433517456,3.110775947570801,-145.55324335063946,11.95778166385204,-59.110681369784146,157.55255581618147,-30,26,-24,ok,90,248477.0,83,75.0,-1,-1,0,0,0,0
1778083925.8046517,0.7874264717102051,0.007893800735473633,1011,-0.585850715637207,1.2512749433517456,3.110775947570801,4,1.892767028726343,1.2698633613504708,3.6586973732973975,4,1012,0,0.41414928436279297,1.2512749433517456,3.110775947570801,-147.861774436355,-1.8588417998725237,-54.79214257265967,157.6982514805004,-30,20,-30,ok,90,248473.99999999997,83,74.5,-1,-1,0,1,-1,0
1778083925.8714797,0.8542544841766357,-0.0052089691162109375,1015,-0.585850715637207,1.2512749433517456,3.110775947570801,4,1.9490811337552738,1.1920847881983416,3.680148491883412,4,1016,0,0.41414928436279297,1.2512749433517456,3.110775947570801,-153.4931849392481,5.919015515340398,-56.93725443126114,163.82015599319647,-30,30,30,ok,90,248481.0,83,74.5,-1,-2,0,1,-1,0
1778083925.93865,0.9214246273040771,0.0012042522430419922,1018,-0.585850715637207,1.2512749433517456,3.110775947570801,4,1.8005545119752684,1.2033732152161112,3.653064174524776,4,1019,0,0.41414928436279297,1.2512749433517456,3.110775947570801,-138.64052276124755,4.7901728135634425,-54.228822695397525,148.9459818794205,-30,27,0,ok,90,248477.0,83,74.5,-1,-2,0,1,-1,0
1778083926.011867,0.9946417808532715,-0.0051729679107666016,1022,-0.585850715637207,1.2512749433517456,3.110775947570801,4,1.8521733236337832,1.1101257084015574,3.6646792304553233,4,1023,0,0.41414928436279297,1.2512749433517456,3.110775947570801,-143.80240392709902,14.114923495018816,-55.39032828845225,154.7464083860601,-30,30,30,ok,90,248477.0,83,74.5,-1,-2,0,1,-1,0
1778083926.0763264,1.0591011047363281,-0.0012700557708740234,1025,-0.585850715637207,1.2512749433517456,3.110775947570801,4,1.8167069477783588,1.3094233032894902,3.5881710434683365,4,1026,0,0.41414928436279297,1.2512749433517456,3.110775947570801,-140.25576634155658,-5.814835993774459,-47.73950958975357,148.2718890604756,-30,5,-30,ok,90,248473.0,83,74.5,-1,-2,0,2,-2,0
1778083926.143753,1.1265277862548828,0.006345510482788086,1028,-0.585850715637207,1.2512749433517456,3.110775947570801,4,1.8673998650629229,1.231372210782304,3.596921831529334,4,1029,0,0.41414928436279297,1.2512749433517456,3.110775947570801,-145.325058070013,1.990273256944164,-48.61458839585331,153.25375002129047,-30,30,30,ok,90,248477.0,83,74.5,-1,-2,0,2,-2,0
1778083926.208149,1.1909236907958984,0.011365175247192383,1031,-0.585850715637207,1.2512749433517456,3.110775947570801,4,1.6886154793762098,1.1252812294884196,3.601481529242631,4,1032,0,0.41414928436279297,1.2512749433517456,3.110775947570801,-127.44661950134169,12.599371386332603,-49.070558167183044,137.14701841633087,-21,30,30,ok,90,248477.0,83,74.5,-1,-2,0,2,-2,0
1778083926.2726092,1.2553839683532715,-0.004277944564819336,1035,-0.585850715637207,1.2512749433517456,3.110775947570801,4,1.8255056429187462,1.3876507535026819,3.5144112820097684,4,1036,0,0.41414928436279297,1.2512749433517456,3.110775947570801,-141.13563585559532,-13.637581015093625,-40.363533443896756,147.42613796875713,-30,-3,-30,ok,90,248466.0,83,74.5,-1,-2,0,2,-2,0
1778083926.3366303,1.3194050788879395,-0.0004878044128417969,1038,-0.585850715637207,1.2512749433517456,3.110775947570801,4,1.8117424455513125,1.0592984751070489,3.608596902518436,4,1039,0,0.41414928436279297,1.2512749433517456,3.110775947570801,-139.75931611885196,19.197646824469672,-49.78209549476351,149.59770425195705,-30,30,30,ok,90,248478.00000000003,83,74.5,0,-2,0,2,-3,0
1778083926.4011772,1.3839519023895264,0.003948211669921875,1041,-0.585850715637207,1.2512749433517456,3.110775947570801,4,1.8361099468949493,1.1848560466276967,3.5610367691647764,4,1042,0,0.41414928436279297,1.2512749433517456,3.110775947570801,-142.19606625321563,6.641889672404888,-45.02608215939756,149.3023242650097,-30,15,-30,ok,90,248478.00000000003,83,74.5,0,-2,0,2,-3,0
1778083926.4673536,1.4501283168792725,-0.01076197624206543,1045,-0.585850715637207,1.2512749433517456,3.110775947570801,4,1.7755406480304754,1.2394129481204241,3.5175634930964796,4,1046,0,0.41414928436279297,1.2512749433517456,3.110775947570801,-136.13913636676824,1.1861995231321476,-40.67875455256789,142.09163448967098,-30,14,-18,ok,90,248482.00000000003,83,74.5,0,-1,0,2,-3,0
1778083926.5339768,1.5167515277862549,-0.009620189666748047,1048,-0.585850715637207,1.2512749433517456,3.110775947570801,4,1.728929952256139,1.1034044282507351,3.532467759637303,4,1049,0,0.41414928436279297,1.2512749433517456,3.110775947570801,-131.4780667893346,14.787051510101046,-42.16918120665021,138.8646059392472,-30,30,30,ok,90,248475.0,82,74.5,0,-1,0,2,-3,0
1778083926.600869,1.5836436748504639,0.0033805370330810547,1051,-0.585850715637207,1.2512749433517456,3.110775947570801,4,1.682448407529093,1.1708395235539184,3.503033839051777,4,1052,0,0.41414928436279297,1.2512749433517456,3.110775947570801,-126.82991231663001,8.04354197978272,-39.225789148097604,133.00070586322315,-30,19,-18,ok,90,248475.0,82,74.5,0,-1,0,2,-3,0
1778083926.6672556,1.6500303745269775,-0.010203123092651367,1055,-0.585850715637207,1.2512749433517456,3.110775947570801,4,1.7024710433486094,1.2613444728007521,3.464417787103363,4,1056,0,0.41414928436279297,1.2512749433517456,3.110775947570801,-128.83217589858165,-1.006952944900652,-35.36418395325622,133.6015307085816,-30,13,-30,ok,90,248475.0,82,74.5,0,-1,0,2,-3,0
1778083926.7328784,1.7156531810760498,-0.0043811798095703125,1058,-0.585850715637207,1.2512749433517456,3.110775947570801,4,1.6446417523512804,1.1398114995804376,3.476047749967057,4,1059,0,0.41414928436279297,1.2512749433517456,3.110775947570801,-123.04924679884874,11.146344377130802,-36.5271802396256,128.8394078960148,-30,30,30,ok,90,248475.0,82,74.5,0,-1,0,2,-3,0
1778083926.8007402,1.7835149765014648,0.0034151077270507812,1061,-0.585850715637207,1.2512749433517456,3.110775947570801,4,1.6039787919427402,1.1961943418387098,3.4353193332367162,4,1062,0,0.41414928436279297,1.2512749433517456,3.110775947570801,-118.98295075799471,5.508060151303584,-32.454338566591545,123.45268482096583,-30,11,-15,ok,90,248471.0,82,75.0,0,-1,0,2,-3,0
1778083926.8689492,1.8517239093780518,-0.008519411087036133,1065,-0.585850715637207,1.2512749433517456,3.110775947570801,4,1.5645520513963507,1.2489955115259483,3.4094461316791103,4,1066,0,0.41414928436279297,1.2512749433517456,3.110775947570801,-115.04027670335577,0.22794318257972623,-29.867018410830948,118.85434788358423,-30,15,-18,ok,90,248476.00000000003,82,75.0,0,-1,0,2,-3,0
1778083926.9370172,1.9197919368743896,-0.0006353855133056641,1068,-0.585850715637207,1.2512749433517456,3.110775947570801,4,1.5105672373083536,1.319105324595764,3.339239851274869,2,1069,0,0.41414928436279297,1.2512749433517456,3.110775947570801,-109.64179529455606,-6.783038124401841,-22.84639037040681,112.20200726621357,-30,-4,-29,ok,90,248476.00000000003,82,75.0,0,-1,0,2,-3,0
1778083927.0044155,1.9871902465820312,-0.012782812118530273,1072,-0.585850715637207,1.2512749433517456,3.110775947570801,4,1.4366900459069898,1.3364018738425854,3.320420324201175,2,1073,0,0.41414928436279297,1.2512749433517456,3.110775947570801,-102.25407615441968,-8.512693049083975,-20.964437663037437,104.72759750738658,-30,13,-11,ok,90,248477.0,82,75.0,0,-1,0,2,-3,0
1778083927.07378,2.0565547943115234,-0.003498554229736328,1075,-0.6152558922767639,1.2920016050338745,3.142487049102783,4,1.5091010122837076,1.1766995754454266,3.3172083411353412,2,1076,0,0.41047363728284836,1.2563657760620117,3.1147398352622986,-109.86273750008593,7.966620061658514,-20.246850587304266,111.9965315754208,-30,17,30,ok,90,248469.0,82,75.0,0,-1,0,2,-4,0
1778083927.1421323,2.1249070167541504,0.003919124603271484,1078,-0.6152558922767639,1.2920016050338745,3.142487049102783,4,1.4714576471819734,1.3158883452641745,3.2759164682828232,2,1079,0,0.40679799020290375,1.2614566087722778,3.1187037229537964,-106.46596569790697,-5.44317364918967,-15.721274532902685,107.75800881745185,-30,-1,-30,ok,90,248469.0,82,75.0,0,-1,0,2,-4,0
1778083927.2021682,2.1849429607391357,0.004743099212646484,1081,-0.6659347414970398,1.2833396196365356,3.136686325073242,4,1.4566188926356416,1.3108883077271776,3.247979105560128,2,1082,0,0.39678748697042465,1.2654646933078766,3.1219425201416016,-105.9831405665217,-4.542361441930098,-12.603658541852658,106.82654791975563,-30,3,1,ok,80,248475.0,82,75.0,0,-1,0,2,-4,0
1778083927.2671957,2.2499704360961914,-0.012982368469238281,1085,-0.613103449344635,1.244409441947937,3.1704559326171875,4,1.3870566388351009,1.3311543552244642,3.228042193890743,2,1086,0,0.39338089525699615,1.2646065056324005,3.1294025182724,-99.36757435781047,-6.654784959206372,-9.863967561834297,100.07746425978823,-30,4,-11,ok,80,248487.0,82,75.0,0,-1,0,2,-4,0
1778083927.3390987,2.321873426437378,2.2649765014648438e-05,1088,-0.715481162071228,1.2292081117630005,3.143249750137329,4,1.3512121997193782,1.2769733407645334,3.2334020806930206,2,1089,0,0.37717708945274353,1.2618481516838074,3.133461743593216,-97.40351102666347,-1.512518908072602,-9.994033709980465,97.92656628088649,-30,14,18,ok,80,248487.0,82,75.0,0,-1,0,2,-4,0
1778083927.4057837,2.3885583877563477,0.008194684982299805,1091,-0.6603554487228394,1.2318767309188843,3.1535632610321045,4,1.3048915055446377,1.3491866764076512,3.1921735494736714,2,1092,0,0.3678639978170395,1.2594233751296997,3.138810157775879,-93.70275077275983,-8.976330127795151,-5.336339169779247,94.28285380004164,-30,-6,-30,ok,80,248480.00000000003,82,75.0,0,-1,0,2,-4,0
1778083927.469454,2.4522287845611572,-0.007955074310302734,1095,-0.6119734644889832,1.242573618888855,3.1711206436157227,4,1.2195185072428174,1.3282605597092487,3.196553425341235,2,1096,0,0.3645986542105675,1.2583357095718384,3.146353244781494,-85.491985303225,-6.992485013741034,-5.020018055974074,85.92423976408833,-30,10,3,ok,80,248480.00000000003,82,75.0,0,-1,0,2,-4,0
1778083927.5329604,2.515735149383545,-0.004547834396362305,1098,-0.5691782832145691,1.3012065887451172,3.1578755378723145,4,1.2588033413562705,1.2954193798907991,3.184333687032861,2,1099,0,0.3666827082633972,1.2645771652460098,3.1522406935691833,-89.21206330928733,-3.084221464478931,-3.2092993463677555,89.32303322344602,-30,3,12,ok,80,248480.00000000003,82,75.0,0,-1,0,2,-4,0
1778083927.6070302,2.5898048877716064,0.009262323379516602,1101,-0.6592001914978027,1.1866737604141235,3.1903674602508545,4,1.3030882437488316,1.2704260547948365,3.181520470864669,2,1102,0,0.36118967086076736,1.251411184668541,3.1582257449626923,-94.18985728880642,-1.9014870126295547,-2.3294725901976676,94.23784436994195,-30,6,3,ok,80,248475.0,82,75.0,0,0,0,1,-4,0
1778083927.668105,2.6508796215057373,-0.011339664459228516,1105,-0.6131721138954163,1.2958577871322632,3.1509883403778076,4,1.1812022937448312,1.3248659646211638,3.158389145534615,2,1106,0,0.3614501431584358,1.2518932074308395,3.1592884063720703,-81.97521505863953,-7.297275719032426,0.08992608374551736,82.2994180023791,-30,0,-24,ok,80,248478.00000000003,82,75.0,0,-1,0,1,-4,0
1778083927.7373178,2.720092535018921,-0.0006177425384521484,1108,-0.6554911732673645,1.2867789268493652,3.145336389541626,4,1.1729588648857907,1.320467526099638,3.1480140012041327,2,1109,0,0.36275558918714523,1.2523231208324432,3.1603696644306183,-81.02032756986455,-6.814440526719467,1.2355663226485625,81.31578385134102,-30,3,-2,ok,80,248478.00000000003,82,75.0,0,-1,0,1,-4,0
1778083927.8051722,2.787946939468384,0.0071713924407958984,1111,-0.5974780917167664,1.251947045326233,3.1751368045806885,4,1.126752209253766,1.2738728962406747,3.166048852736919,2,1112,0,0.3647087588906288,1.2532653212547302,3.160954773426056,-76.20434503631373,-2.0607574985944455,-0.509407931086292,76.23390597576525,-30,15,16,ok,80,248479.0,82,75.0,0,0,0,1,-4,0
1778083927.8701973,2.8529720306396484,-0.0075244903564453125,1115,-0.5840264558792114,1.2626785039901733,3.1817173957824707,4,1.1139228840939834,1.2682113150305048,3.1577120632856563,2,1116,0,0.3811405971646309,1.2574491202831268,3.1657632291316986,-73.27822869293526,-1.076219474737794,0.8051165846042263,73.29055369859563,-30,2,3,ok,80,248479.0,82,75.0,0,0,0,1,-4,0
1778083927.9400816,2.922856330871582,3.123283386230469e-05,1118,-0.5709249377250671,1.2685259580612183,3.191408634185791,4,1.059701649846748,1.2131473501846255,3.164696176293215,2,1119,0,0.3923194110393524,1.2620302736759186,3.1704939007759094,-66.73822388073955,4.888292349129308,0.5797724482694555,66.91951931191709,-30,8,26,ok,80,248479.0,82,75.0,0,0,0,1,-4,0
1778083928.0039537,2.9867284297943115,0.0059566497802734375,1121,-0.5709249377250671,1.2685259580612183,3.191408634185791,4,0.9939907476339829,1.2492121697242933,3.1464136634366437,2,1122,0,0.3974504768848419,1.265274316072464,3.173029899597168,-59.6540270749141,1.6062146348170714,2.661623616052422,59.73497394308641,-30,-1,-10,ok,90,248479.0,82,75.0,0,-1,0,1,-4,0
1778083928.0673068,3.050081491470337,0.009448766708374023,1124,-0.5130898952484131,1.2897720336914062,3.1995348930358887,4,0.9301752810418423,1.2858769002686845,3.128350744172486,2,1125,0,0.4044615253806114,1.2638449966907501,3.1782373189926147,-52.57137556612309,-2.2031903577934386,4.98865748201287,52.85347935699106,-30,-4,-16,ok,90,248479.0,82,75.0,0,-1,0,1,-4,0
1778083928.129822,3.1125967502593994,-0.012635946273803711,1128,-0.49010929465293884,1.244942545890808,3.2254884243011475,4,1.0150682802970303,1.1983255015146508,3.168089318343799,2,1129,0,0.4255978874862194,1.2711285948753357,3.1826274394989014,-58.94703928108109,7.280309336068491,1.4538121155102335,59.41270835184479,-30,20,30,ok,90,248486.0,82,75.0,0,-1,0,0,-4,0
1778083928.200688,3.183462619781494,0.002623319625854492,1131,-0.4811146855354309,1.2554343938827515,3.231494665145874,4,0.8992792082773731,1.193298742903837,3.1591073890347414,2,1132,0,0.4421050660312176,1.2660756707191467,3.1926907300949097,-45.71741422461555,7.277692781530964,3.358334106016825,46.41470869859105,-8,0,5,ok,90,248488.0,82,75.0,0,0,0,0,-4,0
1778083928.2672253,3.25,0.009177684783935547,1134,-0.47115156054496765,1.2616195678710938,3.239396810531616,4,0.8699013619036593,1.3840766568890324,3.072793511171735,2,1135,0,0.4651475176215172,1.2629307508468628,3.2044482827186584,-40.47538442821421,-12.114590604216957,13.16547715469234,44.25324664733915,-30,-30,-30,ok,90,248488.0,82,75.0,0,0,0,0,-4,0
1778083928.3332834,3.3160581588745117,-0.004745006561279297,1138,-0.5154830813407898,1.2532179355621338,3.2334556579589844,4,0.877165672907338,1.2621498731178888,3.128060610932463,2,1139,0,0.47539689391851425,1.2630896121263504,3.2117381393909454,-40.17687789888238,0.09397390084615598,8.367752845848253,41.039123242156926,-30,20,30,ok,90,248481.0,82,75.0,0,0,0,0,-4,0
1778083928.4043138,3.3870885372161865,0.005907773971557617,1141,-0.42980870604515076,1.22737717628479,3.269179105758667,4,0.7217731356741033,1.2394200517354415,3.134169217388505,2,1142,0,0.49467411264777184,1.2586769461631775,3.22267085313797,-22.709902302633147,1.9256894427736038,8.850163574946501,24.44940362725565,19,1,8,ok,90,248477.0,82,75.0,0,0,0,0,-4,0
1778083928.4716368,3.454411506652832,-0.007466793060302734,1145,-0.4387724995613098,1.29508376121521,3.256086826324463,4,0.8093762440176786,1.2886796554372273,3.117372195032883,2,1146,0,0.5111931674182415,1.2619966715574265,3.230755627155304,-29.81830765994371,-2.6682983879800837,11.338343212242075,32.01264304597405,-30,-8,-18,ok,90,248477.0,82,75.0,0,0,0,0,-4,0
1778083928.5372603,3.5200350284576416,-0.0011982917785644531,1148,-0.46742311120033264,1.2244491577148438,3.2729454040527344,4,0.7179405210646082,1.2910580043741535,3.0996773409357306,2,1149,0,0.5241308957338333,1.2564870715141296,3.240947723388672,-19.380962533077483,-3.4570932860023884,14.127038245294132,24.23110423155905,-1,-11,-4,ok,90,248480.00000000003,81,75.0,0,0,0,0,-4,0
1778083928.603276,3.5860507488250732,0.00507664680480957,1151,-0.38007307052612305,1.1966229677200317,3.324960708618164,4,0.6719448672175654,1.3288611314479981,3.08892041672535,2,1152,0,0.5407579988241196,1.2448434382677078,3.2566259503364563,-13.118686839344583,-8.401769318029029,16.77055336111062,22.889760420328244,-14,-12,-23,ok,90,248479.0,81,75.0,0,0,0,0,-4,0
1778083928.6715007,3.654275417327881,-0.0067157745361328125,1155,-0.3926225006580353,1.2663217782974243,3.298933982849121,4,0.5729694748363927,1.2282199459149195,3.1154359365774593,2,1156,0,0.5529438480734825,1.2475158423185349,3.265806645154953,-2.00256267629102,1.9295896403615398,15.037070857749368,15.292059162638619,11,5,30,ok,90,248479.0,81,75.0,0,0,0,0,-4,0
1778083928.7350225,3.71779727935791,-0.003221750259399414,1158,-0.3590526580810547,1.2128628492355347,3.3282716274261475,4,0.5878599979136465,1.2865903009800723,3.101960492991912,2,1159,0,0.5682016015052795,1.2421943992376328,3.277903765439987,-1.9658396408366974,-4.439590174243957,17.594327244807538,18.251981744624484,-30,-12,-25,ok,90,248485.0,81,75.0,0,0,0,0,-4,0
1778083928.806504,3.789278745651245,0.00834202766418457,1161,-0.3102692663669586,1.3067630529403687,3.309072494506836,4,0.5540711781626725,1.3184667026502996,3.0816640013146106,2,1162,0,0.5883118882775307,1.2478373348712921,3.2866132259368896,3.4240710114858186,-7.062936777900752,20.494922462227905,21.946552917327462,-7,-15,-14,ok,90,248483.0,81,75.0,0,1,0,0,-4,0
1778083928.8732283,3.8560030460357666,-0.005215883255004883,1165,-0.30713921785354614,1.1669615507125854,3.3796987533569336,4,0.5365311693146807,1.3206398236439392,3.0299983290006827,0,1166,0,0.6143548712134361,1.2370552867650986,3.3048936128616333,7.782370189875543,-8.35845368788406,27.489528386095063,29.767485696892383,-8,-30,-10,ok,90,248483.0,81,75.0,0,1,0,0,-4,0
1778083928.9357357,3.9185104370117188,-0.002514362335205078,1168,-0.1807195395231247,1.3915038108825684,3.3077735900878906,4,0.5124864460073871,1.2851034870671327,3.0534113490221726,0,1169,0,0.6454910170286894,1.2575711160898209,3.3097179234027863,13.300457102130226,-2.753237097731187,25.630657438061366,29.0071210972268,0,0,20,ok,90,248481.0,81,75.0,0,1,0,0,-3,0
1778083928.9993901,3.9821648597717285,-0.002450704574584961,1171,-0.1807195395231247,1.3915038108825684,3.3077735900878906,4,0.511465178262533,1.3270966658275372,3.0214695882557523,0,1172,0,0.6777476370334625,1.2696236222982407,3.3161787688732147,16.62824587709295,-5.74730435292965,29.470918061746243,34.3229526654748,-7,-24,-14,ok,90,248479.0,81,75.0,0,1,0,0,-3,0
1778083929.0681005,4.050875186920166,0.009788274765014648,1174,-0.19488993287086487,1.3095341920852661,3.339744806289673,4,0.4333262233372648,1.3075895953563181,3.0424853008476545,0,1175,0,0.711814284324646,1.2802592515945435,3.324528694152832,27.848806098738123,-2.733034376177468,28.204339330517758,39.73046985749693,30,-5,10,ok,90,248479.0,81,75.0,0,1,0,0,-3,0
1778083929.1329882,4.115762948989868,-0.00557708740234375,1178,-0.1467779278755188,1.2592852115631104,3.3688526153564453,4,0.4780687228688243,1.2881257229205614,3.0318803286993656,0,1179,0,0.7409761771559715,1.2880920320749283,3.330015182495117,26.29074542871472,-0.0033690845633094213,29.813485379575155,39.74980776087296,-19,-17,11,ok,90,248471.0,81,75.0,1,1,1,0,-2,0
1778083929.196295,4.179069757461548,-0.0020499229431152344,1181,-0.14544908702373505,1.267012119293213,3.3789896965026855,4,0.41866241228882606,1.3105937668423104,3.0379653019045967,0,1182,0,0.7718728538602591,1.2881783246994019,3.3400221467018127,35.3210441571433,-2.241544214290858,30.205684479721604,46.5293891610881,25,-12,-9,ok,90,248476.00000000003,81,75.0,1,1,1,0,-2,0
1778083929.2664604,4.249235153198242,-0.012352466583251953,1185,-0.12919919192790985,1.2691113948822021,3.37713623046875,4,0.3454791175220761,1.288356607351738,3.058862702510522,0,1186,0,0.8006045371294022,1.2952093929052353,3.346130222082138,45.512541960732605,0.685278555349722,28.72675195716159,53.824598098213,30,-5,11,ok,90,248476.00000000003,81,75.0,1,1,1,0,-2,0
1778083929.3356571,4.318431854248047,-0.0057408809661865234,1188,-0.01288470346480608,1.1544179916381836,3.4352781772613525,4,0.38511629222547783,1.272172760226042,3.0623226617009576,0,1189,0,0.8377776074921712,1.2761662602424622,3.3619059324264526,45.26613152666934,0.39935000164201817,29.95832707254951,54.283363057196375,-2,-16,0,ok,90,248471.99999999997,81,75.0,0,1,1,0,-2,0
1778083929.4006023,4.3833770751953125,0.002043008804321289,1191,-0.11043164879083633,1.275882363319397,3.3878347873687744,4,0.32728394445438336,1.2927544854545867,3.054575433942328,0,1192,0,0.86236605362501,1.2897813618183136,3.3629229366779327,53.50821091706266,-0.29731236362731117,30.834750273560463,61.75758135337933,30,-15,-2,ok,90,248469.0,81,75.0,1,1,1,0,-2,0
1778083929.4664624,4.449237108230591,-0.012064933776855469,1195,-0.09203775972127914,1.3777732849121094,3.360142946243286,4,0.35476523092496115,1.227518399715154,3.0881638934530447,0,1196,0,0.8734512761002406,1.2880650460720062,3.369469106197357,51.86860451752795,6.054664635685225,28.130521274431253,59.31557405620861,-3,0,27,ok,90,248473.99999999997,81,75.0,0,2,1,0,-1,0
1778083929.534808,4.517582654953003,-0.003771543502807617,1198,-0.03930313512682915,1.330234169960022,3.389758825302124,4,0.27051592878919706,1.3202461351356045,3.0522711833012326,0,1199,0,0.8911283266497776,1.280406340956688,3.3797172605991364,62.06123978605805,-3.9839794178916588,32.744607729790374,70.28284933867313,30,-30,-30,ok,90,248473.99999999997,81,75.0,0,2,1,0,-1,0
1778083929.6013458,4.584120512008667,0.0017194747924804688,1201,0.01924043335020542,1.274623155593872,3.406128168106079,4,0.34306353949184215,1.2282028678602945,3.0870278670387234,0,1202,0,0.9178946224274114,1.2760424613952637,3.388015180826187,57.48310829355692,4.783959353496914,30.09873137874637,65.06249024433843,-10,-2,30,ok,90,248476.00000000003,81,75.0,0,2,1,0,-1,0
1778083929.667053,4.649827718734741,-0.015913009643554688,1205,0.025125034153461456,1.278786063194275,3.41961669921875,4,0.30932874359691376,1.3029014968600892,3.0707656300546105,0,1206,0,0.9393824926810339,1.2784800678491592,3.394360691308975,63.005374908412016,-2.442142901092992,32.359506125436475,70.87156669625043,29,-21,-25,ok,90,248469.99999999997,81,75.0,0,2,1,-1,0,0
1778083929.740699,4.723473787307739,2.193450927734375e-05,1208,0.1018296480178833,1.2213678359985352,3.4332034587860107,4,0.25900584693052703,1.32966611238786,3.0712157213839353,0,1209,0,0.9702923345612362,1.2727745324373245,3.401137411594391,71.12864876307093,-5.68915799505354,32.992169021045555,78.6138309094922,30,-16,-16,ok,90,248469.99999999997,81,75.0,0,2,1,-1,0,0
1778083929.8019805,4.784755229949951,0.0031194686889648438,1211,0.1018296480178833,1.2213678359985352,3.4332034587860107,4,0.23255990488232087,1.2900956788500668,3.0985271481050853,0,1212,0,0.9991709395544603,1.2668065875768661,3.4081458151340485,76.66110346721395,-2.328909127320067,30.961866702896312,82.71025203843908,30,-5,11,ok,90,248465.0,81,74.5,0,1,1,-1,0,0
1778083929.866557,4.849331617355347,0.007169008255004883,1214,0.15805621445178986,1.279865026473999,3.4158880710601807,4,0.27896987367697235,1.259623362186897,3.0988071527930208,0,1215,0,1.0205385542940348,1.282487466931343,3.405722051858902,74.15686806170625,2.2864104744446,30.69148990658812,80.28970236752131,8,-12,20,ok,90,248471.0,81,74.5,0,1,0,-1,0,0
1778083929.930876,4.913650751113892,-0.011242151260375977,1218,0.1614588499069214,1.2790571451187134,3.4185805320739746,4,0.33294571691247354,1.2389635394071752,3.118040086109659,0,1219,0,1.0545248666312546,1.2828843146562576,3.409565269947052,72.1579149718781,4.392077524908244,29.15251838373929,77.94821592690785,10,-6,11,ok,90,248471.0,81,74.5,0,1,0,-1,0,0
1778083930.00003,4.982804775238037,0.0010149478912353516,1221,0.2345774620771408,1.2329810857772827,3.4379336833953857,4,0.22809470552216893,1.293483815390312,3.109534618572141,0,1222,0,1.095351769356057,1.2647852897644043,3.4192891120910645,86.72570638338881,-2.86985256259078,30.975449351892337,92.13610944673334,30,-20,-28,ok,90,248471.99999999997,81,74.5,0,2,0,-1,0,0
1778083930.0665467,5.049321413040161,0.00779271125793457,1224,0.17840871214866638,1.2753455638885498,3.436501979827881,4,0.28591894941555707,1.2705126021524165,3.1308678251784077,0,1225,0,1.122565750265494,1.2579242140054703,3.425132006406784,83.66468008499369,-1.2588388146946183,29.42641812283764,88.69767444767528,13,-6,5,ok,90,248475.0,81,74.5,0,2,0,-1,0,0
1778083930.1284127,5.11118745803833,0.009451627731323242,1227,0.17840871214866638,1.2753455638885498,3.436501979827881,4,0.2589216582556852,1.3460824906350626,3.1135988382250086,0,1228,0,1.1424617851153016,1.258014515042305,3.4289287328720093,88.35401268596164,-8.806797559275758,31.532989464700066,94.22484102157998,30,-22,-30,ok,90,248475.0,81,74.5,0,2,0,-1,0,0
1778083930.1973233,5.180098056793213,-0.001528024673461914,1231,0.17840871214866638,1.2753455638885498,3.436501979827881,4,0.2841339210235814,1.2729781184566664,3.143303995048214,0,1232,0,1.1616222448647022,1.2575844526290894,3.4310393929481506,87.74883238411209,-1.5393665827577063,28.773539789993663,92.35877774363117,26,-3,24,ok,90,248471.99999999997,81,74.5,0,1,0,-1,0,0
1778083930.2665951,5.249369859695435,-0.013537168502807617,1235,0.17840871214866638,1.2753455638885498,3.436501979827881,4,0.20198659535571017,1.2572971944410907,3.1735472680483072,0,1236,0,1.17119462788105,1.2643316686153412,3.4314517080783844,96.920803252534,0.7034474174250516,25.790444003007718,100.2959816904833,30,0,8,ok,90,248477.0,81,74.5,0,1,0,-1,1,0
1778083930.337749,5.320523738861084,-0.0020945072174072266,1238,0.17840871214866638,1.2753455638885498,3.436501979827881,4,0.20840728511790768,1.2595128098195887,3.1854772974880268,0,1239,0,1.180767010897398,1.271078884601593,3.431864023208618,97.23597257794903,1.1566074782004332,24.63867257205914,100.31568317143349,30,-6,2,ok,90,248477.0,81,74.5,0,1,0,-1,1,0
1778083930.4028556,5.385630369186401,0.0030498504638671875,1241,0.17840871214866638,1.2753455638885498,3.436501979827881,4,0.18798526928407616,1.3370400815527976,3.154208913490873,0,1242,0,1.1833110731095076,1.2705139517784119,3.4344407618045807,99.53258038254313,-6.652612977438577,28.023184831370784,103.61607358478781,30,-25,-30,ok,90,248473.99999999997,81,74.5,0,1,0,-1,1,0
1778083930.4687753,5.451550006866455,-0.010393381118774414,1245,0.17840871214866638,1.2753455638885498,3.436501979827881,4,0.18798526928407616,1.3370400815527976,3.154208913490873,0,1246,0,1.1854298058897257,1.2700500041246414,3.436680942773819,99.74445366056494,-6.699007742815621,28.247202928294612,103.88328650006771,30,-14,-4,ok,90,248473.99999999997,81,74.5,0,1,0,-1,1,0
1778083930.5359771,5.518751859664917,-0.0032134056091308594,1248,0.17840871214866638,1.2753455638885498,3.436501979827881,4,0.18798526928407616,1.3370400815527976,3.154208913490873,0,1249,0,1.1784087121486664,1.2753455638885498,3.436501979827881,99.04234428645901,-6.169451766424783,28.2293066337008,103.1714197337384,30,-13,-2,ok,90,248473.99999999997,81,74.5,0,1,0,-1,1,0
1778083930.6027546,5.585529327392578,0.002824068069458008,1251,0.17840871214866638,1.2753455638885498,3.436501979827881,4,0.18798526928407616,1.3370400815527976,3.154208913490873,0,1252,0,1.1784087121486664,1.2753455638885498,3.436501979827881,99.04234428645901,-6.169451766424783,28.2293066337008,103.1714197337384,30,-13,-4,ok,90,248473.99999999997,81,74.5,0,1,0,-1,1,0
1778083930.6690686,5.651843309402466,0.008636236190795898,1254,0.17840871214866638,1.2753455638885498,3.436501979827881,4,0.18798526928407616,1.3370400815527976,3.154208913490873,0,1255,0,1.1784087121486664,1.2753455638885498,3.436501979827881,99.04234428645901,-6.169451766424783,28.2293066337008,103.1714197337384,30,-13,-4,ok,90,248473.99999999997,81,74.5,0,1,0,-1,1,0
1778083930.7336113,5.716386079788208,-0.0059108734130859375,1258,0.17840871214866638,1.2753455638885498,3.436501979827881,4,0.18798526928407616,1.3370400815527976,3.154208913490873,0,1259,0,1.1784087121486664,1.2753455638885498,3.436501979827881,99.04234428645901,-6.169451766424783,28.2293066337008,103.1714197337384,30,-13,-4,ok,90,248473.99999999997,81,74.5,0,1,0,-1,1,0
1778083930.800314,5.783088684082031,0.0004305839538574219,1261,0.17840871214866638,1.2753455638885498,3.436501979827881,4,0.18798526928407616,1.3370400815527976,3.154208913490873,0,1262,0,1.1784087121486664,1.2753455638885498,3.436501979827881,99.04234428645901,-6.169451766424783,28.2293066337008,103.1714197337384,30,-13,-4,ok,90,248473.99999999997,81,74.5,0,1,0,-1,1,0
1778083930.8670201,5.849794864654541,0.007602214813232422,1264,0.17840871214866638,1.2753455638885498,3.436501979827881,4,0.18798526928407616,1.3370400815527976,3.154208913490873,0,1265,0,1.1784087121486664,1.2753455638885498,3.436501979827881,99.04234428645901,-6.169451766424783,28.2293066337008,103.1714197337384,30,-14,-4,ok,90,248473.99999999997,81,74.5,0,1,0,-1,1,0
1778083930.933527,5.916301727294922,-0.005759239196777344,1268,0.17840871214866638,1.2753455638885498,3.436501979827881,4,0.18798526928407616,1.3370400815527976,3.154208913490873,0,1269,0,1.1784087121486664,1.2753455638885498,3.436501979827881,99.04234428645901,-6.169451766424783,28.2293066337008,103.1714197337384,30,-14,-4,ok,90,248473.99999999997,81,74.5,0,1,0,-1,1,0
1778083931.0001364,5.982911109924316,0.00021505355834960938,1271,0.17840871214866638,1.2753455638885498,3.436501979827881,4,0.18798526928407616,1.3370400815527976,3.154208913490873,0,1272,0,1.1784087121486664,1.2753455638885498,3.436501979827881,99.04234428645901,-6.169451766424783,28.2293066337008,103.1714197337384,30,-14,-4,ok,90,248473.99999999997,81,74.5,0,1,0,-1,1,0
1778083931.067111,6.0498857498168945,0.00720524787902832,1274,0.17840871214866638,1.2753455638885498,3.436501979827881,4,0.18798526928407616,1.3370400815527976,3.154208913490873,0,1275,0,1.1784087121486664,1.2753455638885498,3.436501979827881,99.04234428645901,-6.169451766424783,28.2293066337008,103.1714197337384,30,-14,-4,ok,90,248473.99999999997,81,74.5,0,1,0,-1,1,0
1778083931.1341376,6.116912364959717,-0.005479097366333008,1278,0.17840871214866638,1.2753455638885498,3.436501979827881,4,0.18798526928407616,1.3370400815527976,3.154208913490873,0,1279,0,1.1784087121486664,1.2753455638885498,3.436501979827881,99.04234428645901,-6.169451766424783,28.2293066337008,103.1714197337384,30,-14,-4,ok,90,248473.99999999997,81,74.5,0,1,0,-1,1,0
1778083931.2008824,6.183657169342041,0.0010936260223388672,1281,0.17840871214866638,1.2753455638885498,3.436501979827881,4,0.2136761490352627,1.2626029775040846,3.1981391463553104,0,1282,0,1.1784087121486664,1.2753455638885498,3.436501979827881,96.47325631134038,1.2742586384465238,23.836283347257048,99.38250008025535,30,4,28,ok,90,248473.99999999997,81,74.5,0,1,0,-1,1,0
1778083931.2674832,6.250257968902588,0.007812976837158203,1284,0.17840871214866638,1.2753455638885498,3.436501979827881,4,0.2136761490352627,1.2626029775040846,3.1981391463553104,0,1285,0,1.1784087121486664,1.2753455638885498,3.436501979827881,96.47325631134038,1.2742586384465238,23.836283347257048,99.38250008025535,30,-12,0,ok,90,248473.99999999997,81,74.5,0,1,0,-1,1,0
1778083931.3350878,6.317862510681152,-0.005383491516113281,1288,0.17840871214866638,1.2753455638885498,3.436501979827881,4,0.2136761490352627,1.2626029775040846,3.1981391463553104,0,1289,0,1.1784087121486664,1.2753455638885498,3.436501979827881,96.47325631134038,1.2742586384465238,23.836283347257048,99.38250008025535,30,-12,0,ok,90,248473.99999999997,81,74.5,0,1,0,-1,1,0
1778083931.4031124,6.385887145996094,0.0031290054321289062,1291,0.17840871214866638,1.2753455638885498,3.436501979827881,4,,,,,1292,0,,,,,,,,0,0,0,lost_self,90,248473.99999999997,81,74.5,0,1,0,-1,1,0
1778083931.467997,6.450771808624268,0.00805974006652832,1294,0.17840871214866638,1.2753455638885498,3.436501979827881,4,,,,,1295,0,,,,,,,,0,0,0,lost_self,90,248473.99999999997,81,74.5,0,1,0,-1,1,0
1778083931.532825,6.515599727630615,-0.0073773860931396484,1298,0.17840871214866638,1.2753455638885498,3.436501979827881,4,,,,,1299,0,,,,,,,,0,0,0,lost_self,90,248473.99999999997,81,74.5,0,1,0,-1,1,0
1778083931.5978987,6.580673456192017,-0.002133607864379883,1301,0.17840871214866638,1.2753455638885498,3.436501979827881,4,,,,,1302,0,,,,,,,,0,0,0,lost_self,90,248473.99999999997,81,74.5,0,1,0,-1,1,0
1778083931.6626213,6.645395994186401,0.0026085376739501953,1304,0.17840871214866638,1.2753455638885498,3.436501979827881,4,,,,,1305,0,,,,,,,,0,0,0,lost_self,90,248479.0,80,74.5,0,2,0,-1,2,0
1778083931.7280326,6.7108073234558105,0.0075604915618896484,1307,0.17840871214866638,1.2753455638885498,3.436501979827881,4,0.5563235876095867,1.1229222733449657,3.173471429181529,0,1308,0,1.1784087121486664,1.2753455638885498,3.436501979827881,62.20851245390797,15.242329054358406,26.303055064635174,69.23928308743955,2,-16,20,ok,90,248494.0,80,74.5,0,2,0,-1,2,0
1778083931.7931886,6.775963306427002,-0.009298563003540039,1311,0.17840871214866638,1.2753455638885498,3.436501979827881,4,0.5563235876095867,1.1229222733449657,3.173471429181529,0,1312,0,1.1784087121486664,1.2753455638885498,3.436501979827881,62.20851245390797,15.242329054358406,26.303055064635174,69.23928308743955,24,-14,11,ok,90,248483.0,80,75.0,0,1,0,-1,2,0
1778083931.8621376,6.84491229057312,0.0019145011901855469,1314,0.17840871214866638,1.2753455638885498,3.436501979827881,4,0.5421685804435833,1.3425135133536485,3.095055929546463,0,1315,0,1.1784087121486664,1.2753455638885498,3.436501979827881,63.624013170508306,-6.716794946509874,34.144605028141804,72.51885574664207,30,-30,-30,ok,90,248476.00000000003,80,75.0,0,1,0,-1,3,0
1778083931.929031,6.911805629730225,-0.011278867721557617,1318,0.17840871214866638,1.2753455638885498,3.436501979827881,4,0.5421685804435833,1.3425135133536485,3.095055929546463,0,1319,0,1.1784087121486664,1.2753455638885498,3.436501979827881,63.624013170508306,-6.716794946509874,34.144605028141804,72.51885574664207,26,-20,-4,ok,90,248476.00000000003,80,75.0,0,1,0,-1,3,0
1778083931.9966123,6.979387044906616,-0.0035791397094726562,1321,0.17840871214866638,1.2753455638885498,3.436501979827881,4,0.5909578136338774,1.2845337300395743,3.109490457867047,0,1322,0,1.1784087121486664,1.2753455638885498,3.436501979827881,58.745089851478895,-0.9188166151024468,32.701152196083385,67.23983313915886,4,-13,22,ok,90,248477.0,80,75.0,0,1,1,0,4,0
1778083932.0614524,7.044227123260498,0.0009322166442871094,1324,0.17840871214866638,1.2753455638885498,3.436501979827881,4,0.5983327211834985,1.287467150236898,3.1205334353747793,0,1325,0,1.1784087121486664,1.2753455638885498,3.436501979827881,58.00759909651679,-1.2121586348348146,31.59685444531015,66.06596773177804,20,-14,-1,ok,80,248469.99999999997,80,75.5,0,1,1,0,4,0
1778083932.1253276,7.108102321624756,0.005399227142333984,1327,0.17840871214866638,1.2753455638885498,3.436501979827881,4,0.6999317850789755,1.270869638415995,3.12405850119205,0,1328,0,1.1784087121486664,1.2753455638885498,3.436501979827881,47.84769270696909,0.44759254725548203,31.2443478635831,57.14727736200117,-22,-17,7,ok,80,248471.0,80,75.5,0,0,1,-1,4,0
1778083932.1904058,7.17318058013916,-0.009775161743164062,1331,0.17840871214866638,1.2753455638885498,3.436501979827881,4,0.37818689240300213,1.3489793991085182,3.5947759989357784,0,1332,0,1.1784087121486664,1.2753455638885498,3.436501979827881,80.02218197456644,-7.363383521996836,-15.827401910789751,81.90406385588147,30,30,-30,ok,80,248471.0,80,75.5,0,0,1,-1,4,0
1778083932.259757,7.242531776428223,-0.0001876354217529297,1334,0.17840871214866638,1.2753455638885498,3.436501979827881,4,0.4873435392858216,1.1766309670343653,3.303312116751647,0,1335,0,1.1784087121486664,1.2753455638885498,3.436501979827881,69.10651728628447,9.871459685418449,13.318986307623382,71.06723467268891,-11,-30,30,ok,80,248463.0,80,75.5,0,-1,0,-1,4,0
1778083932.3241043,7.306879043579102,0.0037283897399902344,1337,0.17840871214866638,1.2753455638885498,3.436501979827881,4,0.4873435392858216,1.1766309670343653,3.303312116751647,0,1338,0,1.1784087121486664,1.2753455638885498,3.436501979827881,69.10651728628447,9.871459685418449,13.318986307623382,71.06723467268891,30,-8,7,ok,80,248463.0,80,75.5,0,-1,0,-1,4,0
1778083932.393571,7.376345634460449,-0.00886988639831543,1341,0.17840871214866638,1.2753455638885498,3.436501979827881,4,0.5088461974549344,1.2322038409541396,3.286476839428432,0,1342,0,1.1784087121486664,1.2753455638885498,3.436501979827881,66.9562514693732,4.314172293441021,15.00251403994488,68.75192448889106,22,-15,-17,ok,80,248463.0,80,75.5,0,-1,0,-1,4,0
1778083932.461169,7.443943738937378,0.0006134510040283203,1344,0.17840871214866638,1.2753455638885498,3.436501979827881,4,0.5062168262600976,1.3574262731276923,3.255205177328829,2,1345,0,1.1784087121486664,1.2753455638885498,3.436501979827881,67.21918858885688,-8.208070923914246,18.129680249905178,70.10333122470084,30,-23,-30,ok,80,248463.0,80,75.5,0,-1,0,-1,4,0
1778083932.5242047,7.506979465484619,0.003423452377319336,1347,0.17840871214866638,1.2753455638885498,3.436501979827881,4,0.5062168262600976,1.3574262731276923,3.255205177328829,2,1348,0,1.1784087121486664,1.2753455638885498,3.436501979827881,67.21918858885688,-8.208070923914246,18.129680249905178,70.10333122470084,30,-11,-5,ok,80,248463.0,80,75.5,0,-1,0,-1,4,0
1778083932.5887678,7.571542501449585,0.008406400680541992,1350,0.17840871214866638,1.2753455638885498,3.436501979827881,4,0.5062168262600976,1.3574262731276923,3.255205177328829,2,1351,0,1.1784087121486664,1.2753455638885498,3.436501979827881,67.21918858885688,-8.208070923914246,18.129680249905178,70.10333122470084,30,-11,-5,ok,80,248463.0,80,75.5,0,-1,0,-1,4,0
1778083932.6530116,7.635786294937134,-0.007583141326904297,1354,0.17840871214866638,1.2753455638885498,3.436501979827881,4,0.4608582462765074,1.3463699781944647,3.253051170349602,2,1355,0,1.1784087121486664,1.2753455638885498,3.436501979827881,71.7550465872159,-7.1024414305914885,18.345080947827874,74.4027780394715,30,-12,0,ok,80,248463.0,80,75.5,0,-1,0,-1,4,0
1778083932.7223518,7.705126523971558,-0.00019693374633789062,1357,0.17840871214866638,1.2753455638885498,3.436501979827881,4,0.4608582462765074,1.3463699781944647,3.253051170349602,2,1358,0,1.1784087121486664,1.2753455638885498,3.436501979827881,71.7550465872159,-7.1024414305914885,18.345080947827874,74.4027780394715,30,-11,-4,ok,80,248477.0,80,75.5,0,-1,0,-1,3,0
1778083932.7861378,7.7689125537872314,0.005334377288818359,1360,0.17840871214866638,1.2753455638885498,3.436501979827881,4,0.5833528846189141,1.3991348107762924,3.260669940591889,2,1361,0,1.1784087121486664,1.2753455638885498,3.436501979827881,59.50558275297523,-12.378924688774262,17.5832039235992,63.271804268887436,-17,-8,-28,ok,90,248481.0,79,75.5,0,1,0,0,2,0
1778083932.8540876,7.836862325668335,-0.0062983036041259766,1364,0.17840871214866638,1.2753455638885498,3.436501979827881,4,0.5637130876007588,1.441695274918199,3.227732861995948,2,1365,0,1.1784087121486664,1.2753455638885498,3.436501979827881,61.46956245479076,-16.634971102964926,20.876911783193286,67.01548192457571,30,-25,-27,ok,90,248481.0,79,75.5,0,1,0,0,2,0
1778083932.9199772,7.902751922607422,-0.00034618377685546875,1367,0.17840871214866638,1.2753455638885498,3.436501979827881,4,,,,,1368,0,,,,,,,,0,0,0,lost_self,90,248478.00000000003,79,74.5,0,1,0,0,2,0
1778083932.9797916,7.962566375732422,-0.0011172294616699219,1370,0.17840871214866638,1.2753455638885498,3.436501979827881,4,,,,,1371,0,,,,,,,,0,0,0,lost_self,90,248478.00000000003,79,74.5,0,1,0,0,2,0
1778083933.04561,8.028384685516357,0.004315853118896484,1373,0.17840871214866638,1.2753455638885498,3.436501979827881,4,,,,,1374,0,,,,,,,,0,0,0,lost_self,90,248478.00000000003,79,74.5,0,1,0,0,2,0
1778083933.1128607,8.095635414123535,0.012268304824829102,1376,0.17840871214866638,1.2753455638885498,3.436501979827881,4,,,,,1377,0,,,,,,,,0,0,0,lost_self,90,248464.0,79,74.5,0,0,0,-1,3,0
1778083933.1727474,8.155522108078003,0.010862350463867188,1379,0.17840871214866638,1.2753455638885498,3.436501979827881,4,,,,,1380,0,,,,,,,,0,0,0,lost_self,90,248464.0,79,74.5,0,0,0,-1,3,0
1778083933.2315307,8.214305400848389,-0.009501934051513672,1383,0.17840871214866638,1.2753455638885498,3.436501979827881,4,,,,,1384,0,,,,,,,,0,0,0,lost_self,90,248464.0,79,74.5,0,0,0,-1,3,0
1778083933.3007503,8.283524990081787,-0.0004169940948486328,1386,0.17840871214866638,1.2753455638885498,3.436501979827881,4,,,,,1387,0,,,,,,,,0,0,0,lost_self,90,248464.0,79,74.5,0,0,0,-1,3,0
1778083933.3667784,8.349553108215332,0.005644798278808594,1389,0.17840871214866638,1.2753455638885498,3.436501979827881,4,,,,,1390,0,,,,,,,,0,0,0,lost_self,90,248464.0,79,74.5,0,0,0,-1,3,0
1778083933.432986,8.41576075553894,-0.007709026336669922,1393,0.17840871214866638,1.2753455638885498,3.436501979827881,4,,,,,1394,0,,,,,,,,0,0,0,lost_self,90,248464.0,79,74.5,0,0,0,-1,3,0
1778083933.4996703,8.482445001602173,-0.0019588470458984375,1396,0.17840871214866638,1.2753455638885498,3.436501979827881,4,,,,,1397,0,,,,,,,,0,0,0,lost_self,90,248464.0,79,74.5,0,0,0,-1,3,0
1778083933.565627,8.548401832580566,-0.006611347198486328,1399,0.17840871214866638,1.2753455638885498,3.436501979827881,4,,,,,1400,0,,,,,,,,0,0,0,lost_self,90,248478.00000000003,79,74.5,0,0,0,-1,3,0
1778083933.6340628,8.616837501525879,-0.006821632385253906,1403,0.17840871214866638,1.2753455638885498,3.436501979827881,4,,,,,1404,0,,,,,,,,0,0,0,lost_self,90,248467.0,79,74.5,0,-1,0,0,2,0
1778083933.7056162,8.688390970230103,0.004638671875,1406,0.17840871214866638,1.2753455638885498,3.436501979827881,4,1.3375739510475517,1.2831301376656614,3.4278096716758797,2,1407,0,1.1784087121486664,1.2753455638885498,3.436501979827881,-15.916523889888534,-0.7784573777111614,0.8692308152001171,15.959238416553557,-30,4,4,ok,90,248476.00000000003,79,74.5,0,-1,0,0,1,0
1778083933.7692604,8.752035140991211,0.008339881896972656,1409,0.17840871214866638,1.2753455638885498,3.436501979827881,4,1.2831293167686633,1.3094834326615232,3.4214525425749227,2,1410,0,1.1784087121486664,1.2753455638885498,3.436501979827881,-10.472060461999689,-3.4137868772973423,1.5049437252958153,11.116782213378649,6,-4,-12,ok,90,248465.0,79,74.5,0,0,0,0,1,0
1778083933.8322716,8.815046310424805,-0.008882522583007812,1413,0.17840871214866638,1.2753455638885498,3.436501979827881,4,1.42636571496035,1.2557973436692798,3.4366746771425736,2,1414,0,1.1784087121486664,1.2753455638885498,3.436501979827881,-24.795700281168354,1.9548220219270052,-0.017269731469271576,24.872643201207385,-30,4,21,ok,90,248465.0,79,74.5,0,0,0,0,1,0
1778083933.9016778,8.88445258140564,0.0006062984466552734,1416,0.17840871214866638,1.2753455638885498,3.436501979827881,4,1.3668304595792264,1.2846282146247692,3.445751536324061,2,1417,0,1.1784087121486664,1.2753455638885498,3.436501979827881,-18.842174743056006,-0.9282650736219367,-0.9249556496180311,18.887688266395237,1,2,-10,ok,90,248479.0,79,74.5,0,0,0,0,1,0
1778083933.9699373,8.952712059020996,-0.011016368865966797,1420,0.17840871214866638,1.2753455638885498,3.436501979827881,4,1.3620899837941032,1.2790581037477846,3.4335809017519323,2,1421,0,1.1784087121486664,1.2753455638885498,3.436501979827881,-18.36812716454368,-0.3712539859234809,0.29210780759485466,18.37420071802225,-17,-5,1,ok,90,248477.0,79,74.5,0,0,0,0,1,0
1778083934.0417302,9.024504899978638,0.0005443096160888672,1423,0.17840871214866638,1.2753455638885498,3.436501979827881,4,1.4485713939144835,1.2587480429987221,3.4526871221902167,2,1424,0,1.1784087121486664,1.2753455638885498,3.436501979827881,-27.016268176581715,1.6597520889827688,-1.6185142362335814,27.11555110114407,-30,7,8,ok,90,248477.0,79,74.5,0,0,0,0,1,0
1778083934.1081104,9.090885162353516,0.0070154666900634766,1426,0.17840871214866638,1.2753455638885498,3.436501979827881,4,1.3431157172544124,1.3705361114395094,3.4192841813779196,2,1427,0,1.1784087121486664,1.2753455638885498,3.436501979827881,-16.4707005105746,-9.519054755095958,1.7217798449961297,19.101332533993332,21,-14,-30,ok,90,248477.0,79,74.5,0,0,0,0,1,0
1778083934.172748,9.15552282333374,-0.008492708206176758,1430,0.17840871214866638,1.2753455638885498,3.436501979827881,4,1.4506156829649202,1.2577095483358611,3.454811540679872,2,1431,0,1.1784087121486664,1.2753455638885498,3.436501979827881,-27.220697081625378,1.7636015552688677,-1.830956085199098,27.339148491518216,-30,13,30,ok,90,248486.0,79,74.5,0,-2,0,0,1,0
1778083934.2391562,9.221930980682373,-0.0015227794647216797,1433,0.17840871214866638,1.2753455638885498,3.436501979827881,4,1.3859957789296184,1.2828747640295144,3.4504861333082815,2,1434,0,1.1784087121486664,1.2753455638885498,3.436501979827881,-20.75870667809521,-0.7529200140964587,-1.3984153480400607,20.819374557859696,3,-1,-10,ok,90,248480.00000000003,79,74.5,0,-1,0,0,0,0
1778083934.3027554,9.285530090332031,0.0013718605041503906,1436,0.17840871214866638,1.2753455638885498,3.436501979827881,4,1.478005160680825,1.3224303608717998,3.418913975895534,2,1437,0,1.1784087121486664,1.2753455638885498,3.436501979827881,-29.95964485321587,-4.708479698324997,1.758800393234683,30.378338987239005,-30,-14,-18,ok,90,248480.00000000003,79,74.5,0,-1,0,0,0,0
1778083934.3672435,9.35001826286316,0.006318330764770508,1439,0.17840871214866638,1.2753455638885498,3.436501979827881,4,1.4138773300153058,1.3482804520187037,3.4293111822605464,2,1440,0,1.1784087121486664,1.2753455638885498,3.436501979827881,-23.546861786663943,-7.293488813015392,0.7190797567334428,24.661037179372222,1,2,-15,ok,90,248480.00000000003,79,74.5,0,-2,0,0,0,0
1778083934.4323206,9.415095329284668,-0.008634090423583984,1443,0.17840871214866638,1.2753455638885498,3.436501979827881,4,1.4138773300153058,1.3482804520187037,3.4293111822605464,2,1444,0,1.1784087121486664,1.2753455638885498,3.436501979827881,-23.546861786663943,-7.293488813015392,0.7190797567334428,24.661037179372222,-23,-1,-5,ok,90,248480.00000000003,79,74.5,0,-2,0,0,0,0
1778083934.497823,9.480597734451294,-0.0033981800079345703,1446,0.17840871214866638,1.2753455638885498,3.436501979827881,4,1.529005935825307,1.2381876066491104,3.440973190510145,2,1447,0,1.1784087121486664,1.2753455638885498,3.436501979827881,-35.05972236766406,3.7157957239439376,-0.4471210682264193,35.25891642704602,-30,3,30,ok,90,248478.00000000003,79,74.5,0,-2,0,0,0,0
1778083934.5701532,9.55292797088623,0.008939743041992188,1449,0.17840871214866638,1.2753455638885498,3.436501979827881,4,1.4812853558350556,1.3206175860344627,3.4187358314256096,2,1450,0,1.1784087121486664,1.2753455638885498,3.436501979827881,-30.28766436863892,-4.527202214591286,1.776614840227131,30.675634192134243,-9,-10,-30,ok,90,248480.00000000003,78,74.5,0,-1,0,0,0,0
1778083934.6359787,9.618753433227539,-0.010996818542480469,1453,0.17840871214866638,1.2753455638885498,3.436501979827881,4,1.4553571999578332,1.2560807829034828,3.4418612014752923,2,1454,0,1.1784087121486664,1.2753455638885498,3.436501979827881,-27.69484878091668,1.926478098506701,-0.5359221647411427,27.76694400593139,-17,7,24,ok,90,248480.00000000003,78,74.5,0,-1,0,0,0,0
1778083934.7068026,9.689577341079712,0.005325794219970703,1456,0.17840871214866638,1.2753455638885498,3.436501979827881,4,1.4103770379204659,1.3478865278839014,3.428538805546981,2,1457,0,1.1784087121486664,1.2753455638885498,3.436501979827881,-23.196832577179947,-7.254096399535159,0.7963174280899654,24.317670070007647,-7,-6,-30,ok,90,248480.00000000003,78,74.5,0,-1,0,0,0,0
1778083934.7744381,9.75721287727356,-0.009656906127929688,1460,0.17840871214866638,1.2753455638885498,3.436501979827881,4,1.5238328398957752,1.2376712104775256,3.4402808954000457,2,1461,0,1.1784087121486664,1.2753455638885498,3.436501979827881,-34.54241277471088,3.767435341102421,-0.37789155721648093,34.74931152378292,-30,3,30,ok,90,248486.0,78,74.5,0,-1,0,0,0,0
1778083934.8432028,9.825977563858032,0.0011267662048339844,1463,0.17840871214866638,1.2753455638885498,3.436501979827881,4,1.4506601703459916,1.2573974663038747,3.4407152602379654,2,1464,0,1.1784087121486664,1.2753455638885498,3.436501979827881,-27.22514581973252,1.7948097584675082,-0.4213280410084508,27.287495749755593,0,0,-6,ok,90,248486.0,78,74.5,0,-1,0,0,0,0
1778083934.9114392,9.894213914871216,-0.010155439376831055,1467,0.17840871214866638,1.2753455638885498,3.436501979827881,4,1.4676381462871488,1.3175347086312836,3.4045481800661546,2,1468,0,1.1784087121486664,1.2753455638885498,3.436501979827881,-28.922943413848245,-4.218914474273383,3.19537997617263,29.403169017199932,-30,-15,-24,ok,90,248479.0,78,75.0,0,-1,0,0,0,0
1778083934.9793432,9.962117910385132,-0.0018949508666992188,1470,0.17840871214866638,1.2753455638885498,3.436501979827881,4,1.4023674692770995,1.3449515686141311,3.4110420000150166,2,1471,0,1.1784087121486664,1.2753455638885498,3.436501979827881,-22.395875712843317,-6.960600472558132,2.5459979812864297,23.590407236934595,0,0,-15,ok,90,248479.0,78,75.0,0,-1,0,0,0,0
1778083935.045623,10.028397798538208,0.003063678741455078,1473,0.17840871214866638,1.2753455638885498,3.436501979827881,4,1.4490012975524,1.3116172675434066,3.390001514395036,2,1474,0,1.1784087121486664,1.2753455638885498,3.436501979827881,-27.059258540373364,-3.627170365485677,4.6500465432844695,27.69445378536537,-30,-12,10,ok,90,248478.00000000003,78,75.0,0,-1,0,0,0,0
1778083935.1068993,10.08967399597168,0.005452632904052734,1476,0.17840871214866638,1.2753455638885498,3.436501979827881,4,1.3883107842428517,1.3401814409056174,3.397160629478022,2,1477,0,1.1784087121486664,1.2753455638885498,3.436501979827881,-20.990207209418532,-6.483587701706761,3.934135034985875,22.31822409273534,0,0,-15,ok,90,248478.00000000003,78,75.0,0,-1,0,0,0,0
1778083935.1742723,10.157047033309937,-0.01134181022644043,1480,0.17840871214866638,1.2753455638885498,3.436501979827881,4,1.3848513120909436,1.3425755605882044,3.39589439484628,2,1481,0,1.1784087121486664,1.2753455638885498,3.436501979827881,-20.64425999422772,-6.722999669965457,4.0607584981601,22.087868952255356,-22,-3,-5,ok,90,248481.0,78,75.0,0,-1,0,0,-1,0
1778083935.2438424,10.226617097854614,0.0025267601013183594,1483,0.17840871214866638,1.2753455638885498,3.436501979827881,4,1.3485057443353903,1.2768389483490012,3.4036497076514105,2,1484,0,1.1784087121486664,1.2753455638885498,3.436501979827881,-17.00970321867239,-0.14933844604514412,3.2852272176470354,17.32469403569223,-7,0,25,ok,90,248487.0,78,75.0,0,-1,0,0,-1,0
1778083935.3054373,10.288212060928345,0.003965854644775391,1486,0.17840871214866638,1.2753455638885498,3.436501979827881,4,1.3135053327948898,1.3703283936335482,3.3847336692488463,2,1487,0,1.1784087121486664,1.2753455638885498,3.436501979827881,-13.50966206462234,-9.498282974499839,5.176831057903453,17.306875176242627,-6,-11,-30,ok,90,248487.0,78,75.0,0,-1,0,0,-1,0
1778083935.3792129,10.361987590789795,-0.0022683143615722656,1490,0.17840871214866638,1.2753455638885498,3.436501979827881,4,1.3082128320213238,1.3704695399872278,3.383433610976198,2,1491,0,1.1784087121486664,1.2753455638885498,3.436501979827881,-12.98041198726574,-9.512397609867795,5.306836885168265,16.945185787507704,-17,-4,-7,ok,90,248473.0,78,75.0,0,-1,0,0,-1,0
1778083935.441333,10.424107789993286,-0.0006177425384521484,1493,0.17840871214866638,1.2753455638885498,3.436501979827881,4,1.3342468044413844,1.2830454140312206,3.41513019993316,2,1494,0,1.1784087121486664,1.2753455638885498,3.436501979827881,-15.583809229271806,-0.7699850142670828,2.1371779894721055,15.74850839842355,-30,10,30,ok,90,248482.00000000003,78,75.0,0,0,0,0,-1,0
1778083935.5041702,10.486944913864136,0.0022013187408447266,1496,0.17840871214866638,1.2753455638885498,3.436501979827881,4,1.3382611546073955,1.2840929043274905,3.4129884388713916,2,1497,0,1.1784087121486664,1.2753455638885498,3.436501979827881,-15.98524424587291,-0.8747340438940654,2.3513540956489276,16.18091651702354,-22,-3,-1,ok,90,248482.00000000003,78,75.0,0,0,0,0,-1,0
1778083935.572764,10.555538654327393,-0.009161710739135742,1500,0.17840871214866638,1.2753455638885498,3.436501979827881,4,1.2939876182339338,1.3688880295271646,3.3667394264833703,2,1501,0,1.1784087121486664,1.2753455638885498,3.436501979827881,-11.557890608526744,-9.35424656386148,6.976255334451054,16.42421695508318,-1,-22,-30,ok,90,248486.0,78,75.0,0,0,0,0,-1,0
1778083935.640815,10.623589754104614,-0.0006513595581054688,1503,0.17840871214866638,1.2753455638885498,3.436501979827881,4,1.2909149661047756,1.3741860959038106,3.3791823053054437,2,1504,0,1.1784087121486664,1.2753455638885498,3.436501979827881,-11.250625395610925,-9.884053201526077,5.731967452243714,16.035165429659422,-17,0,-9,ok,90,248486.0,78,75.0,0,0,0,0,-1,0
1778083935.7035942,10.686368942260742,0.0017061233520507812,1506,0.17840871214866638,1.2753455638885498,3.436501979827881,4,1.2276748682467566,1.4040411066744105,3.3645503733709914,2,1507,0,1.1784087121486664,1.2753455638885498,3.436501979827881,-4.926615609809026,-12.86955427858607,7.195160645688947,15.545652299390914,8,-10,-20,ok,90,248486.0,78,75.0,0,0,0,0,-1,0
1778083935.7727692,10.755543947219849,-0.008861780166625977,1510,0.17840871214866638,1.2753455638885498,3.436501979827881,4,1.283117767842005,1.3716644025907059,3.364856697548702,2,1511,0,1.1784087121486664,1.2753455638885498,3.436501979827881,-10.470905569333855,-9.631883870215606,7.164528227917888,15.929328769909251,-30,-5,3,ok,90,248473.0,78,75.0,0,0,0,0,-1,0
1778083935.8439016,10.826676368713379,0.0021834373474121094,1513,0.17840871214866638,1.2753455638885498,3.436501979827881,4,1.2470391431254453,1.3190534547566606,3.3987653595894005,2,1514,0,1.1784087121486664,1.2753455638885498,3.436501979827881,-6.86304309767789,-4.370789086811078,3.7736620238480345,8.969151736491238,-1,9,16,ok,90,248475.0,78,75.0,0,0,0,0,-1,0
1778083935.9056735,10.888448238372803,0.004172086715698242,1516,0.17840871214866638,1.2753455638885498,3.436501979827881,4,1.2410072328425368,1.317945487046845,3.3991842869237505,2,1517,0,1.1784087121486664,1.2753455638885498,3.436501979827881,-6.25985206938704,-4.259992315829519,3.731769290413034,8.441527379473786,-13,-3,-3,ok,90,248475.0,78,75.0,0,0,0,0,-1,0
1778083935.973093,10.955867767333984,-0.008665800094604492,1520,0.17840871214866638,1.2753455638885498,3.436501979827881,4,1.1972008712693019,1.2560653727901658,3.419801201900555,2,1521,0,1.1784087121486664,1.2753455638885498,3.436501979827881,-1.8792159120635477,1.928019109838397,1.6700777927325827,3.168259769310814,3,5,23,ok,90,248484.0,78,75.0,0,0,0,0,-1,0
1778083936.0409296,11.023704290390015,-0.0007340908050537109,1523,0.17840871214866638,1.2753455638885498,3.436501979827881,4,1.1167986599313031,1.3881049996138093,3.3617819449462463,2,1524,0,1.1784087121486664,1.2753455638885498,3.436501979827881,6.1610052217363265,-11.275943572525948,7.472003488163459,14.863906785235786,22,-27,-30,ok,90,248484.0,78,75.0,0,0,0,0,-1,0
1778083936.1089735,11.091748237609863,0.007059335708618164,1526,0.17840871214866638,1.2753455638885498,3.436501979827881,4,1.1261834019877084,1.2930140191852404,3.401173765769709,2,1527,0,1.1784087121486664,1.2753455638885498,3.436501979827881,5.222531016095799,-1.7668455296690588,3.532821405817188,6.5480837216085055,-12,10,30,ok,90,248473.99999999997,78,75.0,0,0,0,0,-1,0
1778083936.1751862,11.157960891723633,-0.0072214603424072266,1530,0.17840871214866638,1.2753455638885498,3.436501979827881,4,1.1237163837316766,1.2884100192461643,3.387825126303133,2,1531,0,1.1784087121486664,1.2753455638885498,3.436501979827881,5.469232841698979,-1.3064455357614468,4.867685352474771,7.437315947660629,-7,-9,0,ok,90,248477.0,78,75.0,0,0,0,0,-1,0
