timestamp,elapsed,phase,mission_state,target_x,target_y,target_z,pos_x,pos_y,pos_z,marker_id,err_x_cm,err_y_cm,err_z_cm,err_3d_cm,cmd_lr,cmd_fb,cmd_ud,publish_count,tello_height_cm,tello_baro_cm,tello_battery,tello_temp_c,tello_pitch,tello_roll,tello_yaw,tello_vgx,tello_vgy,tello_vgz
1778192934.8204951,1.0967254638671875e-05,wait_slave,2,0.12737108654703064,1.431153903193704,4.003253222089223,0.15031750758905427,1.5284293525836334,3.996577034605807,2,-2.294642104202363,-9.72754493899295,0.6676187483416474,10.016797278553803,-12,-3,-30,1,140,252158.0,84,63.0,-1,0,1,0,0,0
1778192934.8932679,0.0727837085723877,wait_slave,2,0.12737108654703064,1.431153903193704,4.003253222089223,0.0687343635607418,1.3663536907331366,4.046050198062947,2,5.863672298628883,6.480021246056733,-4.279697597372323,9.730834481174202,30,19,30,4,140,252158.0,84,63.0,-1,0,1,0,0,0
1778192934.964349,0.14386487007141113,wait_slave,2,0.12737108654703064,1.431153903193704,4.003253222089223,0.22261040970180046,1.6242464064460265,3.9756483325578413,2,-9.523932315476982,-19.309250325232252,2.760488953138207,21.706513633761336,-30,-26,-30,8,140,252162.0,84,63.0,-1,0,1,0,0,0
1778192935.0356932,0.2152090072631836,wait_slave,2,0.12737108654703064,1.431153903193704,4.003253222089223,0.1476845946058698,1.5315962508550993,3.995431784557792,2,-2.0313508058839163,-10.044234766139537,0.7821437531431386,10.277392032245935,24,6,24,11,140,252152.0,84,63.0,-1,0,1,0,0,0
1778192935.107862,0.28737783432006836,wait_slave,2,0.12737108654703064,1.431153903193704,4.003253222089223,0.1476845946058698,1.5315962508550993,3.995431784557792,2,-2.0313508058839163,-10.044234766139537,0.7821437531431386,10.277392032245935,-1,0,-7,15,140,252152.0,84,63.0,-1,0,1,0,0,0
1778192935.179605,0.35912084579467773,wait_slave,2,0.12737108654703064,1.431153903193704,4.003253222089223,0.1476845946058698,1.5315962508550993,3.995431784557792,2,-2.0313508058839163,-10.044234766139537,0.7821437531431386,10.277392032245935,-1,0,-7,19,140,252152.0,84,63.0,-1,0,1,0,0,0
1778192935.251317,0.4308328628540039,wait_slave,2,0.12737108654703064,1.431153903193704,4.003253222089223,0.151914298435054,1.4552242256092027,4.040298138067149,2,-2.4543211888023357,-2.407032241549878,-3.7044915977925363,5.05378617551042,-3,17,24,22,140,252155.00000000003,84,63.0,0,-1,1,0,0,0
1778192935.32193,0.5014457702636719,wait_slave,2,0.12737108654703064,1.431153903193704,4.003253222089223,0.151914298435054,1.4552242256092027,4.040298138067149,2,-2.4543211888023357,-2.407032241549878,-3.7044915977925363,5.05378617551042,-1,2,-2,26,140,252155.00000000003,84,63.0,0,-1,1,0,0,0
1778192935.392373,0.5718889236450195,wait_slave,2,0.12737108654703064,1.431153903193704,4.003253222089223,0.151914298435054,1.4552242256092027,4.040298138067149,2,-2.4543211888023357,-2.407032241549878,-3.7044915977925363,5.05378617551042,-1,2,-2,29,140,252155.00000000003,84,63.0,0,-1,1,0,0,0
1778192935.466272,0.6457879543304443,wait_slave,2,0.12737108654703064,1.431153903193704,4.003253222089223,0.15082890974557916,1.4555793816441356,4.040039830118013,2,-2.3457823198548526,-2.4425478450431637,-3.6786608028789303,5.000127995372366,-1,2,-2,33,140,252161.0,84,63.0,0,0,1,0,0,0
1778192935.5366778,0.716193675994873,wait_slave,2,0.12737108654703064,1.431153903193704,4.003253222089223,0.14638376616802795,1.4572130714405405,4.037810601866127,2,-1.9012679620997313,-2.6059168246836517,-3.455737977690365,4.72734040781153,0,1,-2,36,140,252159.0,83,63.0,0,0,1,0,0,0
1778192935.607549,0.787064790725708,wait_slave,2,0.12737108654703064,1.431153903193704,4.003253222089223,0.060411856953605736,1.449894668347067,4.02304913573084,2,6.69592295934249,-1.8740765153363093,-1.9795913641616814,7.229545561918016,30,-3,0,40,140,252159.0,83,63.0,0,0,1,0,0,0
1778192935.6788301,0.8583459854125977,wait_slave,2,0.12737108654703064,1.431153903193704,4.003253222089223,0.060411856953605736,1.449894668347067,4.02304913573084,2,6.69592295934249,-1.8740765153363093,-1.9795913641616814,7.229545561918016,3,1,-1,44,140,252159.0,83,63.0,0,0,1,0,0,0
1778192935.7516701,0.9311859607696533,wait_slave,2,0.12737108654703064,1.431153903193704,4.003253222089223,0.1437107837966486,1.5414971191947893,4.012335592360682,2,-1.633969724961795,-11.034321600108532,-0.9082370271458196,11.19155953092294,-29,-3,-30,47,140,252157.00000000003,83,63.5,-1,0,1,0,0,0
1778192935.823355,1.002870798110962,wait_slave,2,0.12737108654703064,1.431153903193704,4.003253222089223,0.044091735947286215,1.2886991530434795,4.100562905933895,2,8.327935059974442,14.245475015022446,-9.730968384467165,19.156717006477905,30,30,30,51,140,252150.0,83,63.5,-1,0,1,0,0,0
1778192935.893989,1.07350492477417,wait_slave,2,0.12737108654703064,1.431153903193704,4.003253222089223,0.055826708360283694,1.4608061799718612,4.040397951216964,2,7.154437818674694,-2.9652276778157294,-3.7144729127740916,8.589287787837803,0,-18,-30,54,140,252150.0,83,63.5,-1,0,1,0,0,0
1778192935.965255,1.144770860671997,wait_slave,2,0.12737108654703064,1.431153903193704,4.003253222089223,0.049070410035322864,1.537552061885298,4.017769636728756,2,7.830067651170777,-10.639815869159408,-1.4516414639532904,13.289955007124588,7,-6,-30,58,140,252146.99999999997,83,63.5,-1,0,1,0,0,0
1778192936.033298,1.2128138542175293,wait_slave,2,0.12737108654703064,1.431153903193704,4.003253222089223,0.13603123757539715,1.386732413094455,4.120670843314928,2,-0.8660151028366508,4.442149009924901,-11.741762122570432,12.583785111314786,-30,30,30,61,140,252146.0,83,63.5,-1,0,1,0,0,0
1778192936.102956,1.2824718952178955,wait_slave,2,0.12737108654703064,1.431153903193704,4.003253222089223,0.03917686061322023,1.384683078258245,4.100355053180668,2,8.81942259338104,4.647082493545884,-9.710183109144488,13.916366141905561,30,-1,3,65,140,252156.0,83,63.5,-1,0,1,0,0,0
1778192936.173493,1.35300874710083,wait_slave,2,0.12737108654703064,1.431153903193704,4.003253222089223,0.1246068425684872,1.4740187278523464,4.095540765451287,2,0.27642439785434403,-4.28648246586425,-9.228754336206357,10.179403173857416,-29,4,-30,68,140,252156.0,83,63.5,-1,0,1,0,0,0
1778192936.244394,1.4239099025726318,wait_slave,2,0.12737108654703064,1.431153903193704,4.003253222089223,0.12585624105841053,1.4752046476876095,4.095280003823996,2,0.15148454886201035,-4.405074449390556,-9.202678173477263,10.203769599408458,0,5,-4,72,140,252156.0,83,63.5,-1,0,1,0,0,0
1778192936.317132,1.496647834777832,wait_slave,2,0.12737108654703064,1.431153903193704,4.003253222089223,-0.04996395439579415,1.3835015303494407,4.078522273804916,2,17.73350409428248,4.765237284426327,-7.526905171569265,19.845376169289825,30,0,30,76,140,252152.0,83,63.5,-2,0,1,0,0,0
1778192936.3890429,1.568558692932129,wait_slave,2,0.12737108654703064,1.431153903193704,4.003253222089223,0.0243228267007225,1.3007174502417294,4.1366212444325186,2,10.304825984630813,13.043645295197459,-13.336802234329515,21.311884360564317,-19,28,30,79,140,252152.0,83,63.5,-2,0,1,0,0,0
1778192936.4604878,1.6400036811828613,wait_slave,2,0.12737108654703064,1.431153903193704,4.003253222089223,0.11921035521552015,1.393469919656543,4.137141538895663,2,0.816073133151049,3.768398353716096,-13.388831680643953,13.932968645753721,-30,8,-30,83,140,252151.00000000003,83,63.5,-2,0,1,0,0,0
1778192936.532796,1.7123117446899414,wait_slave,2,0.12737108654703064,1.431153903193704,4.003253222089223,0.031925245853519524,1.4657240391777622,4.078316330929407,2,9.544584069351112,-3.4570135984058226,-7.506310884018319,12.625162619309332,30,-15,-27,86,140,252151.00000000003,83,63.5,-2,0,1,0,0,0
1778192936.60511,1.784625768661499,wait_slave,2,0.12737108654703064,1.431153903193704,4.003253222089223,0.021424399637279712,1.3922762264755166,4.115667571493717,2,10.594668690975093,3.8877676718187315,-11.241434940449402,15.928954820135669,10,20,27,90,140,252148.99999999997,83,63.5,-1,1,1,0,0,0
1778192936.676914,1.8564298152923584,wait_slave,2,0.12737108654703064,1.431153903193704,4.003253222089223,0.1162661024799504,1.4883874018893528,4.1107114958356155,2,1.1104984067080244,-5.723349869564887,-10.745827374639205,12.225495752986657,-30,5,-30,93,140,252144.99999999997,83,63.5,-1,0,1,0,0,0
1778192936.748138,1.9276537895202637,wait_slave,2,0.12737108654703064,1.431153903193704,4.003253222089223,0.03197144402168517,1.4715965433083658,4.077094714713358,2,9.539964252534547,-4.044264011466181,-7.38414926241342,12.72370424301344,30,-6,2,97,140,252146.0,83,63.5,-1,0,1,0,0,0
1778192936.8194282,1.9989440441131592,wait_slave,2,0.12737108654703064,1.431153903193704,4.003253222089223,0.015933399380002822,1.3072983794039539,4.156945806198098,2,11.143768716702782,12.385552378975007,-15.369258410887454,22.667147880673735,12,30,30,101,140,252146.0,83,63.5,-1,0,1,0,0,0
1778192936.894208,2.073723793029785,wait_slave,2,0.12737108654703064,1.431153903193704,4.003253222089223,0.015933399380002822,1.3072983794039539,4.156945806198098,2,11.143768716702782,12.385552378975007,-15.369258410887454,22.667147880673735,7,10,8,104,140,252156.0,83,63.5,-1,0,1,0,0,0
1778192936.9670029,2.1465187072753906,wait_slave,2,0.12737108654703064,1.431153903193704,4.003253222089223,0.015933399380002822,1.3072983794039539,4.156945806198098,2,11.143768716702782,12.385552378975007,-15.369258410887454,22.667147880673735,7,10,8,108,140,252158.0,83,63.5,-1,0,1,0,0,0
1778192937.0389519,2.2184677124023438,wait_slave,2,0.12737108654703064,1.431153903193704,4.003253222089223,0.015933399380002822,1.3072983794039539,4.156945806198098,2,11.143768716702782,12.385552378975007,-15.369258410887454,22.667147880673735,7,10,8,112,140,252158.0,83,63.5,-1,0,1,0,0,0
1778192937.1121962,2.2917120456695557,wait_slave,2,0.12737108654703064,1.431153903193704,4.003253222089223,0.015933399380002822,1.3072983794039539,4.156945806198098,2,11.143768716702782,12.385552378975007,-15.369258410887454,22.667147880673735,7,10,8,115,140,252160.0,83,63.5,0,0,1,0,0,0
1778192937.1886,2.3681159019470215,wait_slave,2,0.12737108654703064,1.431153903193704,4.003253222089223,0.015933399380002822,1.3072983794039539,4.156945806198098,2,11.143768716702782,12.385552378975007,-15.369258410887454,22.667147880673735,7,10,8,119,140,252164.0,83,63.5,-2,0,1,0,0,0
1778192937.2618408,2.441356658935547,wait_slave,2,0.12737108654703064,1.431153903193704,4.003253222089223,0.015933399380002822,1.3072983794039539,4.156945806198098,2,11.143768716702782,12.385552378975007,-15.369258410887454,22.667147880673735,7,10,8,123,140,252164.0,83,63.5,-2,0,1,0,0,0
1778192937.336093,2.515608787536621,wait_slave,2,0.12737108654703064,1.431153903193704,4.003253222089223,0.015933399380002822,1.3072983794039539,4.156945806198098,2,11.143768716702782,12.385552378975007,-15.369258410887454,22.667147880673735,7,10,8,126,140,252159.0,83,63.5,-2,0,1,0,0,0
1778192937.4069629,2.5864787101745605,wait_slave,2,0.12737108654703064,1.431153903193704,4.003253222089223,0.015933399380002822,1.3072983794039539,4.156945806198098,2,11.143768716702782,12.385552378975007,-15.369258410887454,22.667147880673735,7,10,9,130,140,252159.0,83,63.5,-2,0,1,0,0,0
1778192937.479501,2.6590168476104736,wait_slave,2,0.12737108654703064,1.431153903193704,4.003253222089223,0.015933399380002822,1.3072983794039539,4.156945806198098,2,11.143768716702782,12.385552378975007,-15.369258410887454,22.667147880673735,7,10,9,134,140,252165.0,82,63.5,-1,0,1,0,0,0
1778192937.5514822,2.7309980392456055,wait_slave,2,0.12737108654703064,1.431153903193704,4.003253222089223,0.015933399380002822,1.3072983794039539,4.156945806198098,2,11.143768716702782,12.385552378975007,-15.369258410887454,22.667147880673735,7,11,9,137,140,252163.0,82,63.5,-1,0,1,0,0,0
1778192937.623997,2.8035128116607666,wait_slave,2,0.12737108654703064,1.431153903193704,4.003253222089223,0.015933399380002822,1.3072983794039539,4.156945806198098,2,11.143768716702782,12.385552378975007,-15.369258410887454,22.667147880673735,7,11,9,141,140,252161.0,82,63.5,-1,0,1,0,0,0
1778192937.6966531,2.876168966293335,wait_slave,2,0.12737108654703064,1.431153903193704,4.003253222089223,0.015933399380002822,1.3072983794039539,4.156945806198098,2,11.143768716702782,12.385552378975007,-15.369258410887454,22.667147880673735,7,11,9,144,140,252161.0,82,63.5,-1,0,1,0,0,0
1778192937.768935,2.948450803756714,wait_slave,2,0.12737108654703064,1.431153903193704,4.003253222089223,0.015933399380002822,1.3072983794039539,4.156945806198098,2,11.143768716702782,12.385552378975007,-15.369258410887454,22.667147880673735,8,11,9,148,140,252156.0,82,63.5,-1,0,1,0,0,0
1778192937.84218,3.021695852279663,wait_slave,2,0.12737108654703064,1.431153903193704,4.003253222089223,0.1372607491669674,1.4889454832998448,4.118692929198842,2,-0.9889662619936762,-5.779158010614083,-11.543970710961826,12.947585927675906,-30,-4,-30,152,140,252169.0,82,63.5,-1,0,1,0,0,0
1778192937.9148722,3.094388008117676,wait_slave,2,0.12737108654703064,1.431153903193704,4.003253222089223,0.0562789881522201,1.4773976971376235,4.082906750489828,2,7.1092098394810535,-4.624379394391953,-7.965352840060458,11.634972934721864,30,-5,1,155,140,252163.0,82,63.5,-1,0,1,0,0,0
1778192937.9868789,3.1663947105407715,wait_slave,2,0.12737108654703064,1.431153903193704,4.003253222089223,0.05509651790877845,1.393415877147702,4.127604724927027,2,7.227456863825219,3.773802604600185,-12.435150283780327,14.869790899577012,6,25,30,159,140,252163.0,82,63.5,-1,0,1,0,0,0
1778192938.0583591,3.237874984741211,wait_slave,2,0.12737108654703064,1.431153903193704,4.003253222089223,0.14088922987919417,1.4886920433135833,4.120128397589717,2,-1.3518143332163528,-5.753814011987934,-11.687517550049353,13.097016612906526,-29,6,-30,163,140,252159.0,82,63.5,-1,0,1,0,0,0
1778192938.129995,3.3095109462738037,wait_slave,2,0.12737108654703064,1.431153903193704,4.003253222089223,0.059657564692994214,1.4769545086992784,4.084492772609224,2,6.771352185403642,-4.580060550557441,-8.123955052000031,11.525051442508188,30,-5,1,166,140,252159.0,82,63.5,-1,0,1,0,0,0
1778192938.201504,3.3810198307037354,wait_slave,2,0.12737108654703064,1.431153903193704,4.003253222089223,0.21476386465154373,1.6628499537383608,4.0522287983005025,2,-8.73927781045131,-23.16960505446568,-4.897557621127913,25.242655281892123,-30,-5,-30,170,140,252157.00000000003,82,63.5,-1,-1,1,0,0,0
1778192938.2715929,3.451108694076538,wait_slave,2,0.12737108654703064,1.431153903193704,4.003253222089223,0.14980668242392325,1.4918581570766518,4.120208012196936,2,-2.2435595876892616,-6.070425388294787,-11.695479010771237,13.366669492052118,23,30,30,173,140,252158.0,82,63.5,0,0,1,0,0,0
1778192938.3423061,3.521821975708008,wait_slave,2,0.12737108654703064,1.431153903193704,4.003253222089223,0.06154475849886054,1.4758547664393689,4.085348379865238,2,6.58263280481701,-4.470086324566491,-8.209515777601428,11.432798244297684,30,-4,2,177,140,252152.0,82,63.5,0,0,1,0,0,0
1778192938.413248,3.592763900756836,wait_slave,2,0.12737108654703064,1.431153903193704,4.003253222089223,0.1490320374874169,1.4832738560608263,4.099056013443006,2,-2.166095094038625,-5.211995286712234,-9.580279135378245,11.119290046441476,-30,13,-5,180,140,252152.0,82,63.5,0,0,1,0,0,0
1778192938.484608,3.664123773574829,wait_slave,2,0.12737108654703064,1.431153903193704,4.003253222089223,0.14951050943747535,1.4815986223811044,4.099130276898117,2,-2.213942289044471,-5.0444719187400455,-9.58770548088932,11.057682116359262,0,8,-2,184,140,252161.0,82,63.5,0,0,1,0,0,0
1778192938.555596,3.735111951828003,wait_slave,2,0.12737108654703064,1.431153903193704,4.003253222089223,0.14951050943747535,1.4815986223811044,4.099130276898117,2,-2.213942289044471,-5.0444719187400455,-9.58770548088932,11.057682116359262,0,8,-3,187,140,252161.0,82,63.5,0,0,1,0,0,0
1778192938.627101,3.80661678314209,wait_slave,2,0.12737108654703064,1.431153903193704,4.003253222089223,0.14951050943747535,1.4815986223811044,4.099130276898117,2,-2.213942289044471,-5.0444719187400455,-9.58770548088932,11.057682116359262,0,8,-3,191,140,252161.0,82,63.5,0,0,1,0,0,0
1778192938.700617,3.8801329135894775,wait_slave,2,0.12737108654703064,1.431153903193704,4.003253222089223,0.15239278867160522,1.479956401280146,4.100415445118269,2,-2.502170212457458,-4.88024980864421,-9.716222302904587,11.157180190636959,-1,9,-2,195,140,252160.0,82,63.5,-1,0,1,0,0,0
1778192938.7708318,3.950347661972046,wait_slave,2,0.12737108654703064,1.431153903193704,4.003253222089223,0.2269496313788517,1.660877577350388,4.052856697277625,2,-9.957854483182107,-22.972367415668415,-4.96034751884018,25.524372237067027,-30,-11,-30,198,140,252161.0,82,64.0,-1,-1,1,0,0,0
1778192938.841677,4.021192789077759,wait_slave,2,0.12737108654703064,1.431153903193704,4.003253222089223,0.23417087403746484,1.5732897650848425,4.08588554146113,2,-10.67997874904342,-14.213586189113858,-8.263231937190696,19.605330409947076,-7,19,21,202,140,252161.0,82,64.0,-1,-1,1,0,0,0
1778192938.911784,4.091299772262573,wait_slave,2,0.12737108654703064,1.431153903193704,4.003253222089223,0.15781225521753184,1.4736505949270624,4.104230520882787,2,-3.04411686705012,-4.249669173335846,-10.097729879356354,11.370597358956394,26,15,30,205,140,252161.0,82,64.0,-1,-1,1,0,0,0
1778192938.982275,4.16179084777832,wait_slave,2,0.12737108654703064,1.431153903193704,4.003253222089223,0.15781225521753184,1.4736505949270624,4.104230520882787,2,-3.04411686705012,-4.249669173335846,-10.097729879356354,11.370597358956394,0,9,-3,209,140,252165.0,82,64.0,-1,-1,1,0,0,0
1778192939.054655,4.234170913696289,wait_slave,2,0.12737108654703064,1.431153903193704,4.003253222089223,0.16031894069560504,1.4733264555484382,4.105149029717369,2,-3.29478541485744,-4.217255235473427,-10.189580762814554,11.509492116205902,-1,9,-2,212,140,252165.0,82,64.0,-1,-1,1,0,0,0
1778192939.1263711,4.30588698387146,wait_slave,2,0.12737108654703064,1.431153903193704,4.003253222089223,0.2346630941197616,1.5717212740371505,4.086013209583676,2,-10.729200757273096,-14.05673708434465,-8.275998749445268,19.524337675042382,-30,1,-30,216,140,252155.00000000003,82,64.0,-1,-1,1,0,0,0
1778192939.198069,4.377584934234619,wait_slave,2,0.12737108654703064,1.431153903193704,4.003253222089223,0.2346630941197616,1.5717212740371505,4.086013209583676,2,-10.729200757273096,-14.05673708434465,-8.275998749445268,19.524337675042382,-5,8,-10,220,140,252153.00000000003,82,64.0,-1,-1,1,0,0,0
1778192939.2690592,4.448575019836426,wait_slave,2,0.12737108654703064,1.431153903193704,4.003253222089223,0.15724792656662556,1.4725689973920875,4.1038569842447385,2,-2.9876840019594924,-4.141509419838352,-10.060376215551514,11.282265976682568,26,15,30,223,140,252153.00000000003,82,64.0,-1,-1,1,0,0,0
1778192939.3420422,4.521558046340942,wait_slave,2,0.12737108654703064,1.431153903193704,4.003253222089223,0.23371282167320406,1.5721819500441598,4.085609522150629,2,-10.634173512617343,-14.102804685045589,-8.235630006140582,19.48846704795016,-30,1,-30,227,140,252157.00000000003,82,64.0,-1,0,1,0,0,0
1778192939.41424,4.593755722045898,wait_slave,2,0.12737108654703064,1.431153903193704,4.003253222089223,0.15278322534631916,1.4782964902766,4.10049398899066,2,-2.5412138799288524,-4.714258708289609,-9.72407669014368,11.101336434322812,27,14,28,230,140,252153.00000000003,82,64.0,-1,0,1,0,0,0
1778192939.486521,4.66603684425354,wait_slave,2,0.12737108654703064,1.431153903193704,4.003253222089223,0.23275395095193308,1.572632621630436,4.0852157821049095,2,-10.538286440490245,-14.14787184367321,-8.196256001568614,19.452412992995786,-30,2,-30,234,140,252157.00000000003,81,64.0,-1,-1,1,0,0,0
1778192939.557447,4.736962795257568,wait_slave,2,0.12737108654703064,1.431153903193704,4.003253222089223,0.24229783387346882,1.4855567847513376,4.113689851138525,2,-11.492674732643819,-5.440288155763362,-11.043662904930152,16.841638818292566,-9,20,26,238,140,252153.00000000003,81,64.0,-1,-1,1,0,0,0
1778192939.628414,4.807929754257202,wait_slave,2,0.12737108654703064,1.431153903193704,4.003253222089223,0.23702197052911744,1.5750032945195573,4.083159980484678,2,-10.96508839820868,-14.38493913258534,-7.990675839545425,19.77398639125178,-3,-2,-30,241,140,252153.00000000003,81,64.0,-1,-1,1,0,0,0
1778192939.700459,4.879974842071533,wait_slave,2,0.12737108654703064,1.431153903193704,4.003253222089223,0.14747144353125496,1.5539468705693618,4.053823440876703,2,-2.0100356984224326,-12.279296737565781,-5.057021878747925,13.431114702818281,30,-3,-1,245,140,252156.0,81,64.0,-1,0,1,0,0,0
1778192939.769517,4.949032783508301,wait_slave,2,0.12737108654703064,1.431153903193704,4.003253222089223,0.15343789312000722,1.4667604857344463,4.0818221618664285,2,-2.606680657297658,-3.5606582540742338,-7.856893977720514,9.011318118265363,-2,18,28,248,140,252156.0,81,64.0,-1,0,1,0,0,0
1778192939.840514,5.020029783248901,wait_slave,2,0.12737108654703064,1.431153903193704,4.003253222089223,0.15343789312000722,1.4667604857344463,4.0818221618664285,2,-2.606680657297658,-3.5606582540742338,-7.856893977720514,9.011318118265363,0,8,-3,252,140,252164.0,81,64.0,-1,0,1,0,0,0
1778192939.912392,5.091907739639282,wait_slave,2,0.12737108654703064,1.431153903193704,4.003253222089223,0.15147792168490515,1.4677210772061007,4.081082787562526,2,-2.410683513787451,-3.656717401239673,-7.782956547330233,8.930699288062844,0,8,-3,255,140,252166.0,81,64.0,-1,0,1,0,0,0
1778192939.9839292,5.163444995880127,wait_slave,2,0.12737108654703064,1.431153903193704,4.003253222089223,0.15273989202110816,1.3773725674805204,4.105140902663461,2,-2.536880547407752,5.378133571318355,-10.188768057423747,11.797079221177412,-1,18,30,259,140,252152.0,81,64.0,-1,0,1,0,0,0
1778192940.0545301,5.23404598236084,wait_slave,2,0.12737108654703064,1.431153903193704,4.003253222089223,0.14905862987873764,1.467506472220768,4.080092620431831,2,-2.1687543331706998,-3.6352569027064074,-7.683939834260745,8.772771482425625,0,0,-30,262,140,252158.0,81,64.0,-1,1,1,0,0,0
1778192940.126354,5.305869817733765,wait_slave,2,0.12737108654703064,1.431153903193704,4.003253222089223,0.14414592336992127,1.5442525469936492,4.033953828052287,2,-1.677483682289063,-11.309864379994528,-3.070060596306323,11.838591802372774,1,-10,-30,266,140,252158.0,81,64.0,-1,1,1,0,0,0
1778192940.196814,5.3763298988342285,wait_slave,2,0.12737108654703064,1.431153903193704,4.003253222089223,0.14414592336992127,1.5442525469936492,4.033953828052287,2,-1.677483682289063,-11.309864379994528,-3.070060596306323,11.838591802372774,0,5,-8,269,140,252154.0,81,64.0,-1,0,1,0,0,0
1778192940.266876,5.446391820907593,wait_slave,2,0.12737108654703064,1.431153903193704,4.003253222089223,0.2331836352707245,1.5568890559593092,4.044295915544087,2,-10.581254872369387,-12.57351527656052,-4.104269345486333,16.938160110951852,-30,9,-14,273,140,252162.0,81,64.0,-1,0,1,0,0,0
1778192940.3368719,5.516387701034546,wait_slave,2,0.12737108654703064,1.431153903193704,4.003253222089223,0.15370202432687474,1.5382004341046258,4.014986303319699,2,-2.6330937779844104,-10.704653091092187,-1.1733081230475229,11.086001650545567,27,-5,-1,276,140,252154.0,81,64.0,-1,0,1,0,0,0
1778192940.408399,5.587914943695068,wait_slave,2,0.12737108654703064,1.431153903193704,4.003253222089223,0.07017810502339616,1.445705195376557,4.026185434370986,2,5.719298152363447,-1.4551292182853004,-2.2932212281762787,6.331400792786211,30,9,30,280,140,252154.0,81,64.0,-1,0,1,0,0,0
1778192940.479882,5.659397840499878,wait_slave,2,0.12737108654703064,1.431153903193704,4.003253222089223,0.06642351568015659,1.3649585009197374,4.06722095768006,2,6.094757086687405,6.619540227396659,-6.396773559083702,11.040067424343084,5,22,30,284,140,252154.0,81,64.0,-1,0,1,0,0,0
1778192940.551477,5.730992794036865,wait_slave,2,0.12737108654703064,1.431153903193704,4.003253222089223,0.0697622514724272,1.4446476740204464,4.025865922232658,2,5.760883507460343,-1.3493770826742413,-2.2612700143434417,6.334188138628645,3,-9,-29,287,140,252152.0,81,64.0,-1,0,1,0,0,0
1778192940.623439,5.802954912185669,wait_slave,2,0.12737108654703064,1.431153903193704,4.003253222089223,0.06935420543931281,1.4436033046991947,4.025551943773605,2,5.801688110771782,-1.2449401505490787,-2.229872168438174,6.338910852874884,4,5,-1,291,140,252152.0,81,64.0,-1,0,1,0,0,0
1778192940.6958709,5.875386714935303,wait_slave,2,0.12737108654703064,1.431153903193704,4.003253222089223,0.15745800209192085,1.452300117769643,4.039953662791203,2,-3.0086915544890207,-2.1146214575939126,-3.670044070197953,5.195485757478825,-30,11,-5,294,140,252152.0,81,64.0,-1,0,1,0,0,0
1778192940.768613,5.948128938674927,wait_slave,2,0.12737108654703064,1.431153903193704,4.003253222089223,0.07316073348999141,1.5147372473458258,3.9845731103901443,2,5.4210353057039224,-8.358334415212187,1.8680111699079127,10.136017152368558,30,-16,-28,298,140,252160.0,81,64.0,0,0,1,0,0,0
1778192940.8393102,6.018826007843018,wait_slave,2,0.12737108654703064,1.431153903193704,4.003253222089223,0.16001097051243673,1.4483294797796993,4.042172268781556,2,-3.2639883965406096,-1.7175576585995334,-3.8919046692332593,5.361953610184006,-30,26,20,302,140,252160.0,81,64.0,0,0,1,0,0,0
1778192940.9115021,6.091017961502075,wait_slave,2,0.12737108654703064,1.431153903193704,4.003253222089223,0.16001097051243673,1.4483294797796993,4.042172268781556,2,-3.2639883965406096,-1.7175576585995334,-3.8919046692332593,5.361953610184006,-1,6,-2,305,140,252160.0,81,64.0,0,0,1,0,0,0
1778192940.9845939,6.164109706878662,wait_slave,2,0.12737108654703064,1.431153903193704,4.003253222089223,0.1613647116361856,1.448980182638604,4.04276530177431,2,-3.399362508915496,-1.7826279444900006,-3.95120796850863,5.508672459486315,-1,6,-2,309,140,252150.0,81,63.5,-1,0,1,0,0,0
1778192941.055666,6.23518180847168,wait_slave,2,0.12737108654703064,1.431153903193704,4.003253222089223,0.08215405179972723,1.4382119688056458,4.008038221849194,2,4.52170347473034,-0.7058065611941888,-0.47849997599707095,4.601404942215193,30,-8,2,312,140,252155.00000000003,81,63.5,-1,-2,1,0,0,0
1778192941.1265972,6.306113004684448,wait_slave,2,0.12737108654703064,1.431153903193704,4.003253222089223,0.2526308144132956,1.460340843125301,4.053933036162031,2,-12.525972786626497,-2.9186939931597156,-5.067981407280797,13.824008261772633,-30,23,-11,316,140,252155.00000000003,81,63.5,-1,-2,1,0,0,0
1778192941.196671,6.376186847686768,wait_slave,2,0.12737108654703064,1.431153903193704,4.003253222089223,0.16444442614067734,1.3587686418075657,4.066959040528887,2,-3.7073339593646697,7.238526138613821,-6.3705818439663275,10.330774355116244,30,12,30,319,140,252155.00000000003,81,63.5,-1,-2,1,0,0,0
1778192941.264541,6.444056749343872,wait_slave,2,0.12737108654703064,1.431153903193704,4.003253222089223,0.16444442614067734,1.3587686418075657,4.066959040528887,2,-3.7073339593646697,7.238526138613821,-6.3705818439663275,10.330774355116244,-1,7,3,323,140,252155.00000000003,81,63.5,-1,-2,1,0,0,0
1778192941.336544,6.516059875488281,wait_slave,2,0.12737108654703064,1.431153903193704,4.003253222089223,0.16444442614067734,1.3587686418075657,4.066959040528887,2,-3.7073339593646697,7.238526138613821,-6.3705818439663275,10.330774355116244,-1,7,3,327,140,252155.00000000003,81,63.5,-1,-2,1,0,0,0
1778192941.412181,6.591696739196777,wait_slave,2,0.12737108654703064,1.431153903193704,4.003253222089223,0.07914275293781736,1.3469189656338085,4.0295936113840005,2,4.822833360921328,8.423493755989542,-2.634038929477711,10.057491226265853,30,-7,8,330,140,252151.00000000003,81,63.5,0,0,1,0,0,0
1778192941.479854,6.659369945526123,wait_slave,2,0.12737108654703064,1.431153903193704,4.003253222089223,0.16490416835445287,1.516029811990153,3.9782420259844837,2,-3.7533081807422235,-8.487590879644902,2.5011196104739675,9.611561816154296,-30,-16,-30,334,140,252151.00000000003,81,63.5,0,0,1,0,0,0
1778192941.54598,6.7254958152771,wait_slave,2,0.12737108654703064,1.431153903193704,4.003253222089223,0.15892293767032684,1.4381256571142127,4.021222214297956,2,-3.1551851123296197,-0.697175392050875,-1.7968992208732715,3.697308944397633,0,20,26,337,140,252144.99999999997,80,63.5,0,2,1,0,0,0
1778192941.614508,6.794023752212524,wait_slave,2,0.12737108654703064,1.431153903193704,4.003253222089223,0.0795488366862751,1.345405252211583,4.029587916142844,2,4.782224986075553,8.574865098212104,-2.633469405362021,10.165291357307925,30,8,30,341,140,252156.0,80,63.5,-1,2,1,0,0,0
1778192941.6883368,6.867852687835693,wait_slave,2,0.12737108654703064,1.431153903193704,4.003253222089223,0.1672572952621234,1.4424467117981687,4.0215128102618065,2,-3.988620871509277,-1.12928086044648,-1.8259588172583108,4.529734795849922,-30,2,-30,344,140,252148.99999999997,80,63.5,-1,1,1,0,1,0
1778192941.759857,6.939372777938843,wait_slave,2,0.12737108654703064,1.431153903193704,4.003253222089223,0.24813648304580838,1.5324663781705299,4.008595738542808,2,-12.076539649877773,-10.131247497682594,-0.5342516453584523,15.772457341674379,-30,0,-30,348,140,252148.99999999997,80,63.5,-1,1,1,0,1,0
1778192941.830011,7.00952672958374,wait_slave,2,0.12737108654703064,1.431153903193704,4.003253222089223,0.17036813393967687,1.5147583014070038,3.980346059890373,2,-4.299704739264623,-8.36043982132999,2.290716219885036,9.676352393902327,25,-7,0,351,140,252163.0,80,64.0,0,0,1,0,1,0
1778192941.900138,7.079653739929199,wait_slave,2,0.12737108654703064,1.431153903193704,4.003253222089223,0.17650486240299146,1.3472687555969838,4.049520743540703,2,-4.913377585596082,8.388514759672017,-4.626752145147961,10.766396545943516,-4,30,30,355,140,252162.0,80,64.0,-1,0,1,0,1,0
1778192941.970294,7.149809837341309,wait_slave,2,0.12737108654703064,1.431153903193704,4.003253222089223,0.17650486240299146,1.3472687555969838,4.049520743540703,2,-4.913377585596082,8.388514759672017,-4.626752145147961,10.766396545943516,-2,6,4,358,140,252162.0,80,64.0,-1,0,1,0,1,0
1778192942.043162,7.222677946090698,wait_slave,2,0.12737108654703064,1.431153903193704,4.003253222089223,0.17650486240299146,1.3472687555969838,4.049520743540703,2,-4.913377585596082,8.388514759672017,-4.626752145147961,10.766396545943516,-2,6,4,362,140,252162.0,80,64.0,-1,0,1,0,1,0
1778192942.118757,7.2982728481292725,wait_slave,2,0.12737108654703064,1.431153903193704,4.003253222089223,0.17650486240299146,1.3472687555969838,4.049520743540703,2,-4.913377585596082,8.388514759672017,-4.626752145147961,10.766396545943516,-2,7,4,366,140,252162.0,80,64.0,-1,0,1,0,1,0
1778192942.1948428,7.374358654022217,wait_slave,2,0.12737108654703064,1.431153903193704,4.003253222089223,0.17650486240299146,1.3472687555969838,4.049520743540703,2,-4.913377585596082,8.388514759672017,-4.626752145147961,10.766396545943516,-2,7,4,369,140,252162.0,80,64.0,-1,0,1,0,1,0
1778192942.271001,7.450516939163208,wait_slave,2,0.12737108654703064,1.431153903193704,4.003253222089223,0.1808945579325253,1.4243202919949138,4.00908293548881,2,-5.352347138549465,0.6833611198790113,-0.5829713399586822,5.427196135659202,-4,-9,-26,373,140,252159.0,80,64.0,-2,0,1,0,0,0
1778192942.342746,7.52226185798645,wait_slave,2,0.12737108654703064,1.431153903193704,4.003253222089223,0.1829530985868626,1.424197505450775,4.010226053015323,2,-5.558201203983196,0.6956397742928999,-0.6972830926099682,5.644795747480882,-3,5,0,377,140,252159.0,80,64.0,-2,0,1,0,0,0
1778192942.4133382,7.592854022979736,wait_slave,2,0.12737108654703064,1.431153903193704,4.003253222089223,0.1871226177851728,1.4304719077541876,4.007497831334886,2,-5.975153123814217,0.0681995439516303,-0.42446092456627227,5.990598726947555,-4,3,-3,380,140,252160.0,80,64.0,-2,0,1,0,0,0
1778192942.484739,7.664254903793335,wait_slave,2,0.12737108654703064,1.431153903193704,4.003253222089223,0.18498613140555242,1.5034799864663642,3.965570168536443,2,-5.7615044858521784,-7.232608327266021,3.7683053552780343,9.985273276518258,-2,-12,-30,384,140,252155.00000000003,80,64.0,-1,0,1,0,0,0
1778192942.556175,7.7356908321380615,wait_slave,2,0.12737108654703064,1.431153903193704,4.003253222089223,0.188878030035447,1.4945276678187907,3.9484555590119492,2,-6.150694348841637,-6.33737646250867,5.479766307727418,10.393325752026438,-4,-5,-2,387,140,252155.00000000003,80,64.0,-1,0,1,0,0,0
1778192942.626613,7.806128740310669,wait_slave,2,0.12737108654703064,1.431153903193704,4.003253222089223,0.2634432077924562,1.5124808805475713,3.974818187326633,2,-13.607212124542558,-8.13269773538674,2.843503476259057,16.10535644675274,-30,11,-13,391,140,252152.0,80,64.0,-1,0,1,0,0,0
1778192942.6982882,7.8778040409088135,wait_slave,2,0.12737108654703064,1.431153903193704,4.003253222089223,0.18911107919838932,1.4931726770623133,3.9485474957632936,2,-6.173999265135868,-6.201877386860932,5.470572632592985,10.320305953605763,22,-8,1,395,140,252151.00000000003,80,64.0,0,0,1,0,0,0
1778192942.769701,7.949216842651367,wait_slave,2,0.12737108654703064,1.431153903193704,4.003253222089223,0.18863234530967343,1.492318388743477,3.9482263804780673,2,-6.12612587626428,-6.116448554977305,5.502684161115612,10.25767489027174,-3,0,-5,398,140,252151.00000000003,80,64.0,0,0,1,0,0,0
1778192942.841805,8.021320819854736,formation,3,0.12737108654703064,1.431153903193704,4.003253222089223,0.2713154257535242,1.5056895578949305,3.9560329887270327,2,-14.394433920649355,-7.453565470122658,4.722023336219072,16.88350883261957,-30,3,-11,402,140,252156.0,80,64.0,0,-1,1,0,0,0
1778192942.912929,8.092444896697998,formation,3,0.12737108654703064,1.431153903193704,4.003253222089223,0.2713154257535242,1.5056895578949305,3.9560329887270327,2,-14.394433920649355,-7.453565470122658,4.722023336219072,16.88350883261957,-8,1,-6,405,140,252155.00000000003,80,64.0,0,-1,1,0,0,0
1778192942.985748,8.165263891220093,formation,3,0.12737108654703064,1.431153903193704,4.003253222089223,0.1896019361385327,1.3309601517250558,4.012284762424415,2,-6.223084959150207,10.019375146864817,-0.9031540335191934,11.829216032800986,24,23,30,409,140,252163.0,80,64.0,0,-1,1,0,0,0
1778192943.058793,8.238308906555176,formation,3,0.12737108654703064,1.431153903193704,4.003253222089223,0.19279115142183556,1.325583090078854,4.015108861155367,2,-6.542006487480492,10.557081311484984,-1.185563906614373,12.4761923869508,-5,5,8,413,140,252163.0,80,64.0,0,-1,1,0,0,0
1778192943.1299882,8.30950403213501,formation,3,0.12737108654703064,1.431153903193704,4.003253222089223,0.18827651579564253,1.3306737997998983,4.0114819615806665,2,-6.0905429248611895,10.048010339380564,-0.8228739491443093,11.778554513863565,-2,3,4,416,140,252156.0,80,64.0,0,-1,1,0,0,0
1778192943.198068,8.377583742141724,formation,3,0.12737108654703064,1.431153903193704,4.003253222089223,0.27274877110477,1.5015957670111808,3.957500859638062,2,-14.53776845577394,-7.044186381747686,4.575236245116132,16.789879694420677,-30,-18,-30,419,140,252164.0,80,64.0,-1,0,1,0,0,0
1778192943.265964,8.44547986984253,formation,3,0.12737108654703064,1.431153903193704,4.003253222089223,0.2590766653833243,1.5826036846829048,3.9275566703219846,2,-13.170557883629366,-15.144978148920085,7.569655176723877,21.450725805711123,-3,-11,-30,423,140,252164.0,80,64.0,-1,0,1,0,0,0
1778192943.335168,8.514683723449707,formation,3,0.12737108654703064,1.431153903193704,4.003253222089223,0.35999923590012717,1.5191926628020656,3.961925239774769,2,-23.262814935309652,-8.80387596083616,4.132798231445456,25.214020144952954,-30,14,15,426,140,252162.0,80,64.0,-1,0,1,0,0,0
1778192943.403712,8.58322787284851,formation,3,0.12737108654703064,1.431153903193704,4.003253222089223,0.19471062083218593,1.3307822910419858,4.012328802556056,2,-6.733953428515529,10.03716121517182,-0.9075580466832989,12.120824874770904,30,22,30,430,140,252162.0,80,64.0,-1,0,1,0,0,0
1778192943.476555,8.656070947647095,formation,3,0.12737108654703064,1.431153903193704,4.003253222089223,0.19471062083218593,1.3307822910419858,4.012328802556056,2,-6.733953428515529,10.03716121517182,-0.9075580466832989,12.120824874770904,-4,4,5,434,140,252162.0,80,64.0,-1,0,1,0,0,0
1778192943.551399,8.730914831161499,formation,3,0.12737108654703064,1.431153903193704,4.003253222089223,0.09674879811739101,1.2378124065876837,4.012509542963259,2,3.062228842963963,19.33414966060203,-0.9256320874035495,19.59702485956654,30,4,30,437,140,252156.0,79,64.0,0,-1,1,0,0,0
1778192943.619837,8.799352884292603,formation,3,0.12737108654703064,1.431153903193704,4.003253222089223,0.2775349497293015,1.4202019936538322,3.9821968659803746,2,-15.016386318227084,1.0951909539871796,2.1056356108848817,15.202795881342334,-30,-8,-30,441,140,252156.0,79,64.0,0,-1,1,0,0,0
1778192943.691829,8.871344804763794,formation,3,0.12737108654703064,1.431153903193704,4.003253222089223,0.2775349497293015,1.4202019936538322,3.9821968659803746,2,-15.016386318227084,1.0951909539871796,2.1056356108848817,15.202795881342334,-9,2,0,444,140,252156.0,79,64.0,0,-1,1,0,0,0
1778192943.766516,8.94603180885315,formation,3,0.12737108654703064,1.431153903193704,4.003253222089223,0.2775349497293015,1.4202019936538322,3.9821968659803746,2,-15.016386318227084,1.0951909539871796,2.1056356108848817,15.202795881342334,-9,2,0,448,140,252156.0,79,64.0,0,-1,1,0,0,0
1778192943.842276,9.021791934967041,formation,3,0.12737108654703064,1.431153903193704,4.003253222089223,0.2775349497293015,1.4202019936538322,3.9821968659803746,2,-15.016386318227084,1.0951909539871796,2.1056356108848817,15.202795881342334,-9,2,0,452,140,252158.0,79,64.0,-1,0,1,0,-1,0
1778192943.918099,9.097614765167236,formation,3,0.12737108654703064,1.431153903193704,4.003253222089223,0.15923615705611682,1.3461929127481396,3.925829234585473,3,-3.1865070509086184,8.496099044556438,7.742398750375035,11.928212966333728,30,-19,30,456,140,252158.0,79,64.0,-1,0,1,0,-1,0
1778192943.990263,9.169778823852539,formation,3,0.12737108654703064,1.431153903193704,4.003253222089223,0.15923615705611682,1.3461929127481396,3.925829234585473,3,-3.1865070509086184,8.496099044556438,7.742398750375035,11.928212966333728,-2,0,5,459,140,252158.0,79,64.0,-1,0,1,0,-1,0
1778192944.062148,9.241663932800293,formation,3,0.12737108654703064,1.431153903193704,4.003253222089223,0.15923615705611682,1.3461929127481396,3.925829234585473,3,-3.1865070509086184,8.496099044556438,7.742398750375035,11.928212966333728,-2,0,5,463,140,252158.0,79,64.0,-1,0,1,0,-1,0
1778192944.132941,9.312456846237183,formation,3,0.12737108654703064,1.431153903193704,4.003253222089223,0.010669688643790476,1.3454382376595557,3.873160335828159,3,11.670139790324017,8.571566553414822,13.009288626106441,19.465495279151412,30,-22,5,466,140,252163.0,79,64.0,0,0,1,0,0,0
1778192944.205677,9.38519287109375,formation,3,0.12737108654703064,1.431153903193704,4.003253222089223,0.09655237348037382,1.3307888234857632,3.973268614550096,2,3.0818713066656818,10.036507970794073,2.998460753912724,10.918799837501238,-29,30,11,470,140,252164.0,79,64.0,0,1,1,0,0,0
1778192944.275413,9.454928874969482,formation,3,0.12737108654703064,1.431153903193704,4.003253222089223,0.17318619597125218,1.50064799394561,3.9433953780058038,2,-4.581510942422154,-6.949409075190616,5.985784408341965,10.252518909664365,-30,-10,-30,473,140,252164.0,79,64.0,0,1,1,0,0,0
1778192944.3463821,9.525897979736328,formation,3,0.12737108654703064,1.431153903193704,4.003253222089223,0.008700534967493345,1.3343918084048685,3.951376480944993,2,11.867055157953729,9.676209478883546,5.1876741144230465,16.16687943663238,30,3,30,477,140,252164.0,79,64.0,0,1,1,0,0,0
1778192944.418473,9.597988843917847,formation,3,0.12737108654703064,1.431153903193704,4.003253222089223,0.008700534967493345,1.3343918084048685,3.951376480944993,2,11.867055157953729,9.676209478883546,5.1876741144230465,16.16687943663238,6,0,6,481,140,252164.0,79,64.0,0,1,1,0,0,0
1778192944.491851,9.671366930007935,formation,3,0.12737108654703064,1.431153903193704,4.003253222089223,0.0977137439703234,1.4916871272414198,3.90997818199277,2,2.965734257670724,-6.053322404771588,9.327504009645349,11.508284966630843,-29,-16,-30,484,140,252153.00000000003,79,64.0,0,0,1,0,0,0
1778192944.5645802,9.744096040725708,formation,3,0.12737108654703064,1.431153903193704,4.003253222089223,0.0977137439703234,1.4916871272414198,3.90997818199277,2,2.965734257670724,-6.053322404771588,9.327504009645349,11.508284966630843,1,-2,-4,488,140,252155.00000000003,79,64.0,-1,0,1,0,0,0
1778192944.63995,9.81946587562561,formation,3,0.12737108654703064,1.431153903193704,4.003253222089223,0.0977137439703234,1.4916871272414198,3.90997818199277,2,2.965734257670724,-6.053322404771588,9.327504009645349,11.508284966630843,1,-2,-4,492,140,252159.0,79,64.0,-1,0,1,0,0,0
1778192944.7140522,9.89356803894043,formation,3,0.12737108654703064,1.431153903193704,4.003253222089223,0.08734008432220008,1.4316185715415748,3.9701570046702734,2,4.003100222483055,-0.046466834787084466,3.309621741894997,5.194282109435633,5,22,20,495,140,252160.0,79,64.0,0,0,1,0,0,0
1778192944.784584,9.964099884033203,formation,3,0.12737108654703064,1.431153903193704,4.003253222089223,0.09151410225716772,1.5027458203965884,3.9308831980993393,2,3.585698428986292,-7.159191720288449,7.2370023989884125,10.792843139527484,0,-14,-30,499,140,252160.0,79,64.0,0,0,1,0,0,0
1778192944.854178,10.033693790435791,formation,3,0.12737108654703064,1.431153903193704,4.003253222089223,0.09187502640044165,1.5100139535667436,3.927063088120436,2,3.549606014658899,-7.886005037303967,7.61901339687876,11.525543086965758,1,-2,-8,502,140,252159.0,79,64.5,0,0,1,0,0,0
1778192944.92343,10.102945804595947,formation,3,0.12737108654703064,1.431153903193704,4.003253222089223,0.08804956429714617,1.4238852147504457,3.952555269546826,2,3.9321522249884473,0.7268688443258231,5.0697952542397395,6.457010403990761,3,9,30,506,140,252153.00000000003,79,64.5,0,0,1,0,0,0
1778192944.993231,10.172746896743774,formation,3,0.12737108654703064,1.431153903193704,4.003253222089223,0.09087866914743248,1.5103785997486887,3.9267799973710167,2,3.649241739959816,-7.922469655498476,7.647322471820672,11.600173779171264,0,-10,-30,509,140,252156.0,79,64.5,0,0,1,0,0,0
1778192945.0645728,10.244088649749756,formation,3,0.12737108654703064,1.431153903193704,4.003253222089223,0.08426072924638028,1.5058584477592132,3.927522046730508,2,4.3110357300650355,-7.470454456550923,7.573117535871532,11.478014988029237,4,-1,-4,513,140,252156.0,79,64.5,0,0,1,0,0,0
1778192945.13664,10.316155910491943,formation,3,0.12737108654703064,1.431153903193704,4.003253222089223,0.08324866582015533,1.5061934237719758,3.9272566483095463,2,4.412242072687531,-7.50395205782719,7.599657377967706,11.555603353207562,2,-1,-6,516,140,252167.0,79,64.5,0,0,1,0,0,0
1778192945.2069561,10.38647198677063,formation,3,0.12737108654703064,1.431153903193704,4.003253222089223,0.08252885741082483,1.4347719703707096,3.9689624909818115,2,4.484222913620581,-0.3618067177005635,3.4290731107411876,5.656651097497648,2,15,24,520,140,252162.0,79,64.5,0,0,1,0,0,0
1778192945.279069,10.458584785461426,formation,3,0.12737108654703064,1.431153903193704,4.003253222089223,0.0046922635652384415,1.4211555994269522,3.934474312346737,2,12.26788229817922,0.9998303766751704,6.877890974248624,14.099857485724886,30,-12,4,524,140,252162.0,79,64.5,0,0,1,0,0,0
1778192945.3606741,10.540189981460571,formation,3,0.12737108654703064,1.431153903193704,4.003253222089223,-0.0035152626972820844,1.4337706278858233,3.9487806090421653,2,13.088634924431272,-0.26167246921193765,5.447261304705808,14.179333284323729,10,4,-4,528,140,252171.99999999997,79,64.5,0,0,1,0,0,0
1778192945.432033,10.611548900604248,formation,3,0.12737108654703064,1.431153903193704,4.003253222089223,0.07661399861060814,1.5172492906203483,3.9440102697825066,2,5.07570879364225,-8.609538742664435,5.924295230671683,11.61827229408299,-25,-2,-30,531,140,252165.0,79,64.5,-1,0,1,0,0,0
1778192945.5029938,10.682509660720825,formation,3,0.12737108654703064,1.431153903193704,4.003253222089223,0.07935429531902383,1.5086206672536333,3.9264701023258746,2,4.801679122800681,-7.746676405992936,7.678311976334884,11.917365167831154,1,-7,-3,535,140,252164.0,78,64.5,0,0,1,0,0,0
1778192945.574186,10.75370192527771,formation,3,0.12737108654703064,1.431153903193704,4.003253222089223,0.07000923042935459,1.522283979278213,3.939403383888389,2,5.736185611767605,-9.113007608450907,6.384983820083434,12.518736015551294,6,3,-12,538,140,252164.0,78,64.5,0,0,1,0,0,0
1778192945.646198,10.825713872909546,formation,3,0.12737108654703064,1.431153903193704,4.003253222089223,-0.00629639910954638,1.4360783139427173,3.948220189709645,2,13.366748565657701,-0.4924410749013397,5.503303237957846,14.463706715730915,30,2,28,542,140,252159.0,78,64.5,0,1,1,0,0,0
1778192945.718781,10.89829683303833,formation,3,0.12737108654703064,1.431153903193704,4.003253222089223,-0.00629639910954638,1.4360783139427173,3.948220189709645,2,13.366748565657701,-0.4924410749013397,5.503303237957846,14.463706715730915,7,0,-1,546,140,252159.0,78,64.5,0,1,1,0,0,0
1778192945.791334,10.970849752426147,formation,3,0.12737108654703064,1.431153903193704,4.003253222089223,0.07737224656436281,1.4378108743420013,3.9678887350985126,2,4.999883998266783,-0.665697114829733,3.536448699071082,6.1602323045465095,-25,7,-2,549,140,252160.0,78,64.5,0,0,1,0,0,0
1778192945.8628721,11.042387962341309,formation,3,0.12737108654703064,1.431153903193704,4.003253222089223,-0.00037574411620378,1.5098673623193641,3.9298333015796985,2,12.774683066323442,-7.871345912566019,7.341992050952495,16.704953193485167,30,-14,-30,553,140,252156.0,78,64.0,0,0,1,0,0,0
1778192945.932267,11.111782789230347,formation,3,0.12737108654703064,1.431153903193704,4.003253222089223,0.07713218833627455,1.5156660595976352,3.945194818062943,2,5.023889821075608,-8.451215640393128,5.8058404026280375,11.41798132401348,-24,4,-9,556,140,252167.0,78,64.0,0,0,1,0,0,0
1778192946.0032582,11.182774066925049,formation,3,0.12737108654703064,1.431153903193704,4.003253222089223,0.07303926300223496,1.5857894723113022,3.8998700660615846,2,5.433182354479568,-15.463556911759824,10.338315602763881,19.378385700636013,4,-19,-30,560,140,252154.0,78,64.0,0,0,1,0,0,0
1778192946.0756621,11.255177974700928,formation,3,0.12737108654703064,1.431153903193704,4.003253222089223,-0.011994643718162612,1.3582190506332399,3.9877020536981425,2,13.936573026519325,7.293485256046406,1.555116839108095,15.806371604101615,30,30,30,563,140,252154.0,78,64.0,0,0,1,0,0,0
1778192946.1469948,11.326510667800903,formation,3,0.12737108654703064,1.431153903193704,4.003253222089223,0.06802425313919502,1.5887010367702747,3.92044494635631,2,5.934683340783561,-15.75471335765708,8.280827573291338,18.761758036918994,-24,-25,-30,567,140,252165.0,78,64.0,0,0,1,0,0,0
1778192946.219379,11.398894786834717,formation,3,0.12737108654703064,1.431153903193704,4.003253222089223,0.0750900123461683,1.5934396016266135,3.9197043653454253,2,5.228107420086234,-16.228569843290952,8.354885674379808,18.98693500769648,0,-2,-14,571,140,252165.0,78,64.0,0,0,1,0,0,0
1778192946.29206,11.471575736999512,formation,3,0.12737108654703064,1.431153903193704,4.003253222089223,0.0750900123461683,1.5934396016266135,3.9197043653454253,2,5.228107420086234,-16.228569843290952,8.354885674379808,18.98693500769648,3,-2,-12,574,140,252165.0,78,64.0,0,0,1,0,0,0
1778192946.36494,11.544455766677856,formation,3,0.12737108654703064,1.431153903193704,4.003253222089223,-0.012318998127628822,1.3605562562917801,3.986158183246702,2,13.969008467465946,7.059764690192383,1.7095038842521504,15.744709542423946,30,24,30,578,140,252163.0,78,64.0,-1,0,1,0,0,0
1778192946.4364889,11.616004705429077,formation,3,0.12737108654703064,1.431153903193704,4.003253222089223,-0.000894685683811236,1.5101775937228226,3.9287784528276144,2,12.826577223084188,-7.902369052911862,7.447476926160901,16.80575593283028,4,-21,-30,581,140,252160.0,78,64.0,-1,0,1,0,0,0
1778192946.5068212,11.686336994171143,formation,3,0.12737108654703064,1.431153903193704,4.003253222089223,-0.000894685683811236,1.5101775937228226,3.9287784528276144,2,12.826577223084188,-7.902369052911862,7.447476926160901,16.80575593283028,8,-1,-7,585,140,252160.0,78,64.0,-1,0,1,0,0,0
1778192946.57905,11.758565902709961,formation,3,0.12737108654703064,1.431153903193704,4.003253222089223,0.06681826815303626,1.5222819478856215,3.961254248019203,2,6.055281839399437,-9.11280446919176,4.199897407002062,11.71958965483112,-19,11,-12,589,140,252169.0,78,64.0,-1,0,1,0,0,0
1778192946.6502998,11.82981562614441,formation,3,0.12737108654703064,1.431153903193704,4.003253222089223,-0.011644540195282493,1.3589425794879553,3.9861286883004206,2,13.901562674231313,7.221132370574868,1.7124533788802854,15.758511797558295,30,10,30,592,140,252166.0,78,64.0,-1,0,1,0,0,0
1778192946.7229161,11.902431964874268,formation,3,0.12737108654703064,1.431153903193704,4.003253222089223,-0.006731977893559504,1.503549037734126,3.929323691842455,2,13.410306444059014,-7.239513454042212,7.3929530246768405,16.93820027039199,6,-21,-30,596,140,252160.0,78,64.0,-1,0,1,0,0,0
1778192946.794361,11.973876953125,formation,3,0.12737108654703064,1.431153903193704,4.003253222089223,0.06735947365772865,1.5197032246646098,3.9610913462134154,2,6.001161288930199,-8.854932147090588,4.2161875875808,11.497825790948612,-21,11,-13,599,140,252160.0,78,64.0,-1,0,1,0,0,0
1778192946.865869,12.045384883880615,formation,3,0.12737108654703064,1.431153903193704,4.003253222089223,-0.0066843600343620135,1.4397524150500067,3.965641501101999,2,13.405544658139265,-0.8598511856302782,3.7611720987224206,13.949709215571627,30,1,25,603,140,252167.99999999997,78,65.0,-1,0,1,0,0,0
1778192946.9368901,12.116405963897705,formation,3,0.12737108654703064,1.431153903193704,4.003253222089223,0.07060852767251413,1.435530490287249,3.9861680667616226,2,5.67625588745165,-0.4376587093545048,1.7085155327600798,5.943942409830855,-23,8,0,606,140,252159.0,78,65.0,-1,0,1,0,0,0
1778192947.0081348,12.187650680541992,formation,3,0.12737108654703064,1.431153903193704,4.003253222089223,0.06812772796847089,1.51829165903928,3.9611247357567065,2,5.924335857855975,-8.713775584557615,4.212848633251687,11.347939632435533,5,-8,-30,610,140,252169.99999999997,78,65.0,0,0,1,0,0,0
1778192947.0800052,12.259521007537842,formation,3,0.12737108654703064,1.431153903193704,4.003253222089223,0.06817313764421962,1.4454796179743687,4.00373630345106,2,5.919794890281102,-1.43257147806648,-0.04830813618363905,6.090859238136223,4,17,22,614,140,252169.99999999997,78,65.0,0,0,1,0,0,0
1778192947.151484,12.330999851226807,formation,3,0.12737108654703064,1.431153903193704,4.003253222089223,0.07194671578492295,1.513463111748326,3.9640714560667387,2,5.542437076210768,-8.230920855462198,3.9181766022484688,10.66858822708261,2,-14,-30,617,140,252165.0,78,65.0,0,0,1,0,0,0
1778192947.2200089,12.399524688720703,formation,3,0.12737108654703064,1.431153903193704,4.003253222089223,0.14780565789182798,1.5928256700869925,3.930635903090065,2,-2.043457134479734,-16.167176689328855,7.261731899915835,17.840573683340168,-28,-14,-30,621,140,252163.0,78,65.0,0,0,1,0,0,0
1778192947.287646,12.467161893844604,formation,3,0.12737108654703064,1.431153903193704,4.003253222089223,0.1488467145798562,1.6012804310006117,3.9498985302089675,2,-2.147562803282557,-17.01265278069077,5.335469188025588,17.958552616699343,0,6,-17,624,140,252163.0,78,65.0,0,0,1,0,0,0
1778192947.355456,12.534971952438354,formation,3,0.12737108654703064,1.431153903193704,4.003253222089223,0.0698567291035519,1.516597624453857,3.9613927543224516,2,5.751435744347874,-8.54437212601531,4.186046776677177,11.117926774615812,30,4,23,627,140,252163.0,78,65.0,-1,0,1,0,0,0
1778192947.4236622,12.603178024291992,formation,3,0.12737108654703064,1.431153903193704,4.003253222089223,0.07624761477366793,1.5201576348505426,3.9603624049809434,2,5.112347177336271,-8.900373165683861,4.289081710828002,11.124250899373077,1,0,-9,631,140,252156.0,78,65.0,0,0,1,0,0,0
1778192947.491682,12.671197891235352,formation,3,0.12737108654703064,1.431153903193704,4.003253222089223,0.07056530713456444,1.5152208932566293,3.9614276584504378,2,5.68057794124662,-8.40669900629254,4.1825563638785646,10.974303242848665,6,0,-6,634,140,252156.0,78,65.0,0,0,1,0,0,0
1778192947.560879,12.740394830703735,formation,3,0.12737108654703064,1.431153903193704,4.003253222089223,0.07275946672346156,1.431114507769149,3.9862251840402987,2,5.4611619823569075,0.003939542455499989,1.702803804892472,5.7204760741997225,3,10,28,638,140,252161.0,77,65.0,0,0,1,0,0,0
1778192947.632125,12.811640739440918,formation,3,0.12737108654703064,1.431153903193704,4.003253222089223,0.07246152140382645,1.4300283320572915,3.985993365363645,2,5.490956514320419,0.11255711364124288,1.7259856725578615,5.756934869169887,4,1,-1,641,140,252161.0,77,65.0,0,0,1,0,0,0
1778192947.704224,12.883739948272705,formation,3,0.12737108654703064,1.431153903193704,4.003253222089223,0.08220127483748663,1.5047546676929002,3.945193456059763,2,4.516981170954401,-7.360076449919628,5.805976602946039,10.405921802578325,0,-15,-30,645,140,252161.0,77,65.0,0,0,1,0,0,0
1778192947.777557,12.957072734832764,formation,3,0.12737108654703064,1.431153903193704,4.003253222089223,0.0773581644643958,1.4340245769701316,3.984758454971311,2,5.001292208263483,-0.287067377642769,1.8494767117912314,5.34002767213821,5,14,21,649,140,252166.0,77,65.0,0,0,1,0,0,0
1778192947.849983,13.029498815536499,formation,3,0.12737108654703064,1.431153903193704,4.003253222089223,-0.010229732223613563,1.3495009897645711,3.9850677967475,2,13.76008187706442,8.165291342913283,1.8185425341723516,16.103382654795396,30,1,30,652,140,252160.0,77,64.5,-1,0,1,0,0,0
1778192947.922097,13.10161280632019,formation,3,0.12737108654703064,1.431153903193704,4.003253222089223,0.07599002686310474,1.5010935081045491,3.946063560468868,2,5.13810596839259,-6.993960491084517,5.718966162035555,10.3933724197582,-25,-14,-30,656,140,252161.0,77,64.5,0,0,1,0,0,0
1778192947.993372,13.172887802124023,formation,3,0.12737108654703064,1.431153903193704,4.003253222089223,-0.0028118708203923592,1.4250476899315974,3.9476801062650977,2,13.0182957367423,0.6106213262106586,5.557311582412572,14.16801306878713,30,0,24,659,140,252161.0,77,64.5,0,0,1,0,0,0
1778192948.065513,13.245028734207153,formation,3,0.12737108654703064,1.431153903193704,4.003253222089223,0.0009937081936940428,1.5014222487525108,3.928120994351125,2,12.63773783533366,-7.02683455588069,7.513222773809858,16.29531644121212,7,-9,-30,663,140,252159.0,77,64.5,0,0,1,0,0,0
1778192948.137862,13.317377805709839,formation,3,0.12737108654703064,1.431153903193704,4.003253222089223,0.07241297423727289,1.5110005806180524,3.963899922960469,2,5.495811230975775,-7.984667742434848,3.9353299128754404,10.461629011142161,-19,11,-11,667,140,252159.0,77,64.5,0,0,1,0,0,0
1778192948.2096078,13.389123678207397,formation,3,0.12737108654703064,1.431153903193704,4.003253222089223,-0.016778208534551364,1.4413557553264722,3.983306880483181,2,14.4149295081582,-1.0201852132768252,1.9946341606042584,14.587992871852116,30,7,21,670,140,252159.0,77,64.5,0,0,1,0,0,0
1778192948.28219,13.461705923080444,formation,3,0.12737108654703064,1.431153903193704,4.003253222089223,-0.007776843930624944,1.5089961188136858,3.94625165247564,2,13.514793047765558,-7.784221561998184,5.700156961358349,16.60528608107466,6,-14,-30,674,140,252161.0,77,64.5,0,0,1,0,0,0
1778192948.3549619,13.534477710723877,formation,3,0.12737108654703064,1.431153903193704,4.003253222089223,0.1488467145798562,1.6012804310006117,3.9498985302089675,2,-2.147562803282557,-17.01265278069077,5.335469188025588,17.958552616699343,-30,0,-30,677,140,252161.0,77,64.5,0,0,1,0,0,0
1778192948.4276092,13.607125043869019,formation,3,0.12737108654703064,1.431153903193704,4.003253222089223,0.1488467145798562,1.6012804310006117,3.9498985302089675,2,-2.147562803282557,-17.01265278069077,5.335469188025588,17.958552616699343,0,-1,-14,681,140,252161.0,77,64.5,0,0,1,0,0,0
1778192948.500588,13.680103778839111,formation,3,0.12737108654703064,1.431153903193704,4.003253222089223,0.07255459813628506,1.5917900195827817,3.9396504819088536,2,5.481648841074557,-16.063611638907773,6.360274018036982,18.125704910072425,30,-5,-10,685,140,252165.0,77,64.5,-1,0,1,0,0,0
1778192948.570422,13.749937772750854,formation,3,0.12737108654703064,1.431153903193704,4.003253222089223,0.0713777296440593,1.5184574937025097,3.962067944452965,2,5.599335690297133,-8.730359050880576,4.1185277636258455,11.159480286719655,5,7,17,688,140,252161.0,77,64.5,0,0,1,0,0,0
1778192948.642126,13.82164192199707,formation,3,0.12737108654703064,1.431153903193704,4.003253222089223,0.06972617908835421,1.527225606971892,3.9795729793026213,2,5.764490745867643,-9.607170377818797,2.368024278660208,11.451402325128432,5,6,-12,692,140,252162.0,77,64.5,0,0,1,0,0,0
1778192948.7141628,13.893678665161133,formation,3,0.12737108654703064,1.431153903193704,4.003253222089223,0.07337282855164928,1.5880395697487057,3.9409046959632077,2,5.399825799538135,-15.68856665550018,6.234852612601571,17.724633408629202,3,-15,-30,695,140,252164.0,77,64.5,0,0,1,0,0,0
1778192948.786793,13.966308832168579,formation,3,0.12737108654703064,1.431153903193704,4.003253222089223,0.14526700578958596,1.5386692216278988,4.012433263160794,2,-1.7895919242555318,-10.751531843419482,-0.9180041071570777,10.938044056236976,-24,27,6,699,140,252164.0,77,64.5,0,0,1,0,0,0
1778192948.856746,14.036261796951294,formation,3,0.12737108654703064,1.431153903193704,4.003253222089223,0.07256471659554842,1.5222452006074398,3.9816689818045106,2,5.480636995148222,-9.10912974137359,2.158424028471284,10.847691957483233,30,-10,-3,702,140,252165.0,77,64.5,-1,0,1,0,0,0
1778192948.927535,14.107050895690918,formation,3,0.12737108654703064,1.431153903193704,4.003253222089223,0.2363568049522049,1.539733000916697,4.0058318226811584,2,-10.898571840517427,-10.857909772299301,-0.2578600591935043,15.38634344464075,-30,10,-17,706,140,252160.0,77,64.5,0,0,1,0,0,0
1778192948.9975529,14.177068710327148,formation,3,0.12737108654703064,1.431153903193704,4.003253222089223,0.07353216160595133,1.441035054105312,4.004851222987264,2,5.383892494107931,-0.9881150911608128,-0.1598000898040297,5.476148819215274,30,1,30,710,140,252160.0,77,64.5,0,0,1,0,0,0
1778192949.069782,14.249297857284546,formation,3,0.12737108654703064,1.431153903193704,4.003253222089223,0.07441873622122508,1.5215608018216185,3.9822032909950114,2,5.295235032580556,-9.040689862791451,2.104993109421205,10.686654445436105,4,-7,-30,713,140,252163.0,77,64.5,-1,0,1,0,0,0
1778192949.1423519,14.32186770439148,formation,3,0.12737108654703064,1.431153903193704,4.003253222089223,0.0713216987651697,1.5225954764152991,3.9803333168027217,2,5.604938778186094,-9.144157322159518,2.2919905286501674,10.967414117422567,6,0,-10,717,140,252161.0,77,64.5,-1,0,1,0,0,0
1778192949.212236,14.391751766204834,formation,3,0.12737108654703064,1.431153903193704,4.003253222089223,0.07542889901390504,1.440243107721325,4.005434816735223,2,5.19421875331256,-0.9089204527620964,-0.21815946459993185,5.2776546304876435,3,10,24,720,140,252157.00000000003,77,64.5,-1,0,1,0,0,0
1778192949.2825081,14.462023973464966,formation,3,0.12737108654703064,1.431153903193704,4.003253222089223,0.07382400948933787,1.5234438059110795,3.980450127299943,2,5.354707705769276,-9.228990271737558,2.2803094789280554,10.910864648126678,5,-8,-30,724,140,252157.00000000003,77,64.5,-1,0,1,0,0,0
1778192949.3516312,14.531147003173828,formation,3,0.12737108654703064,1.431153903193704,4.003253222089223,-0.005905792496289086,1.4332723883225302,3.9888305997904956,2,13.327687904331972,-0.21184851288262863,1.4422622298727816,13.407172148048407,30,3,28,727,140,252159.0,77,64.5,0,0,1,0,0,0
1778192949.421112,14.600627899169922,formation,3,0.12737108654703064,1.431153903193704,4.003253222089223,-0.0033930625514619894,1.4250716074341514,3.9702099765787118,2,13.076414909849262,0.6082295759552547,3.304324551051163,13.50115294522191,8,-6,0,731,140,252167.0,76,64.5,0,0,1,0,0,0
1778192949.49063,14.670145750045776,formation,3,0.12737108654703064,1.431153903193704,4.003253222089223,0.002391474678595795,1.4290648129442372,3.969345400480207,2,12.497961186843485,0.20890902494667962,3.390782160901651,12.951450902166878,7,0,-4,734,140,252167.0,76,64.5,0,0,1,0,0,0
