timestamp,command_idx,sdk_cmd,t_send,t_since_send,base_x,base_y,base_z,pos_x,pos_y,pos_z,displacement_m,movement_detected,t_move,latency_ms,tello_height_cm,tello_battery,tello_pitch,tello_roll,tello_yaw,tello_vgx,tello_vgy,tello_vgz
1777596327.232471,1,right,1777596327.232224,0.00024700164794921875,0.9314040477570418,1.4300398331562958,2.9868892042032646,0.9761481408545005,1.4590710662117972,2.977321319270027,0.0541884746226775,False,,,140,90,0,0,0,0,0,0
1777596327.273241,1,right,1777596327.232224,0.04101705551147461,0.9314040477570418,1.4300398331562958,2.9868892042032646,0.9135297108138942,1.4626394672421328,2.9727740996020087,0.039767628060924536,False,,,140,90,0,0,0,0,0,0
1777596327.313466,1,right,1777596327.232224,0.08124208450317383,0.9314040477570418,1.4300398331562958,2.9868892042032646,0.9397951567118045,1.428330740573839,2.986187399544452,0.008592103160765628,False,,,140,90,0,0,0,0,0,0
1777596327.353513,1,right,1777596327.232224,0.12128901481628418,0.9314040477570418,1.4300398331562958,2.9868892042032646,0.8995757287443418,1.4035018150391787,3.0043319240659327,0.04496172564488769,False,,,140,90,0,0,0,0,0,0
1777596327.392419,1,right,1777596327.232224,0.16019511222839355,0.9314040477570418,1.4300398331562958,2.9868892042032646,0.9056117818635739,1.4025672405539447,3.0050101602088435,0.04181331571126865,False,,,140,90,0,0,0,0,0,0
1777596327.433525,1,right,1777596327.232224,0.20130109786987305,0.9314040477570418,1.4300398331562958,2.9868892042032646,0.9341782168988003,1.3652392143163743,3.018821772033727,0.0722945717513491,False,,,140,90,0,0,0,0,0,0
1777596327.473693,1,right,1777596327.232224,0.2414689064025879,0.9314040477570418,1.4300398331562958,2.9868892042032646,0.8852036470980646,1.4887794850193643,2.9495204332884435,0.0835538674253256,False,,,140,90,0,0,0,0,0,0
1777596327.514627,1,right,1777596327.232224,0.28240299224853516,0.9314040477570418,1.4300398331562958,2.9868892042032646,0.9403522886891579,1.4265316328077162,2.9867398324033387,0.009612533349725502,False,,,140,90,0,0,0,0,0,0
1777596327.555113,1,right,1777596327.232224,0.3228890895843506,0.9314040477570418,1.4300398331562958,2.9868892042032646,0.9347550834580194,1.3632858644522199,3.0193887451127597,0.07432053509859783,False,,,140,90,-1,1,0,0,0,0
1777596327.5958998,1,right,1777596327.232224,0.3636758327484131,0.9314040477570418,1.4300398331562958,2.9868892042032646,0.9426276786252491,1.4201432190723104,2.977761799916336,0.017527759959851057,False,,,140,90,-1,1,0,0,0,0
1777596327.636721,1,right,1777596327.232224,0.4044969081878662,0.9314040477570418,1.4300398331562958,2.9868892042032646,0.9412990196248839,1.4190780569898656,2.978389249850772,0.01703878601845695,False,,,140,90,0,2,0,0,0,0
1777596327.678793,1,right,1777596327.232224,0.44656896591186523,0.9314040477570418,1.4300398331562958,2.9868892042032646,0.9436984078456182,1.4180403763719567,2.979643447806773,0.018645086185483436,False,,,140,90,0,2,0,0,0,0
1777596327.719105,1,right,1777596327.232224,0.4868810176849365,0.9314040477570418,1.4300398331562958,2.9868892042032646,0.9425622123388511,1.4182100465134853,2.9801790398730885,0.017591895696232682,False,,,140,90,0,2,0,0,0,0
1777596327.758668,1,right,1777596327.232224,0.5264439582824707,0.9314040477570418,1.4300398331562958,2.9868892042032646,0.9486154889936763,1.4175206096408859,2.9809349340446443,0.022100180994570007,False,,,140,90,0,1,0,0,1,0
1777596327.7990952,1,right,1777596327.232224,0.566871166229248,0.9314040477570418,1.4300398331562958,2.9868892042032646,0.9499961135597024,1.411541149100334,2.971673051191781,0.030321568809704384,False,,,140,90,0,1,0,0,1,0
1777596327.838336,1,right,1777596327.232224,0.606112003326416,0.9314040477570418,1.4300398331562958,2.9868892042032646,0.9445158020966806,1.3485661444271262,3.004656277989924,0.084412966823476,False,,,140,90,0,1,0,0,1,0
1777596327.880415,1,right,1777596327.232224,0.648190975189209,0.9314040477570418,1.4300398331562958,2.9868892042032646,0.9602405188631701,1.4099112283401265,2.9747378898851924,0.037206951465508085,False,,,140,90,0,0,0,0,1,0
1777596327.921197,1,right,1777596327.232224,0.6889729499816895,0.9314040477570418,1.4300398331562958,2.9868892042032646,0.9912971603005682,1.374826285314369,2.988363576952764,0.08147327519161571,False,,,140,90,0,0,0,0,1,0
1777596327.961378,1,right,1777596327.232224,0.729154109954834,0.9314040477570418,1.4300398331562958,2.9868892042032646,0.9925983324203789,1.3742169800107256,2.9890545806760693,0.08285903851746296,False,,,140,90,0,0,0,0,1,0
1777596328.001665,1,right,1777596327.232224,0.7694411277770996,0.9314040477570418,1.4300398331562958,2.9868892042032646,0.9961083951832463,1.3070539574065718,3.0223838208623306,0.14342958558662702,True,,,140,90,0,0,0,0,1,0
1777596328.042321,1,right,1777596327.232224,0.8100969791412354,0.9314040477570418,1.4300398331562958,2.9868892042032646,1.0354937218161202,1.337236141178011,3.0028031304094864,0.1403582506937965,True,,,140,90,0,0,0,0,1,0
1777596328.082771,1,right,1777596327.232224,0.8505470752716064,0.9314040477570418,1.4300398331562958,2.9868892042032646,0.9714374576914534,1.400881637817526,2.97177981798611,0.051779994382479856,False,,,140,90,0,0,0,0,1,0
1777596328.122766,1,right,1777596327.232224,0.8905420303344727,0.9314040477570418,1.4300398331562958,2.9868892042032646,1.0101294167833301,1.4254727320000682,2.953080539070864,0.08579958029810698,False,,,140,90,0,0,0,0,1,0
1777596328.162893,1,right,1777596327.232224,0.9306690692901611,0.9314040477570418,1.4300398331562958,2.9868892042032646,1.0137193369187165,1.4254154152946068,2.953693306957511,0.08887721678968283,False,,,140,90,0,0,0,0,1,0
1777596328.2030451,1,right,1777596327.232224,0.9708211421966553,0.9314040477570418,1.4300398331562958,2.9868892042032646,0.9751118661679237,1.3950727991671947,2.965232960691816,0.060017162039376105,False,,,140,90,0,0,0,0,1,0
1777596328.242906,1,right,1777596327.232224,1.0106821060180664,0.9314040477570418,1.4300398331562958,2.9868892042032646,1.016872965121274,1.4200938083510914,2.946696753399422,0.09496995496713155,False,,,140,90,0,0,0,0,1,0
1777596328.2837079,1,right,1777596327.232224,1.0514838695526123,0.9314040477570418,1.4300398331562958,2.9868892042032646,1.049806618207655,1.3869981451603737,2.9592995221721776,0.12896877974698853,True,,,140,90,0,0,0,0,1,0
1777596328.3233202,1,right,1777596327.232224,1.0910961627960205,0.9314040477570418,1.4300398331562958,2.9868892042032646,1.0511531134319712,1.3863455317476183,2.9600706732639286,0.13026229042725693,True,,,140,90,0,0,0,0,1,0
1777596328.362358,1,right,1777596327.232224,1.130134105682373,0.9314040477570418,1.4300398331562958,2.9868892042032646,1.024515533993102,1.4124113432483276,2.941307265237687,0.10515809852495914,True,,,140,90,0,0,0,0,1,0
1777596328.402368,1,right,1777596327.232224,1.1701440811157227,0.9314040477570418,1.4300398331562958,2.9868892042032646,1.0887930138459756,1.4138080700801443,2.9398123210041476,0.16507873791269181,True,,,140,90,0,0,0,0,1,0
1777596328.44257,1,right,1777596327.232224,1.210345983505249,0.9314040477570418,1.4300398331562958,2.9868892042032646,1.0303469669501524,1.461464730890063,2.9040012433947506,0.13284441841125993,True,1777596328.2837079,1051.4838695526123,140,90,0,0,0,0,1,0
1777596328.483045,1,right,1777596327.232224,1.2508211135864258,0.9314040477570418,1.4300398331562958,2.9868892042032646,1.0315445131878407,1.4608357315330598,2.904854649455666,0.13306452700162344,True,,,140,90,0,0,0,0,0,0
1777596328.5229728,1,right,1777596327.232224,1.2907488346099854,0.9314040477570418,1.4300398331562958,2.9868892042032646,1.0288068501781606,1.4060343711016134,2.936882889327381,0.11209014075917807,True,,,140,90,0,0,0,0,0,0
1777596328.561175,1,right,1777596327.232224,1.328951120376587,0.9314040477570418,1.4300398331562958,2.9868892042032646,1.0353692508765804,1.4553930469285903,2.898303846094244,0.13892053332597754,True,,,140,90,0,0,0,0,0,0
1777596328.600651,1,right,1777596327.232224,1.368427038192749,0.9314040477570418,1.4300398331562958,2.9868892042032646,1.0381370051797132,1.3997450483177025,2.9294840207377106,0.12492018762922334,True,,,140,90,0,0,0,0,0,0
1777596328.640905,1,right,1777596327.232224,1.4086809158325195,0.9314040477570418,1.4300398331562958,2.9868892042032646,1.1021767953819914,1.401899586263427,2.927164119119923,0.18309093537032015,True,,,140,90,0,0,0,0,0,0
1777596328.6822028,1,right,1777596327.232224,1.4499788284301758,0.9314040477570418,1.4300398331562958,2.9868892042032646,1.0432141102869907,1.4486347495998455,2.8928388785253136,0.1472845027849921,True,,,140,90,0,0,0,0,0,0
1777596328.7226791,1,right,1777596327.232224,1.490455150604248,0.9314040477570418,1.4300398331562958,2.9868892042032646,1.1068413944802702,1.448128444405281,2.890792388088596,0.2008483471417666,True,,,140,90,0,0,0,0,0,0
1777596328.762663,1,right,1777596327.232224,1.5304388999938965,0.9314040477570418,1.4300398331562958,2.9868892042032646,1.0428923249280324,1.4428740946525132,2.8864099797370435,0.1506334251221892,True,,,140,90,0,0,0,0,0,0
1777596328.802963,1,right,1777596327.232224,1.5707390308380127,0.9314040477570418,1.4300398331562958,2.9868892042032646,1.0815846350646339,1.4127199668848252,2.8966081364312046,0.176081963215368,True,,,140,90,0,0,0,0,0,0
1777596338.8023171,2,left,1777596338.802058,0.00025916099548339844,0.8600451584217603,1.3433679333778739,2.86126319026263,0.8745572896523434,1.3940011917696609,2.8388768736757437,0.05723177420412059,False,,,140,87,0,0,0,0,0,0
1777596338.843018,2,left,1777596338.802058,0.040960073471069336,0.8600451584217603,1.3433679333778739,2.86126319026263,0.8718431825187992,1.395344520352769,2.8383236769914255,0.05802568599571165,False,,,140,87,0,0,0,0,0,0
1777596338.883142,2,left,1777596338.802058,0.08108401298522949,0.8600451584217603,1.3433679333778739,2.86126319026263,0.872863626017597,1.3981208273516614,2.8384687948012517,0.06067764806302279,False,,,140,87,0,0,0,0,0,0
1777596338.9222138,2,left,1777596338.802058,0.12015581130981445,0.8600451584217603,1.3433679333778739,2.86126319026263,0.872863626017597,1.3981208273516614,2.8384687948012517,0.06067764806302279,False,,,140,87,0,0,0,0,0,0
1777596338.961695,2,left,1777596338.802058,0.1596369743347168,0.8600451584217603,1.3433679333778739,2.86126319026263,0.8733748425957841,1.3995220296063255,2.838541109459075,0.062026252179675744,False,,,140,87,0,0,0,0,0,0
1777596339.000257,2,left,1777596338.802058,0.19819903373718262,0.8600451584217603,1.3433679333778739,2.86126319026263,0.8766012569598656,1.3995844568486753,2.839159520031426,0.06263365028190872,False,,,140,87,0,0,0,0,0,0
1777596339.040359,2,left,1777596338.802058,0.23830103874206543,0.8600451584217603,1.3433679333778739,2.86126319026263,0.8771123231443868,1.4010022920704994,2.8392294876507798,0.06401946160635026,False,,,140,87,0,-1,0,0,0,0
1777596339.08175,2,left,1777596338.802058,0.2796919345855713,0.8600451584217603,1.3433679333778739,2.86126319026263,0.8749065696949694,1.403779306848901,2.83875579822695,0.06615873552249321,False,,,140,87,0,-1,0,0,0,0
1777596339.122056,2,left,1777596338.802058,0.31999802589416504,0.8600451584217603,1.3433679333778739,2.86126319026263,0.8501428259381376,1.4313853179334677,2.8162939871601895,0.09933451263429069,False,,,140,87,0,-1,0,0,0,0
1777596339.162278,2,left,1777596338.802058,0.36021995544433594,0.8600451584217603,1.3433679333778739,2.86126319026263,0.8781555813872588,1.4011544070664064,2.8297359128480997,0.06827322449187151,False,,,140,87,-1,-4,0,0,0,0
1777596339.2023911,2,left,1777596338.802058,0.4003331661224365,0.8600451584217603,1.3433679333778739,2.86126319026263,0.8781638208257355,1.4077799674380862,2.8378655326487228,0.07088474053631585,False,,,140,87,-1,-4,0,0,0,0
1777596339.2420359,2,left,1777596338.802058,0.43997788429260254,0.8600451584217603,1.3433679333778739,2.86126319026263,0.8364601639179443,1.3853353615518704,2.842632864104736,0.051619822220094064,False,,,140,87,0,-4,0,0,0,0
1777596339.2817721,2,left,1777596338.802058,0.47971415519714355,0.8600451584217603,1.3433679333778739,2.86126319026263,0.8761578740697882,1.410062801778163,2.837083598104644,0.07274941754689608,False,,,140,87,0,-4,0,0,0,0
1777596339.3215082,2,left,1777596338.802058,0.5194501876831055,0.8600451584217603,1.3433679333778739,2.86126319026263,0.8643195013370002,1.4128732613250325,2.8362660446350767,0.07398728208228937,False,,,140,87,0,-4,0,0,0,0
1777596339.3616881,2,left,1777596338.802058,0.5596301555633545,0.8600451584217603,1.3433679333778739,2.86126319026263,0.8499910607028769,1.4390313044094212,2.813439282744777,0.10742295643081372,True,,,140,87,0,-2,0,0,-1,0
1777596339.400358,2,left,1777596338.802058,0.5982999801635742,0.8600451584217603,1.3433679333778739,2.86126319026263,0.8336550280252344,1.3898652787302521,2.839829214515131,0.05760084568396858,False,,,140,87,0,-2,0,0,-1,0
1777596339.4393861,2,left,1777596338.802058,0.6373281478881836,0.8600451584217603,1.3433679333778739,2.86126319026263,0.8420055616925616,1.4461246760246094,2.820673947506443,0.11194579865738713,True,,,140,87,0,-1,0,0,-1,0
1777596339.4786282,2,left,1777596338.802058,0.6765701770782471,0.8600451584217603,1.3433679333778739,2.86126319026263,0.8227879197108758,1.3941278409081532,2.8377693729835434,0.06720587399316715,False,,,140,87,0,-1,0,0,-1,0
1777596339.5188842,2,left,1777596338.802058,0.7168262004852295,0.8600451584217603,1.3433679333778739,2.86126319026263,0.8020431895105684,1.4225907395763722,2.8135753385104536,0.10915407745145056,True,,,140,87,0,-1,0,0,-1,0
1777596339.5588732,2,left,1777596338.802058,0.7568151950836182,0.8600451584217603,1.3433679333778739,2.86126319026263,0.8016500932656173,1.423618019885863,2.812869177613785,0.11041757323626758,True,,,140,87,0,0,0,0,-1,0
1777596339.599068,2,left,1777596338.802058,0.7970099449157715,0.8600451584217603,1.3433679333778739,2.86126319026263,0.8162236906520759,1.3973626097720961,2.8358234746543673,0.07404677742235356,False,,,140,87,0,0,0,0,-1,0
1777596339.639333,2,left,1777596338.802058,0.8372750282287598,0.8600451584217603,1.3433679333778739,2.86126319026263,0.7957960837475617,1.4257476811169099,2.8116046206163685,0.11567341947634548,True,,,140,87,0,0,0,0,-1,0
1777596339.679799,2,left,1777596338.802058,0.8777410984039307,0.8600451584217603,1.3433679333778739,2.86126319026263,0.7921461429694714,1.4281678697643838,2.8105421393819783,0.11989132793068892,True,,,140,87,0,0,0,0,-1,0
1777596339.720119,2,left,1777596338.802058,0.9180610179901123,0.8600451584217603,1.3433679333778739,2.86126319026263,0.7917269033473364,1.4291140651412708,2.8099439451514816,0.12105142711912995,True,,,140,87,0,0,0,0,-1,0
1777596339.758872,2,left,1777596338.802058,0.9568140506744385,0.8600451584217603,1.3433679333778739,2.86126319026263,0.8027502378567901,1.477226728773927,2.782727597270523,0.1654349551758954,True,,,140,87,0,0,0,0,-1,0
1777596339.799121,2,left,1777596338.802058,0.9970629215240479,0.8600451584217603,1.3433679333778739,2.86126319026263,0.8170930176587907,1.4470785394371837,2.7971485039832302,0.1292728478916481,True,1777596339.639333,837.2750282287598,140,87,0,0,0,0,-1,0
1777596339.8391,2,left,1777596338.802058,1.0370419025421143,0.8600451584217603,1.3433679333778739,2.86126319026263,0.7843480171700359,1.4314157645832624,2.8085274482677867,0.12752857035740192,True,,,140,87,0,0,0,0,-1,0
1777596339.8800519,2,left,1777596338.802058,1.0779938697814941,0.8600451584217603,1.3433679333778739,2.86126319026263,0.7778170394429283,1.4330111247762356,2.8078825261082336,0.13284148681961047,True,,,140,87,0,0,0,0,-1,0
1777596339.9199092,2,left,1777596338.802058,1.1178512573242188,0.8600451584217603,1.3433679333778739,2.86126319026263,0.776582008361393,1.4293994304049047,2.79804918282404,0.13551209036524206,True,,,140,87,0,0,0,0,-1,0
1777596339.95946,2,left,1777596338.802058,1.1574020385742188,0.8600451584217603,1.3433679333778739,2.86126319026263,0.7584844503995462,1.46014352546612,2.7834542226715278,0.17322052926580933,True,,,140,87,0,0,0,0,0,0
1777596339.999705,2,left,1777596338.802058,1.1976470947265625,0.8600451584217603,1.3433679333778739,2.86126319026263,0.7234345703446613,1.4419525266978352,2.783430674447747,0.18557821890757287,True,,,140,87,0,0,0,0,0,0
1777596340.0399098,2,left,1777596338.802058,1.237851858139038,0.8600451584217603,1.3433679333778739,2.86126319026263,0.7403037013151794,1.4107546185105648,2.798747482736515,0.1509542830484461,True,,,140,87,0,0,0,0,0,0
1777596340.079531,2,left,1777596338.802058,1.277472972869873,0.8600451584217603,1.3433679333778739,2.86126319026263,0.7361299751734998,1.411554957603531,2.7978582090381225,0.15499882114480903,True,,,140,87,0,0,0,0,0,0
1777596340.1193311,2,left,1777596338.802058,1.3172731399536133,0.8600451584217603,1.3433679333778739,2.86126319026263,0.7300515458922651,1.4120123094846453,2.7977577996224454,0.16013533123554874,True,,,140,87,0,0,0,0,0,0
1777596340.159008,2,left,1777596338.802058,1.356950044631958,0.8600451584217603,1.3433679333778739,2.86126319026263,0.7467298755312618,1.4636016716198106,2.781162770514441,0.18360986463700799,True,,,140,87,0,-1,0,0,0,0
1777596347.9628448,3,right,1777596347.962543,0.0003018379211425781,1.0351957983558577,1.421279868130367,2.886589354717706,1.043930056237253,1.4671917180417613,2.844354968608759,0.06299149619611151,False,,,140,85,0,0,0,0,0,0
1777596348.003428,3,right,1777596347.962543,0.040884971618652344,1.0351957983558577,1.421279868130367,2.886589354717706,1.043930056237253,1.4671917180417613,2.844354968608759,0.06299149619611151,False,,,140,85,0,0,0,0,0,0
1777596348.04353,3,right,1777596347.962543,0.08098697662353516,1.0351957983558577,1.421279868130367,2.886589354717706,1.043296662994732,1.4692091807243632,2.8435918987038615,0.06489702795423581,False,,,140,85,0,0,0,0,0,0
1777596348.0838678,3,right,1777596347.962543,0.12132477760314941,1.0351957983558577,1.421279868130367,2.886589354717706,1.01814742995778,1.4962388932680808,2.8337795361936595,0.0932651019791203,False,,,140,85,0,0,0,0,0,0
1777596348.123743,3,right,1777596347.962543,0.16120004653930664,1.0351957983558577,1.421279868130367,2.886589354717706,1.0461439398861891,1.4737171646398557,2.8525287150716476,0.06347959547201641,False,,,140,85,0,0,0,0,0,0
1777596348.1638799,3,right,1777596347.962543,0.20133686065673828,1.0351957983558577,1.421279868130367,2.886589354717706,1.0156452803610168,1.3947821937984113,2.8923888795280774,0.03343626753833483,False,,,140,85,-1,1,0,0,0,0
1777596348.202765,3,right,1777596347.962543,0.24022197723388672,1.0351957983558577,1.421279868130367,2.886589354717706,1.0156452803610168,1.3947821937984113,2.8923888795280774,0.03343626753833483,False,,,140,85,-1,1,0,0,0,0
1777596348.243053,3,right,1777596347.962543,0.28050994873046875,1.0351957983558577,1.421279868130367,2.886589354717706,1.0438276273510319,1.424873246878811,2.88180237674749,0.010504094474014935,False,,,140,85,-1,1,0,0,0,0
1777596348.283359,3,right,1777596347.962543,0.3208160400390625,1.0351957983558577,1.421279868130367,2.886589354717706,1.0731807090745806,1.4478350966896185,2.861617703536508,0.052646148661216106,False,,,140,85,0,3,0,0,0,0
1777596348.3230479,3,right,1777596347.962543,0.3605048656463623,1.0351957983558577,1.421279868130367,2.886589354717706,1.0137608897521255,1.4482543521775915,2.8635651951535315,0.04143899154300079,False,,,140,85,0,3,0,0,0,0
1777596348.3627489,3,right,1777596347.962543,0.4002058506011963,1.0351957983558577,1.421279868130367,2.886589354717706,1.0454500468539234,1.4701490091944698,2.844333302301194,0.06541342772267988,False,,,140,85,0,2,0,0,1,0
1777596348.403255,3,right,1777596347.962543,0.44071197509765625,1.0351957983558577,1.421279868130367,2.886589354717706,0.992893325215307,1.470881866126866,2.845019932350859,0.0773167143311525,False,,,140,85,0,2,0,0,1,0
1777596348.443788,3,right,1777596347.962543,0.4812450408935547,1.0351957983558577,1.421279868130367,2.886589354717706,1.0249978781918412,1.495847322300826,2.8377915985603313,0.08969684388611317,False,,,140,85,0,2,0,0,1,0
1777596348.483379,3,right,1777596347.962543,0.5208358764648438,1.0351957983558577,1.421279868130367,2.886589354717706,1.0532891703059377,1.4688539753562542,2.8481900055840237,0.06375873117271534,False,,,140,85,0,0,0,0,1,0
1777596348.522914,3,right,1777596347.962543,0.560370922088623,1.0351957983558577,1.421279868130367,2.886589354717706,1.0260062220471557,1.489544270949413,2.8314377471732572,0.0882393156122108,False,,,140,85,0,0,0,0,1,0
1777596348.5631099,3,right,1777596347.962543,0.6005668640136719,1.0351957983558577,1.421279868130367,2.886589354717706,1.057565358298453,1.4671130072375567,2.85060449190797,0.06241781960209665,False,,,140,85,0,0,0,0,1,0
1777596348.603224,3,right,1777596347.962543,0.6406810283660889,1.0351957983558577,1.421279868130367,2.886589354717706,1.061150003300868,1.41387125565095,2.881503892086053,0.027465800978229524,False,,,140,85,0,0,0,0,1,0
1777596348.642896,3,right,1777596347.962543,0.6803529262542725,1.0351957983558577,1.421279868130367,2.886589354717706,1.0689068071023247,1.4587836658858557,2.8460567889254373,0.06469819044218751,False,,,140,85,0,0,0,0,1,0
1777596348.683619,3,right,1777596347.962543,0.7210760116577148,1.0351957983558577,1.421279868130367,2.886589354717706,1.1026803028476702,1.430532675211155,2.85673556237002,0.07437083906289144,False,,,140,85,0,0,0,0,1,0
1777596348.723294,3,right,1777596347.962543,0.7607510089874268,1.0351957983558577,1.421279868130367,2.886589354717706,1.1026803028476702,1.430532675211155,2.85673556237002,0.07437083906289144,False,,,140,85,0,0,0,0,1,0
1777596348.7632651,3,right,1777596347.962543,0.8007221221923828,1.0351957983558577,1.421279868130367,2.886589354717706,1.0761750770720824,1.4555844667159437,2.850417015253998,0.06453328529136972,False,,,140,85,0,0,0,0,1,0
1777596348.8028128,3,right,1777596347.962543,0.8402698040008545,1.0351957983558577,1.421279868130367,2.886589354717706,1.0760394114295473,1.4975256339875487,2.814093129273092,0.11285973703574603,True,,,140,85,0,-1,0,0,1,0
1777596348.8434281,3,right,1777596347.962543,0.880885124206543,1.0351957983558577,1.421279868130367,2.886589354717706,1.1075016892973253,1.4746658847361167,2.83358242602541,0.10434530714535731,True,,,140,85,0,-1,0,0,1,0
1777596348.8836632,3,right,1777596347.962543,0.9211201667785645,1.0351957983558577,1.421279868130367,2.886589354717706,1.150536876783455,1.3958868084516474,2.870333291240836,0.11921674149402084,True,,,140,85,0,-1,0,0,1,0
1777596348.9236832,3,right,1777596347.962543,0.9611401557922363,1.0351957983558577,1.421279868130367,2.886589354717706,1.087679291430043,1.4438243247016667,2.848298595979663,0.06876737432895258,False,,,140,85,0,-1,0,0,1,0
1777596348.9631581,3,right,1777596347.962543,1.000615119934082,1.0351957983558577,1.421279868130367,2.886589354717706,1.1410925936648744,1.492673334873286,2.8161532289405256,0.14585062963453682,True,,,140,85,0,-1,0,0,1,0
1777596349.0033028,3,right,1777596347.962543,1.040759801864624,1.0351957983558577,1.421279868130367,2.886589354717706,1.1103768257590423,1.511132681290312,2.8014682843084557,0.14481474904777808,True,,,140,85,0,-1,0,0,1,0
1777596349.043221,3,right,1777596347.962543,1.0806779861450195,1.0351957983558577,1.421279868130367,2.886589354717706,1.1524365980811782,1.4363959547454996,2.8389036234970444,0.12746697673059512,True,,,140,85,0,-1,0,0,1,0
1777596349.082264,3,right,1777596347.962543,1.1197209358215332,1.0351957983558577,1.421279868130367,2.886589354717706,1.14989748656028,1.43485021096466,2.8401788005009756,0.12447719077923006,True,,,140,85,0,0,0,0,1,0
1777596349.121011,3,right,1777596347.962543,1.1584680080413818,1.0351957983558577,1.421279868130367,2.886589354717706,1.1456629698829983,1.4831494553072333,2.8130836948509206,0.14640329174951675,True,1777596348.9631581,1000.615119934082,140,85,0,0,0,0,1,0
1777596349.160825,3,right,1777596347.962543,1.19828200340271,1.0351957983558577,1.421279868130367,2.886589354717706,1.126269861209433,1.45307420964977,2.827576498152807,0.11308351921150477,True,,,140,85,0,0,0,0,1,0
1777596349.1993752,3,right,1777596347.962543,1.2368321418762207,1.0351957983558577,1.421279868130367,2.886589354717706,1.1277381559071329,1.4523689518958118,2.828556499695348,0.1135712610327495,True,,,140,85,0,0,0,0,1,0
1777596349.238506,3,right,1777596347.962543,1.2759630680084229,1.0351957983558577,1.421279868130367,2.886589354717706,1.1575613513515006,1.4265857853492734,2.835862405636808,0.13256962201243327,True,,,140,85,0,0,0,0,1,0
1777596349.2789629,3,right,1777596347.962543,1.3164198398590088,1.0351957983558577,1.421279868130367,2.886589354717706,1.159106776467781,1.4258770436582293,2.8368069689030175,0.13361643034032153,True,,,140,85,0,0,0,0,1,0
1777596349.318729,3,right,1777596347.962543,1.3561859130859375,1.0351957983558577,1.421279868130367,2.886589354717706,1.1851931596803196,1.4462264103756546,2.817033130309649,0.16721126375995443,True,,,140,85,0,0,0,0,0,0
1777596349.358646,3,right,1777596347.962543,1.3961029052734375,1.0351957983558577,1.421279868130367,2.886589354717706,1.1559779183193104,1.46515379890293,2.8039284922156855,0.15279417689781072,True,,,140,85,0,0,0,0,0,0
1777596349.398921,3,right,1777596347.962543,1.436378002166748,1.0351957983558577,1.421279868130367,2.886589354717706,1.157432168815429,1.4644733493844386,2.8049166009903357,0.1532248210551642,True,,,140,85,0,0,0,0,0,0
1777596349.438933,3,right,1777596347.962543,1.4763898849487305,1.0351957983558577,1.421279868130367,2.886589354717706,1.1616236398886954,1.4567993541889552,2.7975999283512096,0.1586340159283521,True,,,140,85,0,0,0,0,0,0
1777596349.479648,3,right,1777596347.962543,1.5171051025390625,1.0351957983558577,1.421279868130367,2.886589354717706,1.1922276391227473,1.4318528458260444,2.804820421992462,0.17736105894760704,True,,,140,85,0,0,0,0,0,0
1777596356.761345,4,left,1777596356.761083,0.0002620220184326172,0.8387638640709755,1.3649119733455621,2.996743891462758,0.7752037452744969,1.3750443969853354,3.0152971644033335,0.06698342068785225,False,,,140,84,-1,0,0,0,0,0
1777596356.8025239,4,left,1777596356.761083,0.04144096374511719,0.8387638640709755,1.3649119733455621,2.996743891462758,0.8015794007276795,1.333285074906268,3.0326679938724768,0.06060929097887796,False,,,140,84,-1,0,0,0,0,0
1777596356.842544,4,left,1777596356.761083,0.08146119117736816,0.8387638640709755,1.3649119733455621,2.996743891462758,0.8184740968547766,1.3964137973985746,3.003760973809268,0.038121896818130614,False,,,140,84,-1,0,0,0,0,0
1777596356.8826208,4,left,1777596356.761083,0.12153792381286621,0.8387638640709755,1.3649119733455621,2.996743891462758,0.8181465759408566,1.397723899913017,3.0023114810255116,0.039149625138022386,False,,,140,84,-1,0,0,0,0,0
1777596356.9234061,4,left,1777596356.761083,0.1623232364654541,0.8387638640709755,1.3649119733455621,2.996743891462758,0.8034079317106146,1.3342870952017298,3.0331907995377567,0.05929841669574643,False,,,140,84,-1,0,0,0,0,0
1777596356.964458,4,left,1777596356.761083,0.20337510108947754,0.8387638640709755,1.3649119733455621,2.996743891462758,0.7991561273483194,1.334935137251025,3.0333266319078867,0.06169019702518074,False,,,140,84,0,-3,0,0,0,0
1777596357.003834,4,left,1777596356.761083,0.2427511215209961,0.8387638640709755,1.3649119733455621,2.996743891462758,0.7768895312945139,1.3757881624733752,3.0173571661389817,0.06611831546064757,False,,,140,84,0,-3,0,0,0,0
1777596357.0438578,4,left,1777596356.761083,0.2827749252319336,0.8387638640709755,1.3649119733455621,2.996743891462758,0.804417583079589,1.337180121720308,3.03338897271836,0.05737233299016211,False,,,140,84,0,-4,0,0,0,0
1777596357.083833,4,left,1777596356.761083,0.3227500915527344,0.8387638640709755,1.3649119733455621,2.996743891462758,0.7993343309878789,1.4385159172273756,2.9867379239375293,0.08409725334530307,False,,,140,84,0,-4,0,0,0,0
1777596357.122793,4,left,1777596356.761083,0.3617100715637207,0.8387638640709755,1.3649119733455621,2.996743891462758,0.8194502681862592,1.4018224807568647,3.002549995265856,0.04206080580219898,False,,,140,84,0,-4,0,0,0,0
1777596357.160384,4,left,1777596356.761083,0.39930105209350586,0.8387638640709755,1.3649119733455621,2.996743891462758,0.8181701098527803,1.4021832603629232,3.002158987046236,0.04292522345787077,False,,,140,84,0,-3,0,0,-1,0
1777596357.197291,4,left,1777596356.761083,0.43620800971984863,0.8387638640709755,1.3649119733455621,2.996743891462758,0.7937636691299712,1.4350405557492953,2.9758433500226933,0.08590615954152214,False,,,140,84,0,-3,0,0,-1,0
1777596357.234161,4,left,1777596356.761083,0.47307801246643066,0.8387638640709755,1.3649119733455621,2.996743891462758,0.8160143130408893,1.4042715098845426,3.0014788497769276,0.045707056554439775,False,,,140,84,0,-3,0,0,-1,0
1777596357.270977,4,left,1777596356.761083,0.5098941326141357,0.8387638640709755,1.3649119733455621,2.996743891462758,0.8172990687257189,1.404738408621732,3.0016727424600007,0.04551017422702003,False,,,140,84,0,-2,0,0,-1,0
1777596357.3079438,4,left,1777596356.761083,0.546860933303833,0.8387638640709755,1.3649119733455621,2.996743891462758,0.7957660163412088,1.342980347285097,3.0307495561895923,0.05904402056569423,False,,,140,84,0,-2,0,0,-1,0
1777596357.345376,4,left,1777596356.761083,0.5842931270599365,0.8387638640709755,1.3649119733455621,2.996743891462758,0.7878138012358228,1.443466185504577,2.98380638894409,0.09452011490815102,False,,,140,84,0,-2,0,0,-1,0
1777596357.3817868,4,left,1777596356.761083,0.620703935623169,0.8387638640709755,1.3649119733455621,2.996743891462758,0.8075685276299278,1.4107177854658173,3.010130998635699,0.05701347277728377,False,,,140,84,0,-1,0,0,-1,0
1777596357.418328,4,left,1777596356.761083,0.6572451591491699,0.8387638640709755,1.3649119733455621,2.996743891462758,0.8228732006991103,1.4688661423917937,2.979698964932712,0.10653408827650003,True,,,140,84,0,-1,0,0,-1,0
1777596357.454201,4,left,1777596356.761083,0.6931180953979492,0.8387638640709755,1.3649119733455621,2.996743891462758,0.7778205982792692,1.443712312393795,2.9827515886229286,0.10059502780076411,True,,,140,84,0,0,0,0,-1,0
1777596357.492629,4,left,1777596356.761083,0.73154616355896,0.8387638640709755,1.3649119733455621,2.996743891462758,0.8395803131261906,1.4331517731446013,2.994566385062472,0.06827941417291154,False,,,140,84,0,0,0,0,-1,0
1777596357.5334918,4,left,1777596356.761083,0.7724089622497559,0.8387638640709755,1.3649119733455621,2.996743891462758,0.7740800499949125,1.4444864934278123,2.981886976178212,0.10361866618288089,True,,,140,84,0,0,0,0,-1,0
1777596357.574502,4,left,1777596356.761083,0.8134191036224365,0.8387638640709755,1.3649119733455621,2.996743891462758,0.7928077500924952,1.4074223597536166,2.9974108370488164,0.06260624714020112,False,,,140,84,0,0,0,0,-1,0
1777596357.615137,4,left,1777596356.761083,0.8540542125701904,0.8387638640709755,1.3649119733455621,2.996743891462758,0.7274312248108346,1.4212924343414564,2.9812576809309035,0.12575188135123525,True,,,140,84,0,0,0,0,-1,0
1777596357.655808,4,left,1777596356.761083,0.8947250843048096,0.8387638640709755,1.3649119733455621,2.996743891462758,0.7665424946064594,1.4458647102432556,2.9803880312669797,0.10971228728497627,True,,,140,84,0,0,0,0,-1,0
1777596357.6975439,4,left,1777596356.761083,0.9364609718322754,0.8387638640709755,1.3649119733455621,2.996743891462758,0.743630867942634,1.3876512465602027,3.0090021061920367,0.09857801644907552,False,,,140,84,0,0,0,0,-1,0
1777596357.7377868,4,left,1777596356.761083,0.9767038822174072,0.8387638640709755,1.3649119733455621,2.996743891462758,0.743630867942634,1.3876512465602027,3.0090021061920367,0.09857801644907552,False,,,140,84,0,0,0,0,-1,0
1777596357.7785401,4,left,1777596356.761083,1.0174572467803955,0.8387638640709755,1.3649119733455621,2.996743891462758,0.7183729612494028,1.3281273257233943,3.035105249120123,0.13160043139821645,True,,,140,84,0,0,0,0,0,0
1777596357.818313,4,left,1777596356.761083,1.057229995727539,0.8387638640709755,1.3649119733455621,2.996743891462758,0.7384453590295128,1.3900046052598203,3.008172173781036,0.10403868639542059,True,,,140,84,0,0,0,0,0,0
1777596357.856817,4,left,1777596356.761083,1.0957341194152832,0.8387638640709755,1.3649119733455621,2.996743891462758,0.7422506191672604,1.3908617601953455,3.0074537543387425,0.10051317845047013,True,,,140,84,0,0,0,0,0,0
1777596357.896491,4,left,1777596356.761083,1.1354081630706787,0.8387638640709755,1.3649119733455621,2.996743891462758,0.6933824887351617,1.3683285690931002,3.0065272274607135,0.1457502352803718,True,,,140,84,0,-1,0,0,0,0
1777596357.935594,4,left,1777596356.761083,1.174511194229126,0.8387638640709755,1.3649119733455621,2.996743891462758,0.7117290284577465,1.3325847204243493,3.034021968816436,0.1362811644795382,True,1777596357.7785401,1017.4572467803955,140,84,0,-1,0,0,0,0
1777596357.9759722,4,left,1777596356.761083,1.2148892879486084,0.8387638640709755,1.3649119733455621,2.996743891462758,0.6929695338752986,1.4657017318440548,2.961503192316464,0.1807110096582667,True,,,140,84,0,-1,0,0,0,0
1777596358.0161831,4,left,1777596356.761083,1.2551002502441406,0.8387638640709755,1.3649119733455621,2.996743891462758,0.6867395892291173,1.370993827904127,3.0054815944071844,0.1523965765652543,True,,,140,84,0,-1,0,0,0,0
1777596358.056329,4,left,1777596356.761083,1.2952461242675781,0.8387638640709755,1.3649119733455621,2.996743891462758,0.686281341473109,1.376178234368516,3.015732888329354,0.1540728085589594,True,,,140,84,0,-1,0,0,0,0
1777596358.096884,4,left,1777596356.761083,1.335801124572754,0.8387638640709755,1.3649119733455621,2.996743891462758,0.7037443413705157,1.434731336610373,2.9885354203649372,0.1522248139914363,True,,,140,84,0,-1,0,0,0,0
1777596358.135814,4,left,1777596356.761083,1.3747310638427734,0.8387638640709755,1.3649119733455621,2.996743891462758,0.702405722156909,1.4348806752732712,2.988402440100961,0.15348857262521703,True,,,140,84,0,-1,0,0,0,0
1777596358.175812,4,left,1777596356.761083,1.414729118347168,0.8387638640709755,1.3649119733455621,2.996743891462758,0.6956364618741773,1.3366166071364307,3.032004106367636,0.15009784729852416,True,,,140,84,0,-1,0,0,-1,0
1777596358.216382,4,left,1777596356.761083,1.4552991390228271,0.8387638640709755,1.3649119733455621,2.996743891462758,0.6550113487732765,1.4147357961273195,2.9856084956009554,0.19071286594201795,True,,,140,84,0,-1,0,0,-1,0
1777596358.2565188,4,left,1777596356.761083,1.4954359531402588,0.8387638640709755,1.3649119733455621,2.996743891462758,0.669638914687765,1.4729123738082985,2.970022271670455,0.2024385832007064,True,,,140,84,0,-1,0,0,-1,0
1777596358.29635,4,left,1777596356.761083,1.5352671146392822,0.8387638640709755,1.3649119733455621,2.996743891462758,0.691584598311133,1.4358615082568726,2.987626333268927,0.1636419953470243,True,,,140,84,0,0,0,0,-1,0
1777596365.8257,5,right,1777596365.8254552,0.0002448558807373047,1.0286057920919336,1.4542389145320005,2.8916761708683034,1.0312575611318273,1.4805995094202085,2.867391246354546,0.035939816367645025,False,,,140,83,0,0,0,0,0,0
1777596365.865862,5,right,1777596365.8254552,0.04040670394897461,1.0286057920919336,1.4542389145320005,2.8916761708683034,1.0312002129790592,1.429449086076389,2.896404161597093,0.025369676996952768,False,,,140,83,0,0,0,0,0,0
1777596365.9064178,5,right,1777596365.8254552,0.0809626579284668,1.0286057920919336,1.4542389145320005,2.8916761708683034,1.0297605959010672,1.4300168680854486,2.895688787122548,0.02457930420293328,False,,,140,83,0,0,0,0,0,0
1777596365.94572,5,right,1777596365.8254552,0.12026476860046387,1.0286057920919336,1.4542389145320005,2.8916761708683034,1.0254007994968868,1.4321523291595337,2.89558537205546,0.022657693723572868,False,,,140,83,0,0,0,0,0,0
1777596365.985551,5,right,1777596365.8254552,0.1600959300994873,1.0286057920919336,1.4542389145320005,2.8916761708683034,1.0240770343483436,1.4835925029774537,2.8658061400129484,0.039387831849216966,False,,,140,83,0,0,0,0,0,0
1777596366.025353,5,right,1777596365.8254552,0.19989776611328125,1.0286057920919336,1.4542389145320005,2.8916761708683034,0.9926703045871892,1.4570286549917668,2.875154826179143,0.039649675211463516,False,,,140,83,0,0,0,0,0,0
1777596366.0653188,5,right,1777596365.8254552,0.23986363410949707,1.0286057920919336,1.4542389145320005,2.8916761708683034,0.9979060215870497,1.511273265689208,2.854011334637584,0.0749268510566346,False,,,140,83,0,0,0,0,0,0
1777596366.1057239,5,right,1777596365.8254552,0.28026866912841797,1.0286057920919336,1.4542389145320005,2.8916761708683034,0.9912974450879558,1.4575622320595119,2.8744312326086874,0.04123524088853915,False,,,140,83,0,0,0,0,0,0
1777596366.1464992,5,right,1777596365.8254552,0.3210439682006836,1.0286057920919336,1.4542389145320005,2.8916761708683034,1.0213551880451472,1.4845505819431697,2.8644397844777023,0.04139068957998565,False,,,140,83,0,2,0,0,0,0
1777596366.186461,5,right,1777596365.8254552,0.3610057830810547,1.0286057920919336,1.4542389145320005,2.8916761708683034,0.9856188501313992,1.4049011618366078,2.903941929159722,0.06657732231483621,False,,,140,83,0,2,0,0,0,0
1777596366.226888,5,right,1777596365.8254552,0.40143275260925293,1.0286057920919336,1.4542389145320005,2.8916761708683034,0.9912974450879558,1.4575622320595119,2.8744312326086874,0.04123524088853915,False,,,140,83,0,2,0,0,0,0
1777596366.2676978,5,right,1777596365.8254552,0.4422426223754883,1.0286057920919336,1.4542389145320005,2.8916761708683034,0.9935412343917862,1.4580553875076343,2.8743964093491674,0.03927695037600198,False,,,140,83,0,3,0,0,0,0
1777596366.308251,5,right,1777596365.8254552,0.48279571533203125,1.0286057920919336,1.4542389145320005,2.8916761708683034,0.9921324650756739,1.4038610017496276,2.904909666598748,0.06358744443041482,False,,,140,83,0,3,0,0,0,0
1777596366.348923,5,right,1777596365.8254552,0.5234677791595459,1.0286057920919336,1.4542389145320005,2.8916761708683034,0.9961695832444319,1.4574210939810208,2.8766422961021596,0.03589221783240215,False,,,140,83,0,2,0,0,1,0
1777596366.389056,5,right,1777596365.8254552,0.5636007785797119,1.0286057920919336,1.4542389145320005,2.8916761708683034,0.9702571101598374,1.480993585257743,2.8572064481783825,0.07285974794889065,False,,,140,83,0,0,0,0,1,0
1777596366.4293928,5,right,1777596365.8254552,0.6039376258850098,1.0286057920919336,1.4542389145320005,2.8916761708683034,1.0348213533977368,1.4269931645763516,2.88867974627173,0.028105918475561157,False,,,140,83,0,0,0,0,1,0
1777596366.4693289,5,right,1777596365.8254552,0.6438736915588379,1.0286057920919336,1.4542389145320005,2.8916761708683034,1.0054575974266728,1.4551895180980354,2.879122374471192,0.026350339037300673,False,,,140,83,0,0,0,0,1,0
1777596366.5091882,5,right,1777596365.8254552,0.6837329864501953,1.0286057920919336,1.4542389145320005,2.8916761708683034,1.0650604584439258,1.5048818192195261,2.8507500601114586,0.0746230060752474,False,,,140,83,0,0,0,0,1,0
1777596366.5492969,5,right,1777596365.8254552,0.723841667175293,1.0286057920919336,1.4542389145320005,2.8916761708683034,1.0436932885559445,1.4245428009970968,2.892391096192282,0.03331670492183004,False,,,140,83,0,0,0,0,1,0
1777596366.589501,5,right,1777596365.8254552,0.7640457153320312,1.0286057920919336,1.4542389145320005,2.8916761708683034,1.0402247103591444,1.4766514876538337,2.863447891106782,0.037870284840972164,False,,,140,83,0,0,0,0,1,0
1777596366.629696,5,right,1777596365.8254552,0.8042407035827637,1.0286057920919336,1.4542389145320005,2.8916761708683034,1.0109506307009681,1.4531414086536958,2.8844823099978503,0.019096095860604272,False,,,140,83,0,0,0,0,1,0
1777596366.6689239,5,right,1777596365.8254552,0.8434686660766602,1.0286057920919336,1.4542389145320005,2.8916761708683034,1.0444077252688402,1.4749951550918974,2.8657888659817496,0.03675153287411453,False,,,140,83,0,0,0,0,1,0
1777596366.709667,5,right,1777596365.8254552,0.8842117786407471,1.0286057920919336,1.4542389145320005,2.8916761708683034,1.0472075762389272,1.4738618463097741,2.8673889754991926,0.03634492652219649,False,,,140,83,0,0,0,0,1,0
1777596366.7496681,5,right,1777596365.8254552,0.9242129325866699,1.0286057920919336,1.4542389145320005,2.8916761708683034,1.0765260806801853,1.4948288027268886,2.848056388737257,0.07646292222518558,False,,,140,83,0,0,0,0,1,0
1777596366.789462,5,right,1777596365.8254552,0.9640069007873535,1.0286057920919336,1.4542389145320005,2.8916761708683034,1.0853713020463793,1.4433864652213195,2.8780567210107995,0.05937666368911479,False,,,140,83,0,0,0,0,1,0
1777596366.8295958,5,right,1777596365.8254552,1.0041406154632568,1.0286057920919336,1.4542389145320005,2.8916761708683034,1.0506824013678449,1.4647415878371013,2.8610867459866487,0.039158597245883636,False,,,140,83,0,0,0,0,1,0
1777596366.869347,5,right,1777596365.8254552,1.0438919067382812,1.0286057920919336,1.4542389145320005,2.8916761708683034,1.0799052370577091,1.4917599672308106,2.8504678811397,0.07574685202554655,False,,,140,83,0,-1,0,0,1,0
1777596366.909201,5,right,1777596365.8254552,1.0837457180023193,1.0286057920919336,1.4542389145320005,2.8916761708683034,1.0904422854081717,1.4394137567677667,2.881313185017891,0.06442770121709628,False,,,140,83,0,-1,0,0,1,0
1777596366.9497302,5,right,1777596365.8254552,1.1242749691009521,1.0286057920919336,1.4542389145320005,2.8916761708683034,1.0870168648982064,1.4339177039478828,2.8730951364028363,0.06457600071071787,False,,,140,83,0,-1,0,0,1,0
1777596366.9892328,5,right,1777596365.8254552,1.1637775897979736,1.0286057920919336,1.4542389145320005,2.8916761708683034,1.1159625741147243,1.4626913305486693,2.8614028862055685,0.09283922913384834,False,,,140,83,0,-1,0,0,1,0
1777596367.028157,5,right,1777596365.8254552,1.2027018070220947,1.0286057920919336,1.4542389145320005,2.8916761708683034,1.089569666917298,1.48168053189135,2.8450519225254225,0.08150740414562528,False,,,140,83,0,-1,0,0,0,0
1777596367.067976,5,right,1777596365.8254552,1.242520809173584,1.0286057920919336,1.4542389145320005,2.8916761708683034,1.0909526010378108,1.4810958151978002,2.84589477255156,0.0818801204868597,False,,,140,83,0,-1,0,0,0,0
1777596367.1083908,5,right,1777596365.8254552,1.282935619354248,1.0286057920919336,1.4542389145320005,2.8916761708683034,1.0600636702385116,1.453514009506037,2.858159700004069,0.04597257230104365,False,,,140,83,0,0,0,0,0,0
1777596367.148489,5,right,1777596365.8254552,1.3230338096618652,1.0286057920919336,1.4542389145320005,2.8916761708683034,1.0961905528507394,1.427209913677236,2.8768007566905993,0.07429363849610622,False,,,140,83,0,0,0,0,0,0
1777596367.188318,5,right,1777596365.8254552,1.3628628253936768,1.0286057920919336,1.4542389145320005,2.8916761708683034,1.0895303460976173,1.4728278797720948,2.8397125858612964,0.08220441032127995,False,,,140,83,0,0,0,0,0,0
1777596367.227658,5,right,1777596365.8254552,1.402202844619751,1.0286057920919336,1.4542389145320005,2.8916761708683034,1.0909139495978386,1.472225472686175,2.8405832289450546,0.08256095614990569,False,,,140,83,0,0,0,0,0,0
1777596367.266747,5,right,1777596365.8254552,1.4412918090820312,1.0286057920919336,1.4542389145320005,2.8916761708683034,1.0950892847714784,1.4697029025905701,2.8409133093415706,0.08506502122452518,False,,,140,83,0,0,0,0,0,0
1777596367.3068202,5,right,1777596365.8254552,1.4813649654388428,1.0286057920919336,1.4542389145320005,2.8916761708683034,1.125313446911316,1.4424312869200087,2.8501335993268055,0.10591305783881773,True,,,140,83,0,1,0,0,0,0
1777596367.3468008,5,right,1777596365.8254552,1.521345615386963,1.0286057920919336,1.4542389145320005,2.8916761708683034,1.1267612878814115,1.4417994182361085,2.8509930909249306,0.1069782941322799,True,,,140,83,0,1,0,0,0,0
1777596367.3867369,5,right,1777596365.8254552,1.561281681060791,1.0286057920919336,1.4542389145320005,2.8916761708683034,1.1392434688044548,1.3878730534385042,2.8802305857732717,0.12952267926966773,True,,,140,83,0,1,0,0,0,0
1777596367.426835,5,right,1777596365.8254552,1.6013798713684082,1.0286057920919336,1.4542389145320005,2.8916761708683034,1.132542325899504,1.4336888465399018,2.844026684725705,0.11617048628660287,True,,,140,83,0,0,0,0,0,0
1777596367.465905,5,right,1777596365.8254552,1.6404497623443604,1.0286057920919336,1.4542389145320005,2.8916761708683034,1.125965549931433,1.477964900840226,2.807974990818475,0.13056696525001205,True,1777596367.3068202,1481.3649654388428,140,83,0,0,0,0,0,0
1777596367.50655,5,right,1777596365.8254552,1.6810948848724365,1.0286057920919336,1.4542389145320005,2.8916761708683034,1.1341559418745608,1.433606797968276,2.8463447857052033,0.11671097991979797,True,,,140,83,0,0,0,0,1,0
1777596367.546495,5,right,1777596365.8254552,1.7210397720336914,1.0286057920919336,1.4542389145320005,2.8916761708683034,1.1451710656214549,1.373586253134867,2.868309555009724,0.14366041041336056,True,,,140,83,0,0,0,0,1,0
1777596367.5860212,5,right,1777596365.8254552,1.760565996170044,1.0286057920919336,1.4542389145320005,2.8916761708683034,1.1723782916268926,1.3987002019204584,2.8470490273425235,0.1604576646980374,True,,,140,83,0,0,0,0,1,0
1777596367.6257122,5,right,1777596365.8254552,1.8002569675445557,1.0286057920919336,1.4542389145320005,2.8916761708683034,1.1402826014869916,1.42260796490871,2.8426159670833218,0.12601242131692883,True,,,140,83,0,0,0,0,1,0
1777596367.665287,5,right,1777596365.8254552,1.839831829071045,1.0286057920919336,1.4542389145320005,2.8916761708683034,1.1464151608536872,1.4204935987649572,2.8442536075478384,0.13140278998614843,True,,,140,83,0,0,0,0,1,0
1777596367.703407,5,right,1777596365.8254552,1.8779518604278564,1.0286057920919336,1.4542389145320005,2.8916761708683034,1.1723788010813876,1.4424812130606388,2.8246410714057637,0.15906799243632855,True,,,140,83,0,0,0,0,1,0
1777596367.741796,5,right,1777596365.8254552,1.9163408279418945,1.0286057920919336,1.4542389145320005,2.8916761708683034,1.1520890274099749,1.406723935952809,2.8308172608997997,0.14563512459755795,True,,,140,83,0,0,0,0,1,0
1777596367.780412,5,right,1777596365.8254552,1.9549567699432373,1.0286057920919336,1.4542389145320005,2.8916761708683034,1.2191892478060236,1.3631817610974104,2.858808484254363,0.21376094967717363,True,,,140,83,0,0,0,0,1,0
1777596367.819697,5,right,1777596365.8254552,1.994241714477539,1.0286057920919336,1.4542389145320005,2.8916761708683034,1.199876248988215,1.4611083482014728,2.8067132915766253,0.19130982562830526,True,,,140,83,0,0,0,0,1,0
1777596374.4464278,6,left,1777596374.4461818,0.0002460479736328125,0.8732411781816265,1.4458715764634331,2.9770623944164116,0.840712414899578,1.4094378669826453,2.98670335560522,0.04978437264678645,False,,,140,82,0,0,0,0,0,0
1777596374.4856992,6,left,1777596374.4461818,0.03951740264892578,0.8732411781816265,1.4458715764634331,2.9770623944164116,0.8804681999787235,1.4312960545966291,2.9713496298729067,0.017242719056892484,False,,,140,82,0,0,0,0,0,0
1777596374.5256078,6,left,1777596374.4461818,0.07942605018615723,0.8732411781816265,1.4458715764634331,2.9770623944164116,0.8404101807583981,1.408563829245998,2.9871826845282246,0.050716493039161495,False,,,140,82,0,0,0,0,0,0
1777596374.565001,6,left,1777596374.4461818,0.1188192367553711,0.8732411781816265,1.4458715764634331,2.9770623944164116,0.8502450367808554,1.4664804416866972,2.9568320410495237,0.03691632487753999,False,,,140,82,0,0,0,0,0,0
1777596374.605887,6,left,1777596374.4461818,0.15970516204833984,0.8732411781816265,1.4458715764634331,2.9770623944164116,0.8502450367808554,1.4664804416866972,2.9568320410495237,0.03691632487753999,False,,,140,82,0,0,0,0,0,0
1777596374.6471848,6,left,1777596374.4461818,0.2010030746459961,0.8732411781816265,1.4458715764634331,2.9770623944164116,0.8668993754162375,1.3719910390975376,3.0026635866471247,0.07844726449929597,False,,,140,82,0,-3,0,0,0,0
1777596374.687103,6,left,1777596374.4461818,0.2409212589263916,0.8732411781816265,1.4458715764634331,2.9770623944164116,0.8837038259716101,1.4320647278008498,2.972230518090401,0.017984523835748056,False,,,140,82,0,-3,0,0,0,0
1777596374.72712,6,left,1777596374.4461818,0.28093814849853516,0.8732411781816265,1.4458715764634331,2.9770623944164116,0.8837038259716101,1.4320647278008498,2.972230518090401,0.017984523835748056,False,,,140,82,0,-3,0,0,0,0
1777596374.766585,6,left,1777596374.4461818,0.3204033374786377,0.8732411781816265,1.4458715764634331,2.9770623944164116,0.8674036708101587,1.3735850475926417,3.002732179042291,0.07693085591125806,False,,,140,82,0,-4,0,0,0,0
1777596374.805343,6,left,1777596374.4461818,0.3591611385345459,0.8732411781816265,1.4458715764634331,2.9770623944164116,0.8799087680941696,1.4337239367479393,2.971316150960098,0.015001373929027843,False,,,140,82,0,-4,0,0,0,0
1777596374.8447201,6,left,1777596374.4461818,0.39853835105895996,0.8732411781816265,1.4458715764634331,2.9770623944164116,0.853806304613627,1.4633228133779435,2.9471131277361966,0.03973938292340647,False,,,140,82,0,-4,0,0,0,0
1777596374.882996,6,left,1777596374.4461818,0.4368143081665039,0.8732411781816265,1.4458715764634331,2.9770623944164116,0.8757975482464323,1.4292828639865087,2.961111853409892,0.023154700774377743,False,,,140,82,0,-3,0,0,-1,0
1777596374.921592,6,left,1777596374.4461818,0.47541022300720215,0.8732411781816265,1.4458715764634331,2.9770623944164116,0.8767507262240485,1.4344489040357526,2.9707067386665624,0.013534723228154716,False,,,140,82,0,-3,0,0,-1,0
1777596374.960172,6,left,1777596374.4461818,0.5139901638031006,0.8732411781816265,1.4458715764634331,2.9770623944164116,0.8729076884314393,1.4354536060112126,2.969346205673734,0.012968611817362953,False,,,140,82,0,-1,0,0,-1,0
1777596375.0009081,6,left,1777596374.4461818,0.5547263622283936,0.8732411781816265,1.4458715764634331,2.9770623944164116,0.8471095779393166,1.465006058645253,2.9450915169683918,0.045509624744515004,False,,,140,82,0,-1,0,0,-1,0
1777596375.041616,6,left,1777596374.4461818,0.5954341888427734,0.8732411781816265,1.4458715764634331,2.9770623944164116,0.8297386753933966,1.4095102221815958,2.974214661674172,0.05676905332855621,False,,,140,82,0,-1,0,0,-1,0
1777596375.0814111,6,left,1777596374.4461818,0.6352293491363525,0.8732411781816265,1.4458715764634331,2.9770623944164116,0.8412670508873368,1.4720678886993994,2.952452186909229,0.04810669292876269,False,,,140,82,0,0,0,0,-1,0
1777596375.120589,6,left,1777596374.4461818,0.6744072437286377,0.8732411781816265,1.4458715764634331,2.9770623944164116,0.839043175875476,1.4668287175395132,2.9429422287886915,0.052658245567785936,False,,,140,82,0,0,0,0,-1,0
1777596375.160639,6,left,1777596374.4461818,0.7144572734832764,0.8732411781816265,1.4458715764634331,2.9770623944164116,0.8332562501672317,1.4687941077207975,2.941579292278832,0.058166033429030366,False,,,140,82,0,0,0,0,-1,0
1777596375.1996958,6,left,1777596374.4461818,0.7535140514373779,0.8732411781816265,1.4458715764634331,2.9770623944164116,0.8300928932681915,1.4683152231653924,2.9422205263897494,0.05982848431843048,False,,,140,82,0,0,0,0,-1,0
1777596375.240235,6,left,1777596374.4461818,0.794053316116333,0.8732411781816265,1.4458715764634331,2.9770623944164116,0.7914144522773465,1.4504027411039697,2.9543357951722755,0.08504494598985515,False,,,140,82,0,0,0,0,-1,0
1777596375.281711,6,left,1777596374.4461818,0.8355293273925781,0.8732411781816265,1.4458715764634331,2.9770623944164116,0.7873188335016287,1.4512736377586766,2.953346788775749,0.0892987207772281,False,,,140,82,0,0,0,0,0,0
1777596375.3215182,6,left,1777596374.4461818,0.8753364086151123,0.8732411781816265,1.4458715764634331,2.9770623944164116,0.7849030637472424,1.4460187124303427,2.943796019619647,0.09439436319470518,False,,,140,82,0,0,0,0,0,0
1777596375.362112,6,left,1777596374.4461818,0.9159302711486816,0.8732411781816265,1.4458715764634331,2.9770623944164116,0.807185112005244,1.4160021467823305,2.9689004037838536,0.07295344268270637,False,,,140,82,0,-1,0,0,0,0
1777596375.400604,6,left,1777596374.4461818,0.9544222354888916,0.8732411781816265,1.4458715764634331,2.9770623944164116,0.7436616338940492,1.4292846823168301,2.9541796433437932,0.13262580311484734,True,,,140,82,0,-1,0,0,0,0
1777596375.4411142,6,left,1777596374.4461818,0.9949324131011963,0.8732411781816265,1.4458715764634331,2.9770623944164116,0.7793647146643763,1.4543401488144383,2.951652410240332,0.09762261221662956,False,,,140,82,0,-1,0,0,0,0
1777596375.479834,6,left,1777596374.4461818,1.0336523056030273,0.8732411781816265,1.4458715764634331,2.9770623944164116,0.7751978596192581,1.4550545319968538,2.950879421836348,0.1018939008978417,True,,,140,82,0,-1,0,0,0,0
1777596375.518285,6,left,1777596374.4461818,1.0721032619476318,0.8732411781816265,1.4458715764634331,2.9770623944164116,0.7585566580191759,1.4004379694994777,2.9789742107216877,0.12337101299832073,True,,,140,82,0,-1,0,0,0,0
1777596375.558283,6,left,1777596374.4461818,1.1121013164520264,0.8732411781816265,1.4458715764634331,2.9770623944164116,0.7555960786773879,1.4009958261183852,2.978431697566861,0.12592091723582347,True,,,140,82,0,-1,0,0,0,0
1777596375.5986362,6,left,1777596374.4461818,1.1524543762207031,0.8732411781816265,1.4458715764634331,2.9770623944164116,0.7684342564463937,1.4576330251353222,2.949801411766961,0.10893109608137772,True,,,140,82,-1,-1,0,0,0,0
1777596375.6389802,6,left,1777596374.4461818,1.192798376083374,0.8732411781816265,1.4458715764634331,2.9770623944164116,0.7642645905184468,1.4566131602385561,2.950658605952278,0.11264296838226258,True,1777596375.479834,1033.6523056030273,140,82,-1,-1,0,0,0,0
1777596375.6792371,6,left,1777596374.4461818,1.2330553531646729,0.8732411781816265,1.4458715764634331,2.9770623944164116,0.7231381161811543,1.4363369603953515,2.9501540274894857,0.1527936462558486,True,,,140,82,-1,-1,0,0,-1,0
1777596375.7189429,6,left,1777596374.4461818,1.2727611064910889,0.8732411781816265,1.4458715764634331,2.9770623944164116,0.7533958093303952,1.4590629871533434,2.9488986751546293,0.12381486515654755,True,,,140,82,-1,-1,0,0,-1,0
1777596375.759079,6,left,1777596374.4461818,1.3128972053527832,0.8732411781816265,1.4458715764634331,2.9770623944164116,0.7027631319743719,1.473305400657618,2.933067408414851,0.1781879281596758,True,,,140,82,-1,-1,0,0,-1,0
1777596375.7975428,6,left,1777596374.4461818,1.3513610363006592,0.8732411781816265,1.4458715764634331,2.9770623944164116,0.6699915120958668,1.4207087248869956,2.958601329175741,0.2056317261349788,True,,,140,82,-1,-1,0,0,-1,0
1777596375.838264,6,left,1777596374.4461818,1.3920822143554688,0.8732411781816265,1.4458715764634331,2.9770623944164116,0.72525661075364,1.4956418285123636,2.931996156929458,0.1625037721011203,True,,,140,82,-1,-1,0,0,-1,0
1777596375.87788,6,left,1777596374.4461818,1.4316983222961426,0.8732411781816265,1.4458715764634331,2.9770623944164116,0.619341533283593,1.4079672483014054,2.9644558121817344,0.25702274935966635,True,,,140,82,-1,0,0,0,-1,0
1777596375.9182248,6,left,1777596374.4461818,1.4720430374145508,0.8732411781816265,1.4458715764634331,2.9770623944164116,0.658624181825447,1.425486871531327,2.957136172806768,0.21650183746969448,True,,,140,82,-1,0,0,0,-1,0
1777596375.957062,6,left,1777596374.4461818,1.5108802318572998,0.8732411781816265,1.4458715764634331,2.9770623944164116,0.6359442330337017,1.372648321620521,2.9816549134035584,0.24837990348853622,True,,,140,82,-1,0,0,0,-1,0
1777596375.997359,6,left,1777596374.4461818,1.5511772632598877,0.8732411781816265,1.4458715764634331,2.9770623944164116,0.6527854109467901,1.4277754780022018,2.9565546194612344,0.22214585956130523,True,,,140,82,0,0,0,0,-1,0
1777596383.3791318,7,right,1777596383.3788512,0.00028061866760253906,1.0828615575131837,1.4540763360424418,2.9879018725270448,1.0928001835091126,1.4074353741817243,2.991363400281905,0.04781357322327552,False,,,140,81,0,0,0,0,0,0
1777596383.419796,7,right,1777596383.3788512,0.040944814682006836,1.0828615575131837,1.4540763360424418,2.9879018725270448,1.1233191493933838,1.4409763575699297,2.977930723330557,0.043678942215027786,False,,,140,81,0,0,0,0,0,0
1777596383.4599428,7,right,1777596383.3788512,0.08109164237976074,1.0828615575131837,1.4540763360424418,2.9879018725270448,1.086205336908024,1.4692803935133245,2.9698555610953465,0.023833035486674894,False,,,140,81,0,0,0,0,0,0
1777596383.50008,7,right,1777596383.3788512,0.12122893333435059,1.0828615575131837,1.4540763360424418,2.9879018725270448,1.0946397690752516,1.4101499170401661,3.001186809141922,0.04737875151189216,False,,,140,81,0,0,0,0,0,0
1777596383.5401978,7,right,1777596383.3788512,0.1613466739654541,1.0828615575131837,1.4540763360424418,2.9879018725270448,1.1544235801130895,1.410730815710454,2.9841845641138454,0.08374828710653762,False,,,140,81,0,0,0,0,0,0
1777596383.579922,7,right,1777596383.3788512,0.20107078552246094,1.0828615575131837,1.4540763360424418,2.9879018725270448,1.1258739567674008,1.3776717346734397,3.0084515783424632,0.09005564951217958,False,,,140,81,0,0,0,0,0,0
1777596383.619502,7,right,1777596383.3788512,0.24065089225769043,1.0828615575131837,1.4540763360424418,2.9879018725270448,1.113565756846586,1.4371573288120199,2.9775802882713602,0.036544982746138585,False,,,140,81,0,0,0,0,0,0
1777596383.659573,7,right,1777596383.3788512,0.28072190284729004,1.0828615575131837,1.4540763360424418,2.9879018725270448,1.1501503864963707,1.4068328795983063,2.984587322724359,0.08228436621322426,False,,,140,81,0,3,0,0,0,0
1777596383.699775,7,right,1777596383.3788512,0.3209238052368164,1.0828615575131837,1.4540763360424418,2.9879018725270448,1.0836103951572424,1.4594143075103352,2.9603335829163315,0.028090305966104432,False,,,140,81,0,3,0,0,0,0
1777596383.740424,7,right,1777596383.3788512,0.3615727424621582,1.0828615575131837,1.4540763360424418,2.9879018725270448,1.0836103951572424,1.4594143075103352,2.9603335829163315,0.028090305966104432,False,,,140,81,0,2,0,0,0,0
1777596383.781698,7,right,1777596383.3788512,0.4028468132019043,1.0828615575131837,1.4540763360424418,2.9879018725270448,1.1669887448254364,1.3408057327815799,3.016452928676895,0.14395407606393898,True,,,140,81,0,2,0,0,0,0
1777596383.821463,7,right,1777596383.3788512,0.4426119327545166,1.0828615575131837,1.4540763360424418,2.9879018725270448,1.1177162038494997,1.428471024182734,2.9703838191607232,0.04666219626644079,False,,,140,81,0,2,0,0,0,0
1777596383.861645,7,right,1777596383.3788512,0.48279380798339844,1.0828615575131837,1.4540763360424418,2.9879018725270448,1.1231612605381278,1.4312552137443317,2.980892350749918,0.046840186617775156,False,,,140,81,0,1,0,0,1,0
1777596383.9013052,7,right,1777596383.3788512,0.522454023361206,1.0828615575131837,1.4540763360424418,2.9879018725270448,1.1537583892846954,1.4574305709137607,2.9582773795738464,0.0769104819224539,False,,,140,81,0,1,0,0,1,0
1777596383.941526,7,right,1777596383.3788512,0.5626747608184814,1.0828615575131837,1.4540763360424418,2.9879018725270448,1.1226761929152336,1.424145837155221,2.9739764233651544,0.05171999700499301,False,,,140,81,0,0,0,0,1,0
1777596383.9813278,7,right,1777596383.3788512,0.6024765968322754,1.0828615575131837,1.4540763360424418,2.9879018725270448,1.1610102554172141,1.4541161935069407,2.962601667509902,0.08214207780804156,False,,,140,81,0,0,0,0,1,0
1777596384.021594,7,right,1777596383.3788512,0.6427428722381592,1.0828615575131837,1.4540763360424418,2.9879018725270448,1.1018238437743864,1.3901897136598809,3.0020025173309466,0.06811678943982559,False,,,140,81,0,0,0,0,1,0
1777596384.061497,7,right,1777596383.3788512,0.6826457977294922,1.0828615575131837,1.4540763360424418,2.9879018725270448,1.1366488135780932,1.4182609545112843,2.9796887317498397,0.06514035731127603,False,,,140,81,0,0,0,0,1,0
1777596384.101613,7,right,1777596383.3788512,0.722761869430542,1.0828615575131837,1.4540763360424418,2.9879018725270448,1.1396562759282003,1.4166917197591475,2.981604294482047,0.06828549673044058,False,,,140,81,0,0,0,0,1,0
1777596384.142121,7,right,1777596383.3788512,0.7632699012756348,1.0828615575131837,1.4540763360424418,2.9879018725270448,1.1374093731775055,1.4717519798407195,2.9538314789485187,0.06669845797339011,False,,,140,81,0,0,0,0,1,0
