timestamp,command_idx,sdk_cmd,t_send,t_since_send,base_x,base_y,base_z,pos_x,pos_y,pos_z,displacement_m,movement_detected,t_move,latency_ms,tello_height_cm,tello_battery,tello_pitch,tello_roll,tello_yaw,tello_vgx,tello_vgy,tello_vgz
1777595814.366219,1,right,1777595814.36592,0.0002989768981933594,0.8423377529837585,1.4019508336222886,2.8418256977321605,0.8800585853804707,1.4430166105694044,2.8448680670817987,0.05584366789736098,False,,,120,84,0,0,0,0,0,0
1777595814.405303,1,right,1777595814.36592,0.0393829345703125,0.8423377529837585,1.4019508336222886,2.8418256977321605,0.8751969309916303,1.39051601738484,2.873489242120863,0.04704317851710875,False,,,120,84,0,0,0,0,0,0
1777595814.4440708,1,right,1777595814.36592,0.07815074920654297,0.8423377529837585,1.4019508336222886,2.8418256977321605,0.8800585853804707,1.4430166105694044,2.8448680670817987,0.05584366789736098,False,,,120,84,0,0,0,0,0,0
1777595814.48451,1,right,1777595814.36592,0.11858987808227539,0.8423377529837585,1.4019508336222886,2.8418256977321605,0.8800585853804707,1.4430166105694044,2.8448680670817987,0.05584366789736098,False,,,120,84,0,0,0,0,0,0
1777595814.524888,1,right,1777595814.36592,0.1589679718017578,0.8423377529837585,1.4019508336222886,2.8418256977321605,0.8466346125308263,1.419312575191662,2.849962383800966,0.019649395218968607,False,,,120,84,-1,0,0,0,0,0
1777595814.565669,1,right,1777595814.36592,0.19974899291992188,0.8423377529837585,1.4019508336222886,2.8418256977321605,0.8340001318456829,1.3657682215348776,2.878405327145507,0.05212261152060497,False,,,120,84,-1,0,0,0,0,0
1777595814.605383,1,right,1777595814.36592,0.23946285247802734,0.8423377529837585,1.4019508336222886,2.8418256977321605,0.8751969309916303,1.39051601738484,2.873489242120863,0.04704317851710875,False,,,120,84,-1,0,0,0,0,0
1777595814.645122,1,right,1777595814.36592,0.2792019844055176,0.8423377529837585,1.4019508336222886,2.8418256977321605,0.9403072117071742,1.4379811788107792,2.8505076096610593,0.10474529207416444,True,,,120,84,-1,1,0,0,0,0
1777595814.684544,1,right,1777595814.36592,0.31862401962280273,0.8423377529837585,1.4019508336222886,2.8418256977321605,0.8813881965302114,1.4427705112041416,2.845176851975747,0.056589870593821374,False,,,120,84,-1,1,0,0,0,0
1777595814.72432,1,right,1777595814.36592,0.3583998680114746,0.8423377529837585,1.4019508336222886,2.8418256977321605,0.8813881965302114,1.4427705112041416,2.845176851975747,0.056589870593821374,False,,,120,84,0,2,0,0,0,0
1777595814.7631109,1,right,1777595814.36592,0.39719080924987793,0.8423377529837585,1.4019508336222886,2.8418256977321605,0.837452264466013,1.3642590636838565,2.878881136478092,0.053081475674685276,False,,,120,84,0,2,0,0,0,0
1777595814.802799,1,right,1777595814.36592,0.43687891960144043,0.8423377529837585,1.4019508336222886,2.8418256977321605,0.877792348451619,1.3890828693503285,2.874571471026009,0.049948959077303984,False,,,120,84,0,2,0,0,0,0
1777595814.843053,1,right,1777595814.36592,0.47713303565979004,0.8423377529837585,1.4019508336222886,2.8418256977321605,0.917989365599483,1.461387143210358,2.830437752400502,0.0968789279858387,True,,,120,84,0,1,0,0,1,0
1777595814.88288,1,right,1777595814.36592,0.5169599056243896,0.8423377529837585,1.4019508336222886,2.8418256977321605,0.8824183293875915,1.3896337325625208,2.875707832011294,0.053908836072477484,False,,,120,84,0,1,0,0,1,0
1777595814.923603,1,right,1777595814.36592,0.557682991027832,0.8423377529837585,1.4019508336222886,2.8418256977321605,0.9215049266957211,1.4670943119948747,2.8404748886482336,0.10253262336057191,True,,,120,84,0,1,0,0,1,0
1777595814.963131,1,right,1777595814.36592,0.5972108840942383,0.8423377529837585,1.4019508336222886,2.8418256977321605,0.8910488157931578,1.442320060327218,2.84760754775918,0.06352851245315105,True,1777595814.923603,557.682991027832,120,84,0,0,0,0,1,0
1777595815.003701,1,right,1777595814.36592,0.6377809047698975,0.8423377529837585,1.4019508336222886,2.8418256977321605,0.9248415399161969,1.4100108192126442,2.861349015115575,0.0851645357385542,True,,,120,84,0,0,0,0,1,0
1777595815.043294,1,right,1777595814.36592,0.6773738861083984,0.8423377529837585,1.4019508336222886,2.8418256977321605,0.8659331931922358,1.4154672170774085,2.855434676594037,0.03040792209278156,False,,,120,83,0,0,0,0,1,0
1777595815.08428,1,right,1777595814.36592,0.7183599472045898,0.8423377529837585,1.4019508336222886,2.8418256977321605,0.8939137309295975,1.38769274011469,2.8785012520410915,0.06487272936610919,True,,,120,83,0,0,0,0,1,0
1777595815.123161,1,right,1777595814.36592,0.7572410106658936,0.8423377529837585,1.4019508336222886,2.8418256977321605,0.9304160114502665,1.4087391511499252,2.8628639927706634,0.09081008053887031,True,,,120,83,0,0,0,0,1,0
1777595815.163129,1,right,1777595814.36592,0.7972090244293213,0.8423377529837585,1.4019508336222886,2.8418256977321605,0.8835502015644856,1.3293249070520692,2.9084349802554588,0.10681660754054371,True,,,120,83,0,0,0,0,1,0
1777595815.203291,1,right,1777595814.36592,0.8373708724975586,0.8423377529837585,1.4019508336222886,2.8418256977321605,0.9062525712279567,1.4387492504104036,2.850812840199553,0.0742966769043537,True,,,120,83,0,0,0,0,1,0
1777595815.2434702,1,right,1777595814.36592,0.8775501251220703,0.8423377529837585,1.4019508336222886,2.8418256977321605,0.898551930317497,1.3804354790504743,2.871821411267473,0.06725092598732328,True,,,120,83,0,0,0,0,1,0
1777595815.2830012,1,right,1777595814.36592,0.9170811176300049,0.8423377529837585,1.4019508336222886,2.8418256977321605,0.9397009152465187,1.4047990524889937,2.865789437463599,0.10030931431543808,True,,,120,83,0,0,0,0,1,0
1777595815.323012,1,right,1777595814.36592,0.9570920467376709,0.8423377529837585,1.4019508336222886,2.8418256977321605,0.9397009152465187,1.4047990524889937,2.865789437463599,0.10030931431543808,True,,,120,83,0,0,0,0,1,0
1777595815.362138,1,right,1777595814.36592,0.9962179660797119,0.8423377529837585,1.4019508336222886,2.8418256977321605,0.9410885062704226,1.4044231304370745,2.866244443642314,0.10175509165662742,True,,,120,83,0,0,0,0,1,0
1777595815.402456,1,right,1777595814.36592,1.0365359783172607,0.8423377529837585,1.4019508336222886,2.8418256977321605,0.9487678673718355,1.4037367667090672,2.8671478662643377,0.10941558858234779,True,,,120,83,0,0,0,0,1,0
1777595815.442251,1,right,1777595814.36592,1.0763309001922607,0.8423377529837585,1.4019508336222886,2.8418256977321605,0.9761560108140698,1.3717208314300073,2.8791958564556066,0.1421889866491092,True,,,120,83,-1,0,0,0,1,0
1777595820.9129531,2,left,1777595820.912715,0.00023818016052246094,1.0985712588624774,1.558606608145221,2.8273515109950345,1.0005466231853675,1.4375486979517214,2.857531576780698,0.1586653181727959,True,,,120,81,0,0,0,0,0,0
1777595820.952252,2,left,1777595820.912715,0.03953695297241211,1.0985712588624774,1.558606608145221,2.8273515109950345,0.9757807657503531,1.460241011123868,2.837373272607724,0.1576506631191491,True,1777595820.9129531,0.23818016052246094,120,81,0,0,0,0,0,0
1777595820.9917052,2,left,1777595820.912715,0.07899022102355957,1.0985712588624774,1.558606608145221,2.8273515109950345,1.0292564060676055,1.4628423766444718,2.846894893891165,0.11982187057431799,True,,,120,81,0,0,0,0,0,0
1777595821.031214,2,left,1777595820.912715,0.1184990406036377,1.0985712588624774,1.558606608145221,2.8273515109950345,1.0030576632333275,1.434689051722836,2.857130430276555,0.15926453394676132,True,,,120,81,0,0,0,0,0,0
1777595821.072429,2,left,1777595820.912715,0.1597139835357666,1.0985712588624774,1.558606608145221,2.8273515109950345,0.9658900997255045,1.4059725383929673,2.8661462486038523,0.2059283392474275,True,,,120,81,0,-1,0,0,0,0
1777595821.1127949,2,left,1777595820.912715,0.20007991790771484,1.0985712588624774,1.558606608145221,2.8273515109950345,0.997431121498069,1.4332939731178431,2.8569742900555255,0.16373787870515144,True,,,120,81,0,-1,0,0,0,0
1777595821.153054,2,left,1777595820.912715,0.24033904075622559,1.0985712588624774,1.558606608145221,2.8273515109950345,1.0267898425796707,1.5085123974271073,2.817256627335801,0.08811304300232646,True,,,120,81,0,-4,0,0,0,0
1777595821.193069,2,left,1777595820.912715,0.28035402297973633,1.0985712588624774,1.558606608145221,2.8273515109950345,1.0004790902153937,1.432026880479845,2.85657249994758,0.16278319078176792,True,,,120,81,0,-4,0,0,0,0
1777595821.232919,2,left,1777595820.912715,0.3202040195465088,1.0985712588624774,1.558606608145221,2.8273515109950345,1.029578161061851,1.4602286625614829,2.8457746123928502,0.12156347472212999,True,,,120,81,0,-4,0,0,0,0
1777595821.273442,2,left,1777595820.912715,0.36072707176208496,1.0985712588624774,1.558606608145221,2.8273515109950345,0.9970458312830071,1.4313263017063704,2.855499724367126,0.16522714900524904,True,,,120,81,0,-3,0,0,0,0
1777595821.3136692,2,left,1777595820.912715,0.4009542465209961,1.0985712588624774,1.558606608145221,2.8273515109950345,0.9914274216119722,1.4364595150910886,2.8638252436875686,0.16652341390586511,True,,,120,81,0,-3,0,0,0,0
1777595821.35306,2,left,1777595820.912715,0.44034504890441895,1.0985712588624774,1.558606608145221,2.8273515109950345,0.9613038130133367,1.408513544180507,2.872522382481288,0.20835231501255305,True,,,120,81,0,-3,0,0,0,0
1777595821.393812,2,left,1777595820.912715,0.4810969829559326,1.0985712588624774,1.558606608145221,2.8273515109950345,0.9917052612339612,1.4360100561949896,2.8623303151807655,0.16635435894946532,True,,,120,81,0,-2,0,0,-1,0
1777595821.43437,2,left,1777595820.912715,0.5216550827026367,1.0985712588624774,1.558606608145221,2.8273515109950345,0.9852203452730115,1.4364859932434002,2.8618083510429355,0.17014449159949913,True,,,120,81,0,-2,0,0,-1,0
1777595827.472843,3,right,1777595827.472522,0.0003209114074707031,1.2238999584715953,1.4476694762883728,3.188469980392343,1.3905693740449496,1.4202627928745737,3.3042015448319697,0.20475257114613046,True,,,120,80,0,0,0,-1,1,0
1777595827.5127811,3,right,1777595827.472522,0.04025912284851074,1.2238999584715953,1.4476694762883728,3.188469980392343,1.434434765258831,1.487483315058724,3.2967150962454075,0.24005635116075053,True,1777595827.472843,0.3209114074707031,120,80,0,0,0,-1,1,0
1777595827.552785,3,right,1777595827.472522,0.08026289939880371,1.2238999584715953,1.4476694762883728,3.188469980392343,1.4523492669430356,1.4432165370903993,3.3295239876633556,0.26852401787510743,True,,,120,80,0,0,0,-1,1,0
1777595827.592795,3,right,1777595827.472522,0.12027287483215332,1.2238999584715953,1.4476694762883728,3.188469980392343,1.4004891888340836,1.4245750751474757,3.3147959580100568,0.21834688059403043,True,,,120,80,0,0,0,-1,1,0
1777595827.6329339,3,right,1777595827.472522,0.16041183471679688,1.2238999584715953,1.4476694762883728,3.188469980392343,1.4182286647887508,1.3753196901102713,3.348941720518855,0.2622009096821504,True,,,120,80,0,0,0,-1,1,0
1777595827.673109,3,right,1777595827.472522,0.20058703422546387,1.2238999584715953,1.4476694762883728,3.188469980392343,1.4220965574812747,1.3742872112375095,3.348421536982147,0.2650497106931077,True,,,120,80,0,0,0,-1,1,0
1777595827.713042,3,right,1777595827.472522,0.24052000045776367,1.2238999584715953,1.4476694762883728,3.188469980392343,1.483819571462575,1.3928743062018936,3.359983029392724,0.3161920964533965,True,,,120,80,0,0,0,-1,1,0
1777595827.753191,3,right,1777595827.472522,0.2806689739227295,1.2238999584715953,1.4476694762883728,3.188469980392343,1.4876234523347955,1.3920149126037287,3.3593502619928484,0.31913568010206816,True,,,120,80,0,0,0,-1,1,0
1777595827.794233,3,right,1777595827.472522,0.32171106338500977,1.2238999584715953,1.4476694762883728,3.188469980392343,1.3755223196363668,1.3596596764564803,3.342586504632116,0.23342443812801345,True,,,120,80,0,0,0,-1,1,0
1777595827.835435,3,right,1777595827.472522,0.3629128932952881,1.2238999584715953,1.4476694762883728,3.188469980392343,1.4499205625615967,1.3258938523579165,3.3913009347199443,0.3271926223042119,True,,,120,80,0,0,0,-1,1,0
1777595827.876477,3,right,1777595827.472522,0.40395498275756836,1.2238999584715953,1.4476694762883728,3.188469980392343,1.4984681747236783,1.397530122487368,3.368203248376931,0.33197245035673173,True,,,120,80,0,0,0,-1,1,0
1777595827.9166489,3,right,1777595827.472522,0.44412684440612793,1.2238999584715953,1.4476694762883728,3.188469980392343,1.4419455349197399,1.3805536594794428,3.3686081493401963,0.2906856828026088,True,,,120,80,0,0,0,-1,1,0
1777595827.957047,3,right,1777595827.472522,0.4845249652862549,1.2238999584715953,1.4476694762883728,3.188469980392343,1.5032616877385585,1.3990936427839924,3.3814198493723624,0.3429755666502791,True,,,120,80,0,0,0,-1,1,0
1777595827.996164,3,right,1777595827.472522,0.5236420631408691,1.2238999584715953,1.4476694762883728,3.188469980392343,1.5067068680264815,1.3982499411862321,3.380869994674554,0.3456006424147564,True,,,120,80,0,0,0,-1,2,0
1777595834.0217202,4,left,1777595834.021409,0.00031113624572753906,1.8978974133991602,1.4240387703491788,4.129827335971623,1.9625067450525173,1.5430243673615993,4.285072970497803,0.20599307044784745,True,,,120,78,0,0,0,-2,1,0
1777595834.0615811,4,left,1777595834.021409,0.04017210006713867,1.8978974133991602,1.4240387703491788,4.129827335971623,1.9513072941402523,1.3597597752764927,4.329646107777841,0.21659165758282964,True,1777595834.0217202,0.31113624572753906,120,78,0,0,0,-1,1,0
1777595834.102478,4,left,1777595834.021409,0.0810689926147461,1.8978974133991602,1.4240387703491788,4.129827335971623,2.060064931714857,1.4595806231766955,4.3293601888127915,0.2595667287269696,True,,,120,78,0,0,0,-1,1,0
1777595834.143289,4,left,1777595834.021409,0.12188005447387695,1.8978974133991602,1.4240387703491788,4.129827335971623,1.9690499793943212,1.547925461938441,4.30697779670063,0.22758050385990497,True,,,120,78,0,0,0,-1,1,0
1777595834.183284,4,left,1777595834.021409,0.16187500953674316,1.8978974133991602,1.4240387703491788,4.129827335971623,1.951573904706813,1.3705425108294675,4.37372002541814,0.2553951046264517,True,,,120,78,0,0,0,-1,1,0
1777595834.22364,4,left,1777595834.021409,0.20223093032836914,1.8978974133991602,1.4240387703491788,4.129827335971623,1.9571277776764087,1.3761169231598118,4.395520343237457,0.27640100144612273,True,,,120,78,0,0,0,-1,1,0
1777595834.264401,4,left,1777595834.021409,0.24299192428588867,1.8978974133991602,1.4240387703491788,4.129827335971623,2.0518522142457485,1.625390585410237,4.286137507615774,0.297787682571861,True,,,120,78,0,0,0,-1,1,0
1777595834.305291,4,left,1777595834.021409,0.28388190269470215,1.8978974133991602,1.4240387703491788,4.129827335971623,1.9641007973793847,1.5514235012236797,4.330676266956248,0.2468806407721528,True,,,120,78,0,0,0,-1,1,0
1777595834.345678,4,left,1777595834.021409,0.32426905632019043,1.8978974133991602,1.4240387703491788,4.129827335971623,,,,,False,,,120,78,0,0,0,-1,1,0
1777595834.38573,4,left,1777595834.021409,0.3643209934234619,1.8978974133991602,1.4240387703491788,4.129827335971623,1.9515550407177806,1.3773492987976153,4.420078081761642,0.29883865739708226,True,,,120,78,0,0,0,-1,1,0
1777595834.426333,4,left,1777595834.021409,0.4049239158630371,1.8978974133991602,1.4240387703491788,4.129827335971623,1.9618281923304945,1.5586613303969559,4.3527077378710475,0.26811574313984926,True,,,120,78,0,0,0,-1,1,0
1777595834.466939,4,left,1777595834.021409,0.4455299377441406,1.8978974133991602,1.4240387703491788,4.129827335971623,1.956993206801738,1.383010671705034,4.442396136313195,0.32074113023309553,True,,,120,78,0,0,0,-1,1,0
1777595834.5072372,4,left,1777595834.021409,0.485828161239624,1.8978974133991602,1.4240387703491788,4.129827335971623,1.9674776823901263,1.5736277427177066,4.396199856110512,0.3133250611940739,True,,,120,78,0,0,0,-1,1,0
1777595834.547588,4,left,1777595834.021409,0.5261790752410889,1.8978974133991602,1.4240387703491788,4.129827335971623,2.058820737726221,1.4786643789013683,4.420957110799856,0.33710060696134503,True,,,120,78,0,0,0,-1,1,0
1777595840.568574,5,right,1777595840.568343,0.00023102760314941406,2.072291261524391,1.3893842813669963,4.340766900069137,2.102983900036865,1.492890037906824,4.131744257850403,0.23525718831916798,True,,,120,77,0,0,1,1,0,0
1777595840.608656,5,right,1777595840.568343,0.040313005447387695,2.072291261524391,1.3893842813669963,4.340766900069137,2.1061371288833177,1.4940187269681955,4.131434705919045,0.2364611542119346,True,1777595840.568574,0.23102760314941406,120,77,0,0,1,1,0,0
1777595840.6489239,5,right,1777595840.568343,0.0805809497833252,2.072291261524391,1.3893842813669963,4.340766900069137,2.1898817869413283,1.4203811630626197,4.1455531183537975,0.2299929540535711,True,,,130,77,0,0,1,1,0,0
1777595840.689857,5,right,1777595840.568343,0.12151408195495605,2.072291261524391,1.3893842813669963,4.340766900069137,2.1088849039699764,1.4937564431647052,4.132584021000612,0.2357387409040406,True,,,130,77,0,0,1,1,0,0
1777595840.7299452,5,right,1777595840.568343,0.16160225868225098,2.072291261524391,1.3893842813669963,4.340766900069137,2.12190450024299,1.3234010998651118,4.17390591410297,0.18616616860982224,True,,,130,77,0,0,1,0,0,0
1777595840.7710521,5,right,1777595840.568343,0.20270919799804688,2.072291261524391,1.3893842813669963,4.340766900069137,2.197203857576429,1.4140153775599105,4.128373658626104,0.24763024161600863,True,,,130,77,0,0,1,0,0,0
1777595840.8119848,5,right,1777595840.568343,0.24364185333251953,2.072291261524391,1.3893842813669963,4.340766900069137,2.100525628151145,1.6175778538293848,4.05862902305743,0.36396602536038253,True,,,130,77,0,0,1,0,0,0
1777595840.852212,5,right,1777595840.568343,0.28386902809143066,2.072291261524391,1.3893842813669963,4.340766900069137,2.1117513193646267,1.475856824628949,4.097517576590144,0.2611605450215108,True,,,130,77,0,0,1,0,0,0
1777595840.892906,5,right,1777595840.568343,0.32456302642822266,2.072291261524391,1.3893842813669963,4.340766900069137,2.1115250028977006,1.4733984044000308,4.099439255897263,0.25852793112680167,True,,,130,77,0,0,1,0,0,0
1777595840.931906,5,right,1777595840.568343,0.36356306076049805,2.072291261524391,1.3893842813669963,4.340766900069137,2.1043544316256586,1.6069841406927643,4.041585199259529,0.37133197513123806,True,,,120,77,0,0,1,0,0,0
1777595840.9728131,5,right,1777595840.568343,0.40447020530700684,2.072291261524391,1.3893842813669963,4.340766900069137,2.262412210834961,1.4815819281177331,4.0646289985348805,0.34770464779302085,True,,,120,77,0,0,1,0,0,0
1777595841.0136588,5,right,1777595840.568343,0.4453158378601074,2.072291261524391,1.3893842813669963,4.340766900069137,2.104003427621944,1.5962952619633057,4.026775064452995,0.3773707569533172,True,,,120,77,0,0,1,0,0,0
1777595841.054106,5,right,1777595840.568343,0.4857630729675293,2.072291261524391,1.3893842813669963,4.340766900069137,2.111705883963893,1.462569326515148,4.084935236541312,0.2689970322490564,True,,,120,77,0,0,1,0,0,0
1777595841.094406,5,right,1777595840.568343,0.5260629653930664,2.072291261524391,1.3893842813669963,4.340766900069137,2.2064235697783547,1.3894127426070546,4.095865804850799,0.2792275476501555,True,,,120,77,0,0,1,0,0,0
1777595847.114366,6,left,1777595847.1140559,0.0003101825714111328,1.89409038762147,1.4135782864720838,2.978155836107773,2.2048294195548066,1.5856295844892052,2.7770313461929272,0.4081806653428728,True,,,130,75,0,0,0,1,0,0
1777595847.154631,6,left,1777595847.1140559,0.04057502746582031,1.89409038762147,1.4135782864720838,2.978155836107773,,,,,False,,,130,75,0,0,0,1,0,0
1777595847.194653,6,left,1777595847.1140559,0.0805971622467041,1.89409038762147,1.4135782864720838,2.978155836107773,2.0606111445733237,1.6136948345815625,2.780349074422519,0.3269607167405259,True,1777595847.114366,0.3101825714111328,130,75,0,0,0,1,0,0
1777595847.2344162,6,left,1777595847.1140559,0.1203603744506836,1.89409038762147,1.4135782864720838,2.978155836107773,2.2046374817452876,1.5781425140146603,2.7691691738522115,0.4088964510192674,True,,,130,75,0,0,0,1,0,0
1777595847.274125,6,left,1777595847.1140559,0.16006922721862793,1.89409038762147,1.4135782864720838,2.978155836107773,2.306415265844639,1.586588494038517,2.7502358109462635,0.5018883092816115,True,,,130,75,0,0,0,1,0,0
1777595847.313657,6,left,1777595847.1140559,0.1996011734008789,1.89409038762147,1.4135782864720838,2.978155836107773,2.306415265844639,1.586588494038517,2.7502358109462635,0.5018883092816115,True,,,130,75,0,0,0,1,0,0
1777595847.352573,6,left,1777595847.1140559,0.23851704597473145,1.89409038762147,1.4135782864720838,2.978155836107773,2.1960911136718693,1.5634206143970228,2.76342182934302,0.3997097139602415,True,,,130,75,0,0,0,1,0,0
1777595847.3927538,6,left,1777595847.1140559,0.2786979675292969,1.89409038762147,1.4135782864720838,2.978155836107773,2.342093923233873,1.4901065685774508,2.755850234636907,0.5059481458890187,True,,,130,75,0,0,0,0,0,0
1777595847.432915,6,left,1777595847.1140559,0.3188591003417969,1.89409038762147,1.4135782864720838,2.978155836107773,2.305307799838883,1.5797930776535334,2.7516207545174813,0.4980414240898027,True,,,130,75,0,0,0,0,0,0
1777595847.473342,6,left,1777595847.1140559,0.3592860698699951,1.89409038762147,1.4135782864720838,2.978155836107773,1.8067303676235031,1.2376312122643953,2.7734881865820746,0.28368643389958764,True,,,130,75,0,0,0,0,0,0
1777595847.5137842,6,left,1777595847.1140559,0.39972829818725586,1.89409038762147,1.4135782864720838,2.978155836107773,2.3009275746639033,1.5734176757726988,2.754128086032563,0.49117569151613566,True,,,130,75,0,0,0,0,0,0
1777595847.553199,6,left,1777595847.1140559,0.43914318084716797,1.89409038762147,1.4135782864720838,2.978155836107773,2.4132394894468474,1.5220651050605305,2.7365695755780446,0.5827942184084158,True,,,130,75,0,0,0,0,0,0
1777595847.5957031,6,left,1777595847.1140559,0.481647253036499,1.89409038762147,1.4135782864720838,2.978155836107773,,,,,False,,,130,75,0,0,0,0,0,0
1777595847.635835,6,left,1777595847.1140559,0.5217790603637695,1.89409038762147,1.4135782864720838,2.978155836107773,2.3842418818783577,1.5896009919431249,2.741723628467642,0.5719551284613074,True,,,130,75,0,0,0,0,0,0
1777595853.6776278,7,right,1777595853.677345,0.0002827644348144531,1.8402413835185647,1.509301127649917,3.347952161331421,1.779237164167858,1.364624507851695,3.499618636982978,0.21830153213249043,True,,,120,74,0,0,0,-1,0,0
1777595853.7175848,7,right,1777595853.677345,0.040239810943603516,1.8402413835185647,1.509301127649917,3.347952161331421,1.762322531170474,1.507510172749143,3.4399776964382864,0.12059541526279141,True,1777595853.6776278,0.2827644348144531,120,74,0,0,0,-1,0,0
1777595853.757872,7,right,1777595853.677345,0.08052706718444824,1.8402413835185647,1.509301127649917,3.347952161331421,1.7046543459221433,1.479135900367734,3.4541341730803827,0.17483822614124125,True,,,120,74,0,0,0,-1,0,0
1777595853.796743,7,right,1777595853.677345,0.11939787864685059,1.8402413835185647,1.509301127649917,3.347952161331421,1.7745381598717724,1.365174599281871,3.513541084600365,0.22914855724261904,True,,,120,74,0,0,0,-1,0,0
1777595853.8379898,7,right,1777595853.677345,0.1606447696685791,1.8402413835185647,1.509301127649917,3.347952161331421,1.7086128302815773,1.4829179730992008,3.4677213735482284,0.179907784896441,True,,,120,74,0,0,0,-1,0,0
1777595853.878164,7,right,1777595853.677345,0.2008190155029297,1.8402413835185647,1.509301127649917,3.347952161331421,1.7355344659885614,1.427456273659979,3.5049485667134777,0.2056939231143115,True,,,120,74,0,0,0,-1,0,0
1777595853.9188302,7,right,1777595853.677345,0.2414851188659668,1.8402413835185647,1.509301127649917,3.347952161331421,1.7356044938002382,1.4257152222027538,3.5049717561629987,0.2063749874389341,True,,,120,74,0,0,0,-1,0,0
1777595853.959153,7,right,1777595853.677345,0.28180789947509766,1.8402413835185647,1.509301127649917,3.347952161331421,1.7313118633266074,1.4304557363537684,3.5188404018888404,0.2174512056961361,True,,,120,74,0,0,0,-1,0,0
1777595854.000267,7,right,1777595853.677345,0.3229219913482666,1.8402413835185647,1.509301127649917,3.347952161331421,1.7812355746449913,1.5957710405539296,3.4408140663472553,0.13993593077412975,True,,,120,74,0,0,0,-1,0,0
1777595854.0406039,7,right,1777595853.677345,0.36325883865356445,1.8402413835185647,1.509301127649917,3.347952161331421,1.8536968522161965,1.4987516639647072,3.495909284322482,0.14894177072168346,True,,,120,74,0,0,0,-1,0,0
1777595854.080645,7,right,1777595853.677345,0.40330004692077637,1.8402413835185647,1.509301127649917,3.347952161331421,1.7356169310458318,1.4301625837883294,3.5328581446364535,0.22671437502230107,True,,,120,74,0,0,0,-1,0,0
1777595854.121016,7,right,1777595853.677345,0.44367098808288574,1.8402413835185647,1.509301127649917,3.347952161331421,1.7769829399042267,1.3715324674783118,3.5706115934561513,0.26936788436652026,True,,,120,74,0,0,0,-1,0,0
1777595854.1613991,7,right,1777595853.677345,0.4840540885925293,1.8402413835185647,1.509301127649917,3.347952161331421,1.7988935543537132,1.46536695840474,3.5305993140796743,0.19235341590664154,True,,,120,74,0,0,0,-1,0,0
1777595854.202352,7,right,1777595853.677345,0.5250070095062256,1.8402413835185647,1.509301127649917,3.347952161331421,1.7357208789341914,1.4308874487598375,3.547869466287317,0.23883083916545897,True,,,120,74,0,0,0,-1,0,0
1777595860.240962,8,left,1777595860.2407491,0.0002129077911376953,1.883035049582721,1.512826842064591,3.6754338926394836,1.7110514142370707,1.511431158850715,3.4485862581912627,0.2846755486744388,True,,,120,74,0,0,1,2,0,0
1777595860.280397,8,left,1777595860.2407491,0.039647817611694336,1.883035049582721,1.512826842064591,3.6754338926394836,2.096935961943571,1.5535663794317047,3.4546795021987675,0.3100738800875406,True,1777595860.240962,0.2129077911376953,120,74,0,0,1,2,0,0
1777595860.320687,8,left,1777595860.2407491,0.07993793487548828,1.883035049582721,1.512826842064591,3.6754338926394836,2.096935961943571,1.5535663794317047,3.4546795021987675,0.3100738800875406,True,,,120,74,0,0,1,2,0,0
1777595860.3609521,8,left,1777595860.2407491,0.12020301818847656,1.883035049582721,1.512826842064591,3.6754338926394836,,,,,False,,,120,74,0,0,1,2,0,0
1777595860.400896,8,left,1777595860.2407491,0.16014695167541504,1.883035049582721,1.512826842064591,3.6754338926394836,,,,,False,,,120,74,0,0,1,2,0,0
1777595860.440578,8,left,1777595860.2407491,0.1998288631439209,1.883035049582721,1.512826842064591,3.6754338926394836,1.7093838246345134,1.4929525755404025,3.4083935871651447,0.31915554067525714,True,,,120,74,0,0,1,2,0,0
1777595860.480909,8,left,1777595860.2407491,0.2401599884033203,1.883035049582721,1.512826842064591,3.6754338926394836,1.5634300449006022,1.5682175271298582,3.373788518661584,0.4429508083886106,True,,,120,74,0,0,1,2,0,0
1777595860.521472,8,left,1777595860.2407491,0.28072285652160645,1.883035049582721,1.512826842064591,3.6754338926394836,1.5634300449006022,1.5682175271298582,3.373788518661584,0.4429508083886106,True,,,120,74,0,0,1,2,0,0
1777595860.561568,8,left,1777595860.2407491,0.3208189010620117,1.883035049582721,1.512826842064591,3.6754338926394836,1.711833443048759,1.4935971111392154,3.3819943637640297,0.34027419787271596,True,,,120,74,0,0,1,1,0,0
1777595860.601077,8,left,1777595860.2407491,0.36032795906066895,1.883035049582721,1.512826842064591,3.6754338926394836,1.711833443048759,1.4935971111392154,3.3819943637640297,0.34027419787271596,True,,,120,74,0,0,1,1,0,0
1777595860.6412501,8,left,1777595860.2407491,0.400501012802124,1.883035049582721,1.512826842064591,3.6754338926394836,1.9196897276443432,1.7273040104933015,3.364191498835421,0.37975761862256546,True,,,120,74,0,0,1,1,0,0
1777595860.681037,8,left,1777595860.2407491,0.44028782844543457,1.883035049582721,1.512826842064591,3.6754338926394836,1.6032331795303614,1.3607473876374576,3.3476240012588026,0.4570301651211504,True,,,120,74,0,0,1,1,0,0
1777595860.719754,8,left,1777595860.2407491,0.4790048599243164,1.883035049582721,1.512826842064591,3.6754338926394836,2.0989667762611623,1.5619653825416382,3.3621914157311674,0.3836169392586888,True,,,120,74,0,0,1,1,0,0
1777595860.759868,8,left,1777595860.2407491,0.5191187858581543,1.883035049582721,1.512826842064591,3.6754338926394836,,,,,False,,,120,74,0,0,1,1,0,0
1777595866.810658,9,right,1777595866.8103921,0.0002658367156982422,0.9457644131464387,1.5546331027903209,3.1138167930793146,0.5433435468584822,1.5248391888648947,3.054396787682557,0.40787371571639147,True,,,120,73,0,0,1,0,-3,0
1777595866.850435,9,right,1777595866.8103921,0.040042877197265625,0.9457644131464387,1.5546331027903209,3.1138167930793146,0.533736020264888,1.5150955492506337,3.0553929312632193,0.41802387767921023,True,1777595866.810658,0.2658367156982422,120,73,0,0,1,0,-3,0
1777595866.89036,9,right,1777595866.8103921,0.07996797561645508,0.9457644131464387,1.5546331027903209,3.1138167930793146,0.41129676511010393,1.4886619898655602,3.0274192947537197,0.5454102879988093,True,,,120,73,0,0,1,0,-3,0
1777595866.930589,9,right,1777595866.8103921,0.12019681930541992,0.9457644131464387,1.5546331027903209,3.1138167930793146,0.46257186969595376,1.7086438484004502,2.972127731585589,0.526564463248812,True,,,120,73,0,0,1,0,-3,0
1777595866.970457,9,right,1777595866.8103921,0.1600649356842041,0.9457644131464387,1.5546331027903209,3.1138167930793146,0.45540939722346757,1.7237163722488742,2.9584977118031297,0.5414436357185197,True,,,120,73,0,0,1,0,-3,0
1777595867.0104902,9,right,1777595866.8103921,0.20009803771972656,0.9457644131464387,1.5546331027903209,3.1138167930793146,0.45897101541271945,1.7336612493341321,2.9642551154114307,0.5398032833902396,True,,,120,73,0,0,1,0,-3,0
1777595867.050463,9,right,1777595866.8103921,0.24007081985473633,0.9457644131464387,1.5546331027903209,3.1138167930793146,0.5388085742879083,1.679741178285635,2.95136448222295,0.45569270197992456,True,,,120,73,0,0,1,0,-3,0
1777595867.090235,9,right,1777595866.8103921,0.2798428535461426,0.9457644131464387,1.5546331027903209,3.1138167930793146,0.3751552090926344,1.7443553487841592,2.9837986494516313,0.6152187513789313,True,,,120,73,0,0,1,0,-3,0
1777595867.129174,9,right,1777595866.8103921,0.31878185272216797,0.9457644131464387,1.5546331027903209,3.1138167930793146,0.46093839578656637,1.6746959602461136,2.975125887985125,0.5183691001644781,True,,,120,72,0,0,1,0,-2,0
1777595867.169237,9,right,1777595866.8103921,0.3588447570800781,0.9457644131464387,1.5546331027903209,3.1138167930793146,0.4605314703991525,1.6767871090991884,2.963904158350863,0.5223470187870551,True,,,120,72,0,0,1,0,-2,0
1777595867.209297,9,right,1777595866.8103921,0.39890480041503906,0.9457644131464387,1.5546331027903209,3.1138167930793146,0.4574086791353702,1.6879502012729952,2.972274961619744,0.5256413813069306,True,,,120,72,0,0,1,0,-2,0
1777595867.249612,9,right,1777595866.8103921,0.43921995162963867,0.9457644131464387,1.5546331027903209,3.1138167930793146,0.46115407288023463,1.6943126288295562,2.9796350253161057,0.521883414842368,True,,,120,72,0,0,1,0,-2,0
1777595867.290331,9,right,1777595866.8103921,0.4799387454986572,0.9457644131464387,1.5546331027903209,3.1138167930793146,0.37193211260113,1.693505383704367,2.9923658176834564,0.6027597854701294,True,,,120,72,0,0,1,0,-2,0
1777595867.330206,9,right,1777595866.8103921,0.5198137760162354,0.9457644131464387,1.5546331027903209,3.1138167930793146,0.37193211260113,1.693505383704367,2.9923658176834564,0.6027597854701294,True,,,120,72,0,0,1,0,-2,0
1777595873.373559,10,left,1777595873.37328,0.0002789497375488281,1.9436044611624144,1.6159689811166356,3.8753116657334044,1.929534829468775,1.6915395012209737,3.941193149111734,0.10123847043967,True,,,120,71,0,0,3,0,0,0
1777595873.4132962,10,left,1777595873.37328,0.04001617431640625,1.9436044611624144,1.6159689811166356,3.8753116657334044,1.9724005708705226,1.4991271543806381,4.021710120686507,0.18950919772396743,True,1777595873.373559,0.2789497375488281,120,71,0,0,3,0,0,0
1777595873.453444,10,left,1777595873.37328,0.08016395568847656,1.9436044611624144,1.6159689811166356,3.8753116657334044,1.97569775425162,1.6249970243879184,3.9653510084338133,0.0960133754251953,True,,,120,71,0,0,1,0,0,0
1777595873.493118,10,left,1777595873.37328,0.11983799934387207,1.9436044611624144,1.6159689811166356,3.8753116657334044,1.8174324631926928,1.5168903107176446,4.0069501987449145,0.2075202625603721,True,,,120,71,0,0,1,0,0,0
1777595873.531141,10,left,1777595873.37328,0.15786099433898926,1.9436044611624144,1.6159689811166356,3.8753116657334044,1.9488481673517308,1.5062126890901948,4.038273381666545,0.19654633284258138,True,,,120,71,0,0,1,0,0,0
1777595873.572455,10,left,1777595873.37328,0.1991748809814453,1.9436044611624144,1.6159689811166356,3.8753116657334044,2.0129856123002834,1.4248499195540592,4.060297438328456,0.2748817489182643,True,,,120,71,0,0,0,-1,0,0
1777595873.612842,10,left,1777595873.37328,0.2395620346069336,1.9436044611624144,1.6159689811166356,3.8753116657334044,1.9507623367145068,1.6306836921068735,3.9814515379038875,0.10739380972063509,True,,,120,71,0,0,0,-1,0,0
1777595873.653803,10,left,1777595873.37328,0.28052306175231934,1.9436044611624144,1.6159689811166356,3.8753116657334044,1.942741747008433,1.5033098321878833,4.0371794972892046,0.19721567636889106,True,,,120,71,0,0,0,-1,0,0
1777595873.694499,10,left,1777595873.37328,0.32121896743774414,1.9436044611624144,1.6159689811166356,3.8753116657334044,2.0153038313963605,1.5680313627353435,4.020974682584997,0.16928239550030683,True,,,120,71,0,0,0,-1,0,0
1777595873.735685,10,left,1777595873.37328,0.36240506172180176,1.9436044611624144,1.6159689811166356,3.8753116657334044,1.950013622683388,1.633911018110644,3.998937368657492,0.12508520482603458,True,,,120,71,0,0,0,-1,0,0
1777595873.775724,10,left,1777595873.37328,0.40244388580322266,1.9436044611624144,1.6159689811166356,3.8753116657334044,1.937186907574655,1.4975912244338296,4.037760208470688,0.20110695489905994,True,,,120,71,0,0,0,0,0,0
1777595873.815711,10,left,1777595873.37328,0.4424309730529785,1.9436044611624144,1.6159689811166356,3.8753116657334044,1.9347182748300853,1.504820745085369,4.056457402074907,0.21271265236252423,True,,,120,71,0,0,0,0,0,0
1777595873.855863,10,left,1777595873.37328,0.48258304595947266,1.9436044611624144,1.6159689811166356,3.8753116657334044,1.874282715986475,1.581175592184835,4.031088479020537,0.17401867665710904,True,,,120,71,0,0,0,0,0,0
1777595873.8970912,10,left,1777595873.37328,0.5238111019134521,1.9436044611624144,1.6159689811166356,3.8753116657334044,1.9498620444920918,1.629801663106503,3.9989372831230954,0.12455438055380845,True,,,120,71,0,0,0,0,0,0
1777595879.942963,11,right,1777595879.942682,0.0002808570861816406,2.5785221705753005,1.5582960156686942,4.928605844291441,,,,,False,,,120,71,0,0,0,8,-7,0
1777595879.982785,11,right,1777595879.942682,0.04010295867919922,2.5785221705753005,1.5582960156686942,4.928605844291441,,,,,False,,,120,71,0,0,2,8,-7,0
1777595880.022667,11,right,1777595879.942682,0.07998490333557129,2.5785221705753005,1.5582960156686942,4.928605844291441,,,,,False,,,120,71,0,0,2,8,-7,0
1777595880.063564,11,right,1777595879.942682,0.12088203430175781,2.5785221705753005,1.5582960156686942,4.928605844291441,,,,,False,,,120,71,0,0,2,8,-7,0
1777595880.104223,11,right,1777595879.942682,0.16154098510742188,2.5785221705753005,1.5582960156686942,4.928605844291441,,,,,False,,,120,71,0,0,2,8,-6,0
1777595880.145121,11,right,1777595879.942682,0.2024390697479248,2.5785221705753005,1.5582960156686942,4.928605844291441,,,,,False,,,120,71,0,0,2,8,-6,0
1777595880.185202,11,right,1777595879.942682,0.24251985549926758,2.5785221705753005,1.5582960156686942,4.928605844291441,1.995307337206962,0.9763054097456529,4.428731107890723,0.9637050167635401,True,,,120,71,0,0,1,7,-6,0
1777595880.225566,11,right,1777595879.942682,0.282883882522583,2.5785221705753005,1.5582960156686942,4.928605844291441,2.1097748935218754,1.3435368100321337,4.294877740907207,0.816980315044142,True,1777595880.185202,242.51985549926758,120,71,0,0,1,7,-6,0
1777595880.2653801,11,right,1777595879.942682,0.32269811630249023,2.5785221705753005,1.5582960156686942,4.928605844291441,2.0017341748170216,1.234588895696771,4.3195340988760735,0.8991324055080497,True,,,120,71,0,0,1,7,-6,0
1777595880.305795,11,right,1777595879.942682,0.3631129264831543,2.5785221705753005,1.5582960156686942,4.928605844291441,1.8988131357019944,1.3334920625137734,4.255096146974387,0.982932602889227,True,,,120,71,0,0,1,7,-5,0
1777595880.346134,11,right,1777595879.942682,0.40345191955566406,2.5785221705753005,1.5582960156686942,4.928605844291441,1.851750852147818,1.123077762748101,4.3144151496985925,1.0463468288710587,True,,,120,71,0,0,1,7,-5,0
1777595880.385557,11,right,1777595879.942682,0.4428749084472656,2.5785221705753005,1.5582960156686942,4.928605844291441,1.9891260750438604,1.2120853254033461,4.261765249399262,0.9549481548638498,True,,,120,71,0,0,1,7,-5,0
1777595880.426115,11,right,1777595879.942682,0.4834330081939697,2.5785221705753005,1.5582960156686942,4.928605844291441,1.9900785579752232,1.2040933401506277,4.243231730176636,0.9702902126954803,True,,,120,71,0,0,1,7,-5,0
1777595880.4669938,11,right,1777595879.942682,0.5243117809295654,2.5785221705753005,1.5582960156686942,4.928605844291441,1.9811440958028905,1.2045595261020008,4.243776166783381,0.9751829343592677,True,,,120,71,0,0,1,7,-5,0
1777595880.5075688,11,right,1777595879.942682,0.5648868083953857,2.5785221705753005,1.5582960156686942,4.928605844291441,1.8872423945556862,1.303365357764131,4.179257447812594,1.0508950415616212,True,,,120,71,0,0,1,6,-5,0
1777595880.54788,11,right,1777595879.942682,0.6051979064941406,2.5785221705753005,1.5582960156686942,4.928605844291441,1.948629331837441,0.926188148862737,4.267238502873778,1.1107349386172585,True,,,120,71,0,0,1,6,-5,0
1777595880.5879412,11,right,1777595879.942682,0.6452591419219971,2.5785221705753005,1.5582960156686942,4.928605844291441,1.7105912538183934,0.826300681922454,4.258992742173533,1.3181437521821067,True,,,120,71,1,1,1,6,-4,0
1777595880.628312,11,right,1777595879.942682,0.6856300830841064,2.5785221705753005,1.5582960156686942,4.928605844291441,1.7630780144057205,1.21339862606939,4.147075282781598,1.1809713797367924,True,,,120,71,1,1,1,6,-4,0
1777595880.6692832,11,right,1777595879.942682,0.7266011238098145,2.5785221705753005,1.5582960156686942,4.928605844291441,1.8336830265342012,1.07597637480988,4.1798164399334965,1.161078446330298,True,,,120,71,1,1,1,6,-4,0
1777595880.709684,11,right,1777595879.942682,0.7670018672943115,2.5785221705753005,1.5582960156686942,4.928605844291441,1.70460657663037,0.8115728175789035,4.20117853345358,1.3603214665873535,True,,,120,71,2,1,1,5,-4,0
1777595886.468051,12,left,1777595886.467694,0.00035691261291503906,1.5221187455272758,1.4936504994436368,3.7757538024007578,1.533294665260538,1.4128374536821444,3.60743826374935,0.187044834461278,True,,,130,70,0,0,1,2,-1,0
1777595886.50827,12,left,1777595886.467694,0.04057598114013672,1.5221187455272758,1.4936504994436368,3.7757538024007578,1.515976044095205,1.4780642659684164,3.582608207294889,0.19387079296177623,True,1777595886.468051,0.35691261291503906,130,70,0,0,1,2,0,0
1777595886.548029,12,left,1777595886.467694,0.08033490180969238,1.5221187455272758,1.4936504994436368,3.7757538024007578,1.5589525134639208,1.5519410619579985,3.536413933607985,0.24907446463335603,True,,,130,70,0,0,1,2,0,0
1777595886.586833,12,left,1777595886.467694,0.11913895606994629,1.5221187455272758,1.4936504994436368,3.7757538024007578,1.542357652700101,1.4146515164610078,3.6049445858606135,0.18927821092481256,True,,,130,70,0,0,1,2,0,0
1777595886.6264699,12,left,1777595886.467694,0.15877580642700195,1.5221187455272758,1.4936504994436368,3.7757538024007578,1.4688890417820242,1.3885527203479873,3.5922680960704616,0.21805033583824834,True,,,130,70,0,0,1,1,0,0
1777595886.66691,12,left,1777595886.467694,0.19921588897705078,1.5221187455272758,1.4936504994436368,3.7757538024007578,1.4710614615927002,1.3888608782130987,3.591870596109827,0.2177171204022516,True,,,130,70,0,0,1,1,0,0
1777595886.7074728,12,left,1777595886.467694,0.23977875709533691,1.5221187455272758,1.4936504994436368,3.7757538024007578,1.5928489101588374,1.492531493755349,3.559290280058887,0.2277289284811831,True,,,130,70,0,0,1,1,0,0
1777595886.748031,12,left,1777595886.467694,0.280336856842041,1.5221187455272758,1.4936504994436368,3.7757538024007578,1.534349927943495,1.4655525768744337,3.549798521668726,0.2280238670988084,True,,,130,70,0,0,1,1,0,0
1777595886.78854,12,left,1777595886.467694,0.3208458423614502,1.5221187455272758,1.4936504994436368,3.7757538024007578,1.5593175627104647,1.4083947090404285,3.5882029923063183,0.20935044342963444,True,,,130,70,0,0,1,1,0,0
1777595886.8288739,12,left,1777595886.467694,0.36117982864379883,1.5221187455272758,1.4936504994436368,3.7757538024007578,1.6071584782160666,1.4958086832421533,3.5549573122191296,0.23661678716780643,True,,,130,70,0,0,1,1,0,0
1777595886.868285,12,left,1777595886.467694,0.4005908966064453,1.5221187455272758,1.4936504994436368,3.7757538024007578,1.6089299185560564,1.4941687592281427,3.5547857760231443,0.23740959760939492,True,,,130,70,0,0,1,1,0,0
1777595886.9086652,12,left,1777595886.467694,0.44097113609313965,1.5221187455272758,1.4936504994436368,3.7757538024007578,1.574358184271784,1.4088978485924937,3.585182072744469,0.21501059260144958,True,,,130,70,0,0,1,1,0,0
1777595886.948583,12,left,1777595886.467694,0.48088884353637695,1.5221187455272758,1.4936504994436368,3.7757538024007578,1.576088484976184,1.401892096703647,3.5706036825525183,0.2311253100015752,True,,,130,70,0,0,1,0,0,0
1777595886.988822,12,left,1777595886.467694,0.5211279392242432,1.5221187455272758,1.4936504994436368,3.7757538024007578,1.556876537070966,1.4674979285614143,3.5440785952456495,0.23572327557351358,True,,,130,70,0,0,1,0,0,0
1777595893.007487,13,right,1777595893.007156,0.0003311634063720703,2.1895922334883244,1.3773848661736674,4.107295581036202,2.2901796873728437,1.4369001378550008,4.261843624422251,0.19376532495967694,True,,,120,69,0,0,0,-1,1,0
1777595893.048376,13,right,1777595893.007156,0.04122018814086914,2.1895922334883244,1.3773848661736674,4.107295581036202,2.2211201299097847,1.3365778658194818,4.316705078424417,0.21566538231031346,True,1777595893.007487,0.3311634063720703,120,69,0,0,0,-1,1,0
1777595893.088578,13,right,1777595893.007156,0.08142209053039551,2.1895922334883244,1.3773848661736674,4.107295581036202,2.1939091102172474,1.5042495075556928,4.256879587912403,0.196185238412124,True,,,120,69,0,0,0,-2,1,0
1777595893.128125,13,right,1777595893.007156,0.12096905708312988,2.1895922334883244,1.3773848661736674,4.107295581036202,2.2974319270172896,1.4421390379287433,4.286327421095146,0.21880334095940682,True,,,120,69,0,0,0,-2,1,0
1777595893.168436,13,right,1777595893.007156,0.16128015518188477,2.1895922334883244,1.3773848661736674,4.107295581036202,2.4123075981259534,1.3798478622916206,4.306827038569938,0.29903344719460073,True,,,120,69,0,0,0,-2,1,0
1777595893.2091148,13,right,1777595893.007156,0.20195889472961426,2.1895922334883244,1.3773848661736674,4.107295581036202,2.41788908479304,1.3888815415930922,4.328961464768588,0.3184138657034371,True,,,120,69,0,0,0,-2,0,0
1777595893.2494578,13,right,1777595893.007156,0.24230194091796875,2.1895922334883244,1.3773848661736674,4.107295581036202,2.3655490993562998,1.5399862399715718,4.2782245030365145,0.294307189486148,True,,,120,69,0,0,0,-2,0,0
1777595893.290727,13,right,1777595893.007156,0.2835710048675537,2.1895922334883244,1.3773848661736674,4.107295581036202,2.4790528502032076,1.49828681152426,4.317326273069427,0.37751506011611463,True,,,120,69,0,0,0,-2,0,0
1777595893.3313339,13,right,1777595893.007156,0.32417798042297363,2.1895922334883244,1.3773848661736674,4.107295581036202,2.4790528502032076,1.49828681152426,4.317326273069427,0.37751506011611463,True,,,120,69,0,0,0,-2,0,0
1777595893.372423,13,right,1777595893.007156,0.3652670383453369,2.1895922334883244,1.3773848661736674,4.107295581036202,2.4347939167724615,1.3936406281152638,4.3774860299668825,0.3652273182211851,True,,,120,69,0,0,0,-2,1,0
1777595893.411257,13,right,1777595893.007156,0.4041011333465576,2.1895922334883244,1.3773848661736674,4.107295581036202,2.440117808109671,1.3948843053789024,4.400676936929255,0.3861889613874273,True,,,120,69,0,0,0,-2,1,0
1777595893.451311,13,right,1777595893.007156,0.444155216217041,2.1895922334883244,1.3773848661736674,4.107295581036202,2.3845701877601306,1.5553606766415768,4.35057541246215,0.35899424527750495,True,,,120,69,0,0,0,-2,1,0
1777595893.4921339,13,right,1777595893.007156,0.48497796058654785,2.1895922334883244,1.3773848661736674,4.107295581036202,2.3306043077731036,1.4556709934340315,4.407510530889209,0.34079633057115755,True,,,120,69,0,0,0,-2,1,0
1777595893.5328581,13,right,1777595893.007156,0.5257022380828857,2.1895922334883244,1.3773848661736674,4.107295581036202,2.391868531806963,1.5585059242320578,4.374513657284184,0.3809541164068896,True,,,120,69,0,0,0,-2,1,0
1777595899.570772,14,left,1777595899.570524,0.000247955322265625,1.3351134675235812,1.5597812208329076,3.4415122401410074,1.9002603481778086,1.6007292872369243,3.831407989531184,0.6878127915704672,True,,,120,68,0,0,0,-1,2,0
1777595899.6116211,14,left,1777595899.570524,0.041097164154052734,1.3351134675235812,1.5597812208329076,3.4415122401410074,1.961507861794923,1.543415804545972,3.8675842461202246,0.7577434383113852,True,1777595899.570772,0.247955322265625,120,68,0,0,0,-1,2,0
1777595899.6510952,14,left,1777595899.570524,0.08057117462158203,1.3351134675235812,1.5597812208329076,3.4415122401410074,1.9727332279906158,1.5522592834744393,3.883350855865336,0.775781477495341,True,,,120,68,0,0,0,-1,2,0
1777595899.69064,14,left,1777595899.570524,0.12011599540710449,1.3351134675235812,1.5597812208329076,3.4415122401410074,1.980672915608781,1.4338670012228905,3.9509680707403745,0.8319535053377433,True,,,120,68,0,0,0,-1,2,0
1777595899.730269,14,left,1777595899.570524,0.1597449779510498,1.3351134675235812,1.5597812208329076,3.4415122401410074,1.923081594193724,1.5073313078151194,3.929258822825552,0.7657377098432739,True,,,120,68,0,0,0,-1,2,0
1777595899.770559,14,left,1777595899.570524,0.20003509521484375,1.3351134675235812,1.5597812208329076,3.4415122401410074,1.9447569830939049,1.519993600167087,3.9640762276586408,0.8039411619549779,True,,,120,68,0,0,0,-1,2,0
1777595899.81057,14,left,1777595899.570524,0.24004602432250977,1.3351134675235812,1.5597812208329076,3.4415122401410074,2.032371716189136,1.578694027828587,3.9460486596308075,0.8608622178909933,True,,,120,68,0,0,0,-1,2,0
1777595899.85065,14,left,1777595899.570524,0.28012609481811523,1.3351134675235812,1.5597812208329076,3.4415122401410074,2.0395530393405084,1.5854211159246367,3.9644465685324577,0.8776974571981782,True,,,120,68,0,0,0,-1,1,0
1777595899.891705,14,left,1777595899.570524,0.321181058883667,1.3351134675235812,1.5597812208329076,3.4415122401410074,2.0465454053068477,1.591874873231145,3.9839929286044033,0.8952377907450246,True,,,120,68,0,0,0,-1,1,0
1777595899.932321,14,left,1777595899.570524,0.3617970943450928,1.3351134675235812,1.5597812208329076,3.4415122401410074,2.1291466025474093,1.5299527179032468,4.018823585035539,0.9821744997945766,True,,,120,68,0,0,0,-1,1,0
1777595899.9727979,14,left,1777595899.570524,0.40227389335632324,1.3351134675235812,1.5597812208329076,3.4415122401410074,2.236412497943813,1.4845141764564116,4.084873646887731,1.109918451912908,True,,,120,68,0,0,0,-1,1,0
1777595900.01196,14,left,1777595899.570524,0.4414360523223877,1.3351134675235812,1.5597812208329076,3.4415122401410074,2.088256581496676,1.6036264232211086,4.042791616152928,0.9647195654255369,True,,,120,68,0,0,0,-1,1,0
1777595900.050498,14,left,1777595899.570524,0.47997403144836426,1.3351134675235812,1.5597812208329076,3.4415122401410074,2.2353296958373106,1.6168096490790695,4.051212181690745,1.088749520355062,True,,,120,68,0,0,0,-1,1,0
1777595900.089167,14,left,1777595899.570524,0.5186431407928467,1.3351134675235812,1.5597812208329076,3.4415122401410074,2.2498854897240945,1.6210713753377686,4.07006009642394,1.111591985972333,True,,,120,68,0,0,0,-1,1,0
1777595906.117161,15,right,1777595906.116887,0.0002739429473876953,3.3313370475022257,1.4352476230408255,5.070051304977059,3.596279238686659,1.43188890162142,5.169261951579894,0.2829282560624415,True,,,110,67,0,0,0,-1,1,0
1777595906.1576269,15,right,1777595906.116887,0.04073977470397949,3.3313370475022257,1.4352476230408255,5.070051304977059,3.6254868413864125,1.2967231297603847,5.1775673503536686,0.34245121768528963,True,1777595906.117161,0.2739429473876953,110,67,0,0,0,-1,2,0
1777595906.197877,15,right,1777595906.116887,0.08098983764648438,3.3313370475022257,1.4352476230408255,5.070051304977059,3.461354420907887,1.5600596504488382,5.197410497623549,0.22068738868492552,True,,,110,67,0,0,0,-1,2,0
1777595906.239806,15,right,1777595906.116887,0.12291884422302246,3.3313370475022257,1.4352476230408255,5.070051304977059,3.531730149809361,1.2870800805005616,5.29139685678919,0.33332397066775066,True,,,110,67,0,0,0,-1,2,0
1777595906.281845,15,right,1777595906.116887,0.16495800018310547,3.3313370475022257,1.4352476230408255,5.070051304977059,3.6711672308827286,1.3068276448887608,5.242314209987094,0.4020581460031612,True,,,110,67,0,0,0,-2,2,0
1777595906.323568,15,right,1777595906.116887,0.2066810131072998,3.3313370475022257,1.4352476230408255,5.070051304977059,3.6711672308827286,1.3068276448887608,5.242314209987094,0.4020581460031612,True,,,110,67,0,0,0,-2,2,0
1777595906.364365,15,right,1777595906.116887,0.24747800827026367,3.3313370475022257,1.4352476230408255,5.070051304977059,3.5612763760918686,1.2847950887970496,5.323462630384993,0.37379855502347287,True,,,110,67,0,0,0,-2,2,0
1777595906.4050078,15,right,1777595906.116887,0.28812074661254883,3.3313370475022257,1.4352476230408255,5.070051304977059,3.661460952252477,1.4401892152571913,5.238822602757801,0.37079638991740677,True,,,110,67,0,0,0,-2,2,0
1777595906.445297,15,right,1777595906.116887,0.32840991020202637,3.3313370475022257,1.4352476230408255,5.070051304977059,3.737418821241376,1.686872757491725,5.129888656159582,0.48145417626925663,True,,,110,67,0,0,0,-2,2,0
1777595906.486043,15,right,1777595906.116887,0.3691558837890625,3.3313370475022257,1.4352476230408255,5.070051304977059,,,,,False,,,110,67,-4,-16,16,0,-2,0
1777595906.525464,15,right,1777595906.116887,0.40857696533203125,3.3313370475022257,1.4352476230408255,5.070051304977059,,,,,False,,,110,67,-4,-16,16,0,-2,0
1777595906.5658538,15,right,1777595906.116887,0.44896674156188965,3.3313370475022257,1.4352476230408255,5.070051304977059,,,,,False,,,110,67,0,-18,25,1,-6,0
1777595906.6060789,15,right,1777595906.116887,0.48919177055358887,3.3313370475022257,1.4352476230408255,5.070051304977059,,,,,False,,,110,67,0,-18,25,1,-6,0
1777595906.646485,15,right,1777595906.116887,0.5295979976654053,3.3313370475022257,1.4352476230408255,5.070051304977059,,,,,False,,,110,67,0,-18,25,1,-6,0
1777595912.681548,16,left,1777595912.681333,0.00021505355834960938,3.0197269444209764,1.5694514882813695,5.249432796143333,3.2526811084808056,1.4396790046993582,5.36459676269936,0.29046734625560744,True,,,120,66,0,0,0,-1,2,0
1777595912.722156,16,left,1777595912.681333,0.04082298278808594,3.0197269444209764,1.5694514882813695,5.249432796143333,3.2518318827510773,1.6012069808013711,5.334639872087942,0.24928168703985898,True,1777595912.681548,0.21505355834960938,120,66,0,0,0,-1,2,0
1777595912.7615318,16,left,1777595912.681333,0.08019876480102539,3.0197269444209764,1.5694514882813695,5.249432796143333,3.1049783560031803,1.6173258327529605,5.399792801550894,0.1793540834815437,True,,,120,66,0,0,0,-1,2,0
1777595912.802756,16,left,1777595912.681333,0.12142300605773926,3.0197269444209764,1.5694514882813695,5.249432796143333,3.1156418792522764,1.61206993152482,5.403573811538648,0.18648179282516106,True,,,120,66,0,0,0,-1,2,0
1777595912.844401,16,left,1777595912.681333,0.16306781768798828,3.0197269444209764,1.5694514882813695,5.249432796143333,3.114828662358412,1.6060259444564822,5.407543518460447,0.18809845323871247,True,,,120,66,0,0,0,-1,2,0
1777595912.885403,16,left,1777595912.681333,0.2040698528289795,3.0197269444209764,1.5694514882813695,5.249432796143333,2.9834781366797722,1.801751727290053,5.415530028900401,0.28786397453607443,True,,,120,66,0,0,0,-1,2,0
1777595912.926404,16,left,1777595912.681333,0.2450709342956543,3.0197269444209764,1.5694514882813695,5.249432796143333,3.280993707177111,1.5822312266990304,5.381367016656501,0.2929680555581298,True,,,120,66,0,0,0,-1,2,0
1777595912.9677389,16,left,1777595912.681333,0.2864058017730713,3.0197269444209764,1.5694514882813695,5.249432796143333,3.591782951706171,1.448702673940121,5.319218016628463,0.5888109447301859,True,,,120,66,0,0,0,-1,2,0
1777595913.0077288,16,left,1777595912.681333,0.32639575004577637,3.0197269444209764,1.5694514882813695,5.249432796143333,,,,,False,,,120,66,-3,-4,1,0,0,0
1777595913.047464,16,left,1777595912.681333,0.3661308288574219,3.0197269444209764,1.5694514882813695,5.249432796143333,3.91921080244612,1.3217285948343676,5.093742517539534,0.9458738317752954,True,,,120,66,-3,-4,1,0,0,0
1777595913.0866601,16,left,1777595912.681333,0.40532708168029785,3.0197269444209764,1.5694514882813695,5.249432796143333,,,,,False,,,120,66,-3,-4,1,0,0,0
1777595913.1262121,16,left,1777595912.681333,0.44487905502319336,3.0197269444209764,1.5694514882813695,5.249432796143333,3.792329109798162,1.5872913210064694,5.144119344978342,0.7799508244584763,True,,,120,66,-3,-4,1,2,-2,0
1777595913.167393,16,left,1777595912.681333,0.48605990409851074,3.0197269444209764,1.5694514882813695,5.249432796143333,,,,,False,,,120,66,-3,-4,1,2,-2,0
1777595913.2084649,16,left,1777595912.681333,0.5271317958831787,3.0197269444209764,1.5694514882813695,5.249432796143333,3.4123848918083146,1.5725901066730055,5.311851357658244,0.3976005424964064,True,,,120,66,0,0,0,2,-2,0
1777595919.230475,17,right,1777595919.2302022,0.0002727508544921875,2.8716475793660456,1.5678452074830376,5.277534315576617,2.8269257688277176,1.5672330554957683,5.207457272701505,0.08313366950882109,True,,,120,65,0,0,0,0,-2,0
1777595919.271401,17,right,1777595919.2302022,0.04119873046875,2.8716475793660456,1.5678452074830376,5.277534315576617,2.8236312145157694,1.5690938544461193,5.206099160739016,0.08608200601371485,True,1777595919.230475,0.2727508544921875,120,65,0,0,0,0,-1,0
1777595919.312692,17,right,1777595919.2302022,0.0824897289276123,2.8716475793660456,1.5678452074830376,5.277534315576617,2.8220065733162403,1.5699996134323584,5.205436969182973,0.08756082630740959,True,,,120,65,0,0,0,0,-1,0
1777595919.3531551,17,right,1777595919.2302022,0.12295293807983398,2.8716475793660456,1.5678452074830376,5.277534315576617,2.8203957925523326,1.570891493710962,5.204785052887084,0.08904201667331724,True,,,120,65,0,0,0,0,-1,0
1777595919.3939729,17,right,1777595919.2302022,0.1637706756591797,2.8716475793660456,1.5678452074830376,5.277534315576617,2.5934976958834186,1.4515520313974934,5.2916307347155325,0.3018114800964376,True,,,120,65,0,0,0,0,-1,0
1777595919.434465,17,right,1777595919.2302022,0.20426273345947266,2.8716475793660456,1.5678452074830376,5.277534315576617,2.8172187188543276,1.572624371468947,5.203516146444469,0.09200016644921646,True,,,120,65,0,0,0,0,-1,0
1777595919.475329,17,right,1777595919.2302022,0.24512672424316406,2.8716475793660456,1.5678452074830376,5.277534315576617,2.6440568384528764,1.62097463395436,5.20605314372755,0.24439688875984655,True,,,120,65,0,0,0,0,-1,0
1777595919.515658,17,right,1777595919.2302022,0.28545570373535156,2.8716475793660456,1.5678452074830376,5.277534315576617,2.5288795609251737,1.2381183825796904,5.339476017976399,0.4796315961474053,True,,,120,65,0,0,0,0,-1,0
1777595919.556167,17,right,1777595919.2302022,0.32596468925476074,2.8716475793660456,1.5678452074830376,5.277534315576617,2.592001096889761,1.4492982063603939,5.287133991686363,0.3038876443982927,True,,,120,65,0,0,0,0,-1,0
1777595919.597025,17,right,1777595919.2302022,0.3668227195739746,2.8716475793660456,1.5678452074830376,5.277534315576617,,,,,False,,,120,65,0,0,0,0,0,0
1777595919.6384158,17,right,1777595919.2302022,0.40821361541748047,2.8716475793660456,1.5678452074830376,5.277534315576617,2.4845366469169146,1.6971411666054288,5.219694086929877,0.4122108818516584,True,,,120,65,0,0,0,0,0,0
1777595919.6791859,17,right,1777595919.2302022,0.44898366928100586,2.8716475793660456,1.5678452074830376,5.277534315576617,2.5835178109341315,1.4558774250081412,5.288243030787968,0.30930603671841267,True,,,120,65,0,0,0,0,0,0
1777595919.719854,17,right,1777595919.2302022,0.4896519184112549,2.8716475793660456,1.5678452074830376,5.277534315576617,2.5827362240931686,1.4540727960037416,5.288225227419694,0.31068992326025197,True,,,120,65,0,0,0,0,0,0
1777595919.759653,17,right,1777595919.2302022,0.5294508934020996,2.8716475793660456,1.5678452074830376,5.277534315576617,2.6382847456423013,1.6209540595020169,5.204617119126386,0.25019128654793577,True,,,120,65,0,0,0,0,0,0
1777595925.7770638,18,left,1777595925.776758,0.0003058910369873047,2.6918456855271025,1.5355992388551714,5.228970755118036,2.509468129328849,1.4387946864946541,5.1483559864780135,0.2216561194405685,True,,,120,64,0,0,0,0,-1,0
1777595925.818479,18,left,1777595925.776758,0.04172110557556152,2.6918456855271025,1.5355992388551714,5.228970755118036,2.5071403091780473,1.4332857334306315,5.118095285328708,0.23849004013901234,True,1777595925.7770638,0.3058910369873047,110,64,0,0,0,0,0,0
1777595925.8594382,18,left,1777595925.776758,0.08268022537231445,2.6918456855271025,1.5355992388551714,5.228970755118036,2.433689938737264,1.2383411957586024,5.198987810132722,0.39484897210986025,True,,,110,64,0,0,0,0,0,0
1777595925.9011571,18,left,1777595925.776758,0.12439918518066406,2.6918456855271025,1.5355992388551714,5.228970755118036,2.324628836058863,1.5202094444404461,5.128668813097865,0.38097971058643637,True,,,110,64,0,0,0,0,0,0
1777595925.942513,18,left,1777595925.776758,0.165755033493042,2.6918456855271025,1.5355992388551714,5.228970755118036,2.6940148835836784,1.3811334332556862,5.116228426169816,0.19124649867742724,True,,,110,64,0,0,0,0,0,0
1777595925.983851,18,left,1777595925.776758,0.2070930004119873,2.6918456855271025,1.5355992388551714,5.228970755118036,2.5630989014540657,1.6022675638474277,5.068820346290621,0.2160290568743254,True,,,110,64,0,0,0,0,0,0
1777595926.024406,18,left,1777595925.776758,0.24764800071716309,2.6918456855271025,1.5355992388551714,5.228970755118036,2.4045143861409604,1.6677954649129094,5.051280099909616,0.3627796669319203,True,,,110,64,0,0,0,0,0,0
1777595926.065332,18,left,1777595925.776758,0.2885739803314209,2.6918456855271025,1.5355992388551714,5.228970755118036,2.5055035940591086,1.4349601974450414,5.117570464769986,0.2392939957421538,True,,,110,64,0,0,0,0,0,0
1777595926.1060789,18,left,1777595925.776758,0.32932090759277344,2.6918456855271025,1.5355992388551714,5.228970755118036,2.3242628623271884,1.5215708078148968,5.1282548890261594,0.3813890591924575,True,,,110,64,0,0,0,0,0,0
1777595926.146796,18,left,1777595925.776758,0.3700380325317383,2.6918456855271025,1.5355992388551714,5.228970755118036,2.693228955252897,1.3823148127662357,5.116053506933766,0.19038995155747243,True,,,110,64,0,0,0,0,0,0
1777595926.187456,18,left,1777595925.776758,0.41069793701171875,2.6918456855271025,1.5355992388551714,5.228970755118036,2.5055035940591086,1.4349601974450414,5.117570464769986,0.2392939957421538,True,,,110,64,0,0,0,0,0,0
1777595926.2277188,18,left,1777595925.776758,0.4509608745574951,2.6918456855271025,1.5355992388551714,5.228970755118036,2.3247804721514687,1.522488560074406,5.128171138687626,0.38087967055371935,True,,,110,64,0,0,0,0,0,0
1777595926.267825,18,left,1777595925.776758,0.49106693267822266,2.6918456855271025,1.5355992388551714,5.228970755118036,2.432021026642149,1.2416655339890705,5.198411276447946,0.39349683347846914,True,,,110,64,0,0,0,0,0,0
