timestamp,elapsed,phase,wp_idx,wp_name,wp_x,wp_y,wp_z,pos_x,pos_y,pos_z,marker_id,err_x_cm,err_y_cm,err_z_cm,err_3d_cm,cmd_lr,cmd_fb,cmd_ud,feedback,publish_count,tello_height_cm,tello_baro_cm,tello_battery,tello_temp_c,tello_pitch,tello_roll,tello_yaw,tello_vgx,tello_vgy,tello_vgz
1778083674.7034729,0.003149747848510742,nav,1,front-left,-0.42853552384739935,1.3799492463489362,3.004807415897972,-0.10076606813149847,1.45777809158339,3.2939556453366374,0,-32.77694557159009,-7.782884523445377,-28.914822943866536,44.39559030335575,-30,30,-30,ok,0,130,248339.0,47,70.5,0,0,1,0,0,0
1778083674.7759511,0.07562804222106934,nav,1,front-left,-0.42853552384739935,1.3799492463489362,3.004807415897972,-0.2053462028212174,1.395264188905208,3.317302449109415,0,-22.318932102618195,-1.531494255627175,-31.24950332114431,38.43190943310662,22,27,20,ok,3,130,248332.00000000003,47,70.5,0,0,1,0,0,0
1778083674.846921,0.14659786224365234,nav,1,front-left,-0.42853552384739935,1.3799492463489362,3.004807415897972,-0.151301914964215,1.423500518072407,3.300582111776941,0,-27.72336088831844,-4.355127172347073,-29.577469587896886,40.772277086940164,-30,12,-13,ok,7,130,248333.0,47,70.5,0,0,1,0,0,0
1778083674.9249191,0.2245960235595703,nav,1,front-left,-0.42853552384739935,1.3799492463489362,3.004807415897972,-0.17974373845049824,1.472448535271162,3.282068846529469,0,-24.879178539690113,-9.24992889222258,-27.72614306314969,38.38324788861925,-6,11,-22,ok,11,130,248333.0,47,70.5,0,0,1,0,0,0
1778083674.996167,0.29584383964538574,nav,1,front-left,-0.42853552384739935,1.3799492463489362,3.004807415897972,-0.13411215097389068,1.507597395514635,3.2759756315227313,0,-29.442337287350867,-12.764814916569867,-27.116821562475923,42.01325667509691,-30,14,-21,ok,14,130,248336.0,47,70.5,0,-1,1,0,0,0
1778083675.0653188,0.36499571800231934,nav,1,front-left,-0.42853552384739935,1.3799492463489362,3.004807415897972,-0.11429328223863408,1.3833704035579477,3.3321499288536884,0,-31.424224160876523,-0.3421157209011483,-32.73425129557164,45.37763893330213,-26,30,30,ok,18,130,248331.0,47,70.5,-1,0,1,0,0,0
1778083675.135036,0.43471288681030273,nav,1,front-left,-0.42853552384739935,1.3799492463489362,3.004807415897972,-0.14546863373180188,1.4288047697764465,3.300620096988515,0,-28.306689011559747,-4.885552342751032,-29.58126810905428,41.2333443638843,-6,7,-20,ok,21,130,248331.0,47,70.5,-1,0,1,0,0,0
1778083675.2065349,0.5062117576599121,nav,1,front-left,-0.42853552384739935,1.3799492463489362,3.004807415897972,-0.14885246490251514,1.4283855543269777,3.300396543128712,0,-27.96830589448842,-4.843630797804144,-29.55891272307398,40.980681000727856,-16,18,-3,ok,25,130,248334.0,47,70.5,-1,-1,1,0,0,0
1778083675.2772942,0.5769710540771484,nav,1,front-left,-0.42853552384739935,1.3799492463489362,3.004807415897972,-0.1175234365524057,1.379167950402734,3.317753614803885,0,-31.101208729499362,0.07812959462021318,-31.294619890591278,44.12079467514195,-30,26,17,ok,28,130,248338.0,47,70.5,-1,-1,1,0,0,0
1778083675.348368,0.6480448246002197,nav,1,front-left,-0.42853552384739935,1.3799492463489362,3.004807415897972,-0.09719384557871685,1.459209583117338,3.279906090067189,0,-33.13416782686825,-7.926033676840172,-27.509867416921672,43.78912984659645,-28,4,-30,ok,32,130,248338.0,47,70.5,-1,-1,1,0,0,0
1778083675.419297,0.7189738750457764,nav,1,front-left,-0.42853552384739935,1.3799492463489362,3.004807415897972,-0.14552306453143454,1.4193023004300631,3.2747704167546665,0,-28.30124593159648,-3.935305408112688,-26.996300085669446,39.309634547415264,-1,16,10,ok,35,130,248339.0,47,70.5,-1,-2,1,0,0,0
1778083675.4891038,0.788780689239502,nav,1,front-left,-0.42853552384739935,1.3799492463489362,3.004807415897972,-0.11205289742804901,1.36978713144501,3.2926252864319023,0,-31.648262641935034,1.0162114903926156,-28.781787053393025,42.79061205490019,-30,25,18,ok,39,130,248336.0,47,70.5,-1,-2,1,1,0,0
1778083675.5590668,0.8587436676025391,nav,1,front-left,-0.42853552384739935,1.3799492463489362,3.004807415897972,-0.16664094083555914,1.3370586457731104,3.296187329839278,0,-26.189458301184022,4.289060057582583,-29.13799139413058,39.41200711422135,1,20,14,ok,42,130,248336.0,47,70.5,-1,-2,1,1,0,0
1778083675.628823,0.9284999370574951,nav,1,front-left,-0.42853552384739935,1.3799492463489362,3.004807415897972,-0.10097890244534335,1.4475297514556025,3.241201839252158,0,-32.7556621402056,-6.758050510666624,-23.639442335418615,40.956414428970724,-30,-3,-30,ok,46,130,248334.0,47,71.0,-1,-2,1,1,-1,0
1778083675.698721,0.9983978271484375,nav,1,front-left,-0.42853552384739935,1.3799492463489362,3.004807415897972,-0.15148385560958158,1.408676743591101,3.234736958738963,0,-27.70516682378178,-2.8727497242164723,-22.99295428409911,36.11793053903055,0,13,11,ok,49,130,248329.0,47,71.0,0,-2,1,1,-1,0
1778083675.768966,1.0686428546905518,nav,1,front-left,-0.42853552384739935,1.3799492463489362,3.004807415897972,-0.14307394638048188,1.4771577556637965,3.1846920288756824,0,-28.546157746691748,-9.720850931486025,-17.988461297771032,35.11357009465981,-22,-4,-30,ok,53,130,248338.0,47,71.0,0,-1,1,1,-1,0
1778083675.8378859,1.1375627517700195,nav,1,front-left,-0.42853552384739935,1.3799492463489362,3.004807415897972,-0.15545267961428694,1.399920935966561,3.2083513344182677,0,-27.308284423311243,-1.9971689617624744,-20.354391852029565,34.11791830801314,-14,23,26,ok,56,130,248338.0,47,71.0,0,-1,1,1,-1,0
1778083675.9077802,1.2074570655822754,nav,1,front-left,-0.42853552384739935,1.3799492463489362,3.004807415897972,-0.19076467484081944,1.4422962979817768,3.1753832900182313,0,-23.77708490065799,-6.23470516328406,-17.05758741202592,29.91960232297689,-4,1,-20,ok,60,130,248332.00000000003,47,71.0,-1,-1,1,1,-1,0
1778083675.9788868,1.2785637378692627,nav,1,front-left,-0.42853552384739935,1.3799492463489362,3.004807415897972,-0.20871110438588147,1.365539165706485,3.196583504997853,0,-21.982441946151788,1.4410080642451195,-19.177608909988074,29.207617870370857,-9,21,27,ok,63,130,248332.00000000003,47,71.0,0,-1,1,1,-1,0
1778083676.0498052,1.3494820594787598,nav,1,front-left,-0.42853552384739935,1.3799492463489362,3.004807415897972,-0.21431232219981777,1.3628061538370102,3.1832349286459722,0,-21.42232016475816,1.7143092511926028,-17.842751274800015,27.932390347131165,-13,8,1,ok,67,130,248336.0,47,71.0,0,-1,1,1,-1,0
1778083676.121567,1.4212439060211182,nav,1,front-left,-0.42853552384739935,1.3799492463489362,3.004807415897972,-0.19637499017642554,1.4280605545805143,3.138045294575951,0,-23.21605336709738,-4.811130823157805,-13.32378786779791,27.196607084111275,-23,-4,-26,ok,71,130,248336.0,47,71.0,0,0,1,1,-1,0
1778083676.19378,1.4934568405151367,nav,1,front-left,-0.42853552384739935,1.3799492463489362,3.004807415897972,,,,,,,,,0,0,0,lost,74,130,248336.0,47,71.0,0,0,1,1,-1,0
1778083676.265131,1.5648078918457031,nav,1,front-left,-0.42853552384739935,1.3799492463489362,3.004807415897972,,,,,,,,,0,0,0,lost,78,130,248327.0,47,71.0,0,0,1,1,-1,0
1778083676.335401,1.635077953338623,nav,1,front-left,-0.42853552384739935,1.3799492463489362,3.004807415897972,-0.4564334946604378,1.1521854035777261,3.039502579931722,1,2.7897970813038464,22.77638427712101,-3.4695164033749837,23.207416757735547,28,-6,30,ok,81,130,248330.00000000003,47,71.0,0,0,1,1,-1,0
1778083676.406934,1.706610918045044,nav,1,front-left,-0.42853552384739935,1.3799492463489362,3.004807415897972,-0.3557150898447236,1.062368852274582,3.036777397742855,1,-7.282043400267574,31.758039407435422,-3.1969981844882867,32.738693017272745,-30,4,30,ok,85,130,248330.00000000003,47,71.0,0,0,1,1,-1,0
1778083676.477749,1.77742600440979,nav,1,front-left,-0.42853552384739935,1.3799492463489362,3.004807415897972,-0.45608027845986365,1.1226892000405637,3.0167405557602307,1,2.7544754612464306,25.726004630837252,-1.1933139862258635,25.9005491756872,30,-3,-2,ok,88,130,248335.0,46,71.0,0,0,1,1,-1,0
