timestamp,elapsed,my_id,peer_age_s,peer_seq,peer_pos_x,peer_pos_y,peer_pos_z,peer_state,pos_x,pos_y,pos_z,marker_id,tx_count,rx_count,crc_errors,target_x,target_z,err_x_cm,err_y_cm,err_z_cm,err_3d_cm,dist_to_peer_cm,dist_to_mid_cm,cmd_lr,cmd_fb,cmd_ud,feedback,tello_height_cm,tello_baro_cm,tello_battery,tello_temp_c,tello_pitch,tello_roll,tello_yaw,tello_vgx,tello_vgy,tello_vgz
1778085339.1597388,7.152557373046875e-07,1,0.015167951583862305,168,1.4766688346862793,1.9053919315338135,3.798793315887451,5,0.05955046548099082,1.2496402701220966,3.5291222904674786,0,253,169,0,0.7681096500836351,3.663957803177465,70.85591846026442,6.583768697939929,13.483551270998628,72.42729696732623,144.25487632278208,72.12743816139104,30,-30,30,ok,100,248437.0,65,73.5,0,0,-1,0,0,0
1778085339.2330601,0.07332205772399902,1,0.008494138717651367,172,1.4766688346862793,1.9053919315338135,3.798793315887451,5,0.05829544322675482,1.2510760941444516,3.528583430001431,0,256,173,0,0.7674821389565171,3.663688372944441,70.91866957297623,6.44018629570442,13.510494294301001,72.48080538736241,144.3882425972049,72.19412129860245,30,-8,4,ok,100,248446.99999999997,65,73.5,0,0,-1,0,0,0
1778085339.305115,0.14537692070007324,1,0.0003910064697265625,176,1.6151422262191772,1.9171756505966187,3.812777280807495,5,0.04991846778797792,1.3601373709862759,3.4860631271944467,0,260,177,0,0.7863725498259448,3.6447588823609562,73.64540820379669,-4.465941388478001,15.869575516650958,75.46810060593717,150.67169046084982,75.33584523042488,30,-17,-30,ok,100,248446.99999999997,65,73.5,0,0,-1,0,0,0
1778085339.377461,0.21772289276123047,1,0.012737035751342773,179,1.6151422262191772,1.9171756505966187,3.812777280807495,5,0.05262935256357647,1.2494588363737749,3.5294475379003343,0,264,180,0,0.7992674415081523,3.6676164181239037,74.66380889445759,6.601912072772098,13.816888022356943,76.21795061707608,151.86297446382954,75.93148723191476,30,-1,30,ok,100,248442.0,65,73.5,0,0,-1,0,0,0
1778085339.450454,0.29071593284606934,1,0.005897045135498047,183,1.5887054204940796,2.0444953441619873,3.7878987789154053,5,-0.05843134786928399,1.360720274214436,3.485083717663329,0,267,184,0,0.7480170802958573,3.6436458560621943,80.64484281651413,-4.524231711294013,15.856213839886513,82.3132969988079,164.3777380333052,82.1888690166526,30,-17,-30,ok,100,248441.0,65,73.5,0,0,-1,0,0,0
1778085339.523511,0.3637728691101074,1,-0.0025119781494140625,187,1.4675891399383545,1.7709238529205322,3.8115103244781494,5,0.05955046548099082,1.2496402701220966,3.5291222904674786,0,271,188,0,0.7997682895941077,3.66644033663236,74.02178241131169,6.583768697939929,13.73180461648813,75.57203675726196,150.5694089697237,75.28470448486185,24,-1,30,ok,100,248441.0,65,73.5,0,0,-1,0,0,0
1778085339.5984142,0.438676118850708,1,0.013784170150756836,190,1.6145299673080444,1.9217807054519653,3.828738212585449,5,-0.057606605637906864,1.3621943061512303,3.4844968209630705,0,275,191,0,0.7465143150061461,3.6459118754364566,80.4120920644053,-4.671634904973443,16.14150544733861,82.14911393902081,164.03234739868662,82.01617369934333,30,-18,-30,ok,100,248436.0,65,73.5,0,1,-1,0,0,0
1778085339.6716192,0.5118811130523682,1,0.0069010257720947266,194,1.7039660215377808,2.075871467590332,3.7863283157348633,5,-0.0023133252801499594,1.310382204669537,3.5142285544387506,0,278,195,0,0.7837441293029983,3.65946532878836,78.60574545831483,0.5095752431958811,14.523677434960947,79.93785143610411,159.87245447909,79.93622723954499,30,-3,18,ok,100,248439.0,65,73.5,0,2,-1,0,0,0
1778085339.744124,0.584385871887207,1,-0.000576019287109375,198,1.6097946166992188,1.912531852722168,3.8116819858551025,5,-0.04842792668003081,1.360300819963372,3.4848717254346826,0,282,199,0,0.7690071899788666,3.6455924561593047,81.74351166588974,-4.482286286187609,16.07207307246221,83.4290364481657,166.61708474604896,83.3085423730245,30,-15,-20,ok,100,248439.0,65,73.5,0,2,-1,0,0,0
1778085339.81893,0.6591918468475342,1,0.013948917388916016,201,1.7520254850387573,1.9520790576934814,3.8301901817321777,5,0.000274565981535072,1.3095407316526924,3.5142408512125645,0,286,202,0,0.8105682269566794,3.662239323163541,81.02936609751443,0.5937225448803485,14.799847195097637,82.37199860160952,164.73971770235934,82.36985885117967,30,-5,17,ok,100,248438.0,65,73.5,0,2,-1,0,1,0
1778085339.889952,0.7302138805389404,1,0.0051419734954833984,205,1.4574484825134277,1.7723994255065918,3.825425386428833,5,0.000274565981535072,1.3095407316526924,3.5142408512125645,0,289,206,0,0.8007123679750701,3.6630298297648745,80.04378019935349,0.5937225448803485,14.878897855231,81.41707963596528,162.8298295766327,81.41491478831635,30,-10,0,ok,100,248438.0,65,73.5,0,2,-1,0,1,0
1778085339.963789,0.8040509223937988,1,-0.0009129047393798828,209,1.4574484825134277,1.7723994255065918,3.825425386428833,5,0.07020081770858075,1.2519981594647867,3.527003859597898,0,293,210,0,0.8258196348569835,3.6702018405588746,75.56188171484027,6.347979763670919,14.319798096097669,77.16833180055464,153.8135830907078,76.90679154535388,30,-7,24,ok,100,248435.0,65,73.5,0,2,-1,0,1,0
1778085340.035887,0.8761489391326904,1,0.011163949966430664,212,1.6129735708236694,1.911313772201538,3.8120837211608887,5,0.057351995522832835,1.3668075290556012,3.4982339043892328,0,297,213,0,0.8209119831597089,3.657328421844885,76.35599876368761,-5.132957195410537,15.909451745565217,78.16454728081426,155.99165621333384,77.9958281066669,30,-16,-30,ok,100,248434.0,65,74.0,0,2,-1,0,2,0
1778085340.108171,0.9484329223632812,1,0.0033299922943115234,216,1.7541756629943848,1.9507238864898682,3.83012056350708,5,0.06466922409849285,1.361484245075522,3.4837531413723597,0,300,217,0,0.8424822551385409,3.6512511802757563,77.7813031040048,-4.600628797402617,16.749803890339663,79.69725734461252,159.12871573568242,79.56435786784121,30,-14,-1,ok,100,248437.0,65,74.0,0,2,-1,0,2,0
1778085340.181052,1.0213139057159424,1,-0.003657102584838867,220,1.6090214252471924,1.7606180906295776,3.845651626586914,5,0.015992602039728264,1.3089026754624187,3.513705064681335,0,304,221,0,0.8177996602303553,3.6672842303053357,80.18070581906271,0.6575281639077168,15.357916562400087,81.64094273137131,163.27658970937281,81.63829485468641,30,-5,18,ok,100,248439.0,65,74.0,0,2,-1,0,2,0
1778085340.2536478,1.093909740447998,1,0.00885772705078125,223,1.4609429836273193,1.7725402116775513,3.808258295059204,5,0.08348241409753852,1.2560631958775483,3.5405958609917816,0,307,224,0,0.8363556263898566,3.6821002521683304,75.28732122923181,5.941476122394751,14.150439117654878,76.83564800018921,153.21117015539036,76.60558507769518,30,-5,22,ok,100,248439.0,65,74.0,0,2,-1,0,2,0
1778085340.326599,1.166860818862915,1,0.0019359588623046875,227,1.6170586347579956,1.7534714937210083,3.8485069274902344,5,0.1385098792688177,1.3168852765172185,3.5231830780278326,0,311,228,0,0.8643233601041698,3.6756954195385516,72.5813480835352,-0.14073194157226965,15.251234151071902,74.16651561340537,148.33276418585507,74.16638209292753,30,-14,-20,ok,100,248442.0,65,74.0,0,2,-1,0,3,0
1778085340.3985238,1.238785743713379,1,0.013856887817382812,230,1.4631156921386719,1.7742505073547363,3.809221029281616,5,0.14490536598271037,1.3111343976663195,3.5100446991842995,0,315,231,0,0.8494642414048608,3.667815658088625,70.45588754221504,0.4343559435176392,15.777095890432546,72.20206028350454,144.4015075281024,72.2007537640512,30,-12,2,ok,100,248444.99999999997,65,74.0,0,1,-1,0,3,0
1778085340.4715981,1.3118600845336914,1,0.006863117218017578,234,1.6183359622955322,1.7547639608383179,3.84889817237854,5,0.1752964525089813,1.196879739641874,3.5663458657310807,0,318,235,0,0.8747152521543777,3.6974332904838723,69.94187996453964,11.859821745962185,13.108742475279156,72.14125778015836,142.31943932235342,71.15971966117671,30,0,30,ok,100,248444.99999999997,65,74.0,0,1,-1,0,3,0
1778085340.543348,1.3836100101470947,1,-0.001405954360961914,238,1.6183359622955322,1.7547639608383179,3.84889817237854,5,0.22935824130867574,1.261645579186896,3.5315394853299633,0,322,239,0,0.9118016140406064,3.6814971494051703,68.24433727319307,5.383237791459994,14.995766407520694,70.07953930446217,139.7449473863904,69.87247369319519,30,-17,-18,ok,100,248444.0,65,74.0,0,1,-1,0,3,0
1778085340.615977,1.4562389850616455,1,0.010864973068237305,241,1.6183359622955322,1.7547639608383179,3.84889817237854,5,0.23273558754490575,1.2617258904852076,3.5322256190245764,0,326,242,0,0.9138254366257129,3.68414111945358,68.10898490808071,5.3752066616288285,15.191550042900337,69.98935536615787,139.5652824726137,69.78264123630684,30,-11,3,ok,100,248448.0,65,74.0,0,1,-1,0,3,0
1778085340.6903522,1.5306141376495361,1,0.005377054214477539,245,1.3080838918685913,1.6840293407440186,3.765690803527832,5,0.2057855765380131,1.3650765297335221,3.4948219006012233,0,329,246,0,0.8724696954269044,3.6614124002432007,66.66841188888914,-4.959857263202627,16.659049964197735,68.89703385173817,137.4365466605766,68.7182733302883,30,-16,-30,ok,100,248448.0,65,74.0,0,1,-1,0,3,0
1778085340.766955,1.6072168350219727,1,0.0021119117736816406,249,1.3080838918685913,1.6840293407440186,3.765690803527832,5,0.2057855765380131,1.3650765297335221,3.4948219006012233,0,333,250,0,0.8536610995907419,3.656414848802008,64.78755230527288,-4.959857263202627,16.159294820078472,66.95632850494438,133.54474520235806,66.77237260117903,30,-10,-3,ok,100,248448.0,65,74.0,0,1,-1,0,3,0
1778085340.842369,1.682631015777588,1,-0.0032918453216552734,253,1.3028713464736938,1.6810617446899414,3.7819933891296387,5,0.2057855765380131,1.3650765297335221,3.4948219006012233,0,337,254,0,0.8437816222686403,3.6547732921814102,63.799604573062716,-4.959857263202627,15.99513915801869,65.96085357569967,131.54822720756897,65.77411360378449,30,-11,-3,ok,100,248448.0,65,74.0,0,1,-1,0,3,0
1778085340.9184031,1.7586650848388672,1,0.013583183288574219,256,1.3028713464736938,1.6810617446899414,3.7819933891296387,5,0.2057855765380131,1.3650765297335221,3.4948219006012233,0,341,257,0,0.8241449167508714,3.650616196033873,61.83593402128583,-4.959857263202627,15.579429543264967,63.960937651426875,127.53668274152928,63.768341370764624,30,-10,-3,ok,100,248448.0,65,74.0,0,1,-1,0,3,0
1778085340.993469,1.833730936050415,1,0.008569002151489258,260,1.3012728691101074,1.6918675899505615,3.7806029319763184,5,0.1739234909500392,1.305551134346041,3.5303478712046714,0,344,261,0,0.7980986975175992,3.666590550254016,62.417520656756,0.9926822755454756,13.62426790493445,63.89485878364683,127.77429414216289,63.88714707108143,30,-3,20,ok,100,248448.0,65,74.0,0,1,-1,0,3,0
1778085341.0671449,1.9074068069458008,1,0.0021927356719970703,264,1.3102163076400757,1.685104250907898,3.7669522762298584,5,0.1739234909500392,1.305551134346041,3.5303478712046714,0,348,265,0,0.7788412191016332,3.6614689317447233,60.49177281515939,0.9926822755454756,13.11210605400519,61.9045016262349,123.79308386969505,61.89654193484751,30,-8,0,ok,100,248448.0,65,74.0,0,1,-1,0,3,0
1778085341.141454,1.9817159175872803,1,-0.0034902095794677734,268,1.3454101085662842,1.794511318206787,3.7703094482421875,5,0.1739234909500392,1.305551134346041,3.5303478712046714,0,352,269,0,0.7617833532435552,3.6565571364862013,58.78598622935159,0.9926822755454756,12.620926528152987,60.13372915000976,120.25107007235407,60.12553503617703,30,-8,0,ok,100,248448.0,65,74.0,0,1,-1,0,3,0
1778085341.216181,2.056442975997925,1,0.011354207992553711,271,1.3454101085662842,1.794511318206787,3.7703094482421875,5,0.1739234909500392,1.305551134346041,3.5303478712046714,0,356,272,0,0.7447254873854772,3.6516453412276793,57.08019964354379,0.9926822755454756,12.129747002300784,58.36321934049581,116.70955322828793,58.35477661414396,30,-8,0,ok,100,248448.0,65,74.0,0,1,-1,0,3,0
1778085341.290963,2.1312248706817627,1,0.005908012390136719,275,1.4267971515655518,1.641146183013916,3.809952735900879,5,0.1739234909500392,1.305551134346041,3.5303478712046714,0,359,276,0,0.7521450661165372,3.6544117120009947,57.822157516649796,0.9926822755454756,12.406384079632327,59.14647651307554,118.27629121360907,59.138145606804535,30,-10,0,ok,100,248448.0,65,74.0,0,1,-1,0,3,0
1778085341.366184,2.2064459323883057,1,0.0013020038604736328,279,1.4659693241119385,1.7809123992919922,3.7929742336273193,5,0.1739234909500392,1.305551134346041,3.5303478712046714,0,363,280,0,0.7620129056317464,3.6561169263822126,58.808941468170715,0.9926822755454756,12.576905517754122,60.14694977394469,120.27751492293552,60.13875746146775,30,-10,0,ok,100,248448.0,65,74.0,0,1,-1,0,3,0
1778085341.4413161,2.2815780639648438,1,-0.0037069320678710938,283,1.4659693241119385,1.7809123992919922,3.7929742336273193,5,,,,,367,284,0,,,,,,,,,0,0,0,lost_self,100,248450.0,65,74.0,0,1,-1,0,4,0
1778085341.5147278,2.354989767074585,1,0.009738922119140625,286,1.4671427011489868,1.7818632125854492,3.793494701385498,5,,,,,371,287,0,,,,,,,,,0,0,0,lost_self,100,248444.99999999997,65,73.0,0,0,-1,0,4,0
1778085341.588215,2.4284770488739014,1,0.003300189971923828,290,1.4671427011489868,1.7818632125854492,3.793494701385498,5,,,,,374,291,0,,,,,,,,,0,0,0,lost_self,100,248442.0,65,73.0,0,0,-1,0,4,0
1778085341.663708,2.50396990776062,1,-0.001177072525024414,294,1.6257413625717163,1.7661586999893188,3.8161537647247314,5,0.463871677520838,1.212050455100259,3.47329115011952,1,378,295,0,0.9271663749232723,3.62972358931433,46.329469740243425,10.342750200123675,15.643243919480998,49.98102968565842,97.79838131045953,48.899190655229766,30,-14,15,ok,100,248452.0,65,73.0,0,0,-1,0,4,0
1778085341.7364428,2.576704740524292,1,0.011665821075439453,297,1.3509191274642944,1.7993961572647095,3.7546541690826416,5,0.3541459132662931,1.2473097574212233,3.5038635492237313,1,382,298,0,0.8753064791079124,3.6433010876134984,52.11605658416193,6.8168199680272545,13.943753838976702,54.37812666396334,107.8983155569269,53.94915777846347,30,-5,-6,ok,100,248442.0,65,73.0,0,0,-1,0,4,0
1778085341.8088078,2.6490697860717773,1,0.0032677650451660156,301,1.4730579853057861,1.7718281745910645,3.7964534759521484,5,0.3541459132662931,1.2473097574212233,3.5038635492237313,1,385,302,0,0.8860430488701423,3.6442917466119877,53.189713560384924,6.8168199680272545,14.04281973882564,55.43298160237677,110.02447754664315,55.012238773321585,30,-11,5,ok,100,248442.0,65,73.0,0,0,-1,0,4,0
1778085341.883938,2.7242000102996826,1,-0.0013399124145507812,305,1.355845332145691,1.7970854043960571,3.756826877593994,5,0.3418486295591131,1.0815700876422243,3.497066126826318,1,389,306,0,0.8827462210481531,3.64026019799854,54.089759148904,23.390786945927154,14.319407117222172,60.645497598131335,111.90616542398722,55.95308271199361,30,-12,30,ok,100,248442.0,65,73.0,0,0,-1,0,4,0
1778085341.958017,2.798279047012329,1,0.013107061386108398,308,1.355845332145691,1.7970854043960571,3.756826877593994,5,0.3418486295591131,1.0815700876422243,3.497066126826318,1,393,309,0,0.8833984225218661,3.6394175373330278,54.15497929627529,23.390786945927154,14.235141050670963,60.68385236009873,111.98930347693934,55.99465173846967,30,-11,17,ok,100,248442.0,65,73.0,0,0,-1,0,4,0
1778085342.0337012,2.8739631175994873,1,0.008771181106567383,312,1.4855961799621582,1.9067078828811646,3.7669951915740967,5,0.3418486295591131,1.0815700876422243,3.497066126826318,1,397,313,0,0.8921600519841082,3.639210396291272,55.031142242499506,23.390786945927154,14.214426946495395,61.46222794433361,113.67456267664228,56.837281338321134,30,-11,17,ok,100,248442.0,65,73.0,0,0,-1,0,4,0
1778085342.111518,2.951779842376709,1,0.0067598819732666016,316,1.4855961799621582,1.9067078828811646,3.7669951915740967,5,0.3685835284150585,1.0759801042169062,3.4931178715315174,1,400,317,0,0.9092024406868688,3.6345514221234474,54.061891227181036,23.94978528845897,14.143355059192997,60.79732552302971,111.76265163980237,55.88132581990117,30,-11,19,ok,100,248442.0,65,73.0,0,0,-1,0,4,0
1778085342.1836731,3.023935079574585,1,-0.0012369155883789062,320,1.4739539623260498,1.7705597877502441,3.7968294620513916,5,0.3685835284150585,1.0759801042169062,3.4931178715315174,1,404,321,0,0.9097014805752508,3.634792373899952,54.11179521601923,23.94978528845897,14.167450236843449,60.847310894378246,111.8714088176928,55.93570440884639,30,-12,18,ok,100,248442.0,65,73.0,0,0,-1,0,4,0
1778085342.2586439,3.0989058017730713,1,0.013794898986816406,323,1.4776517152786255,1.7724651098251343,3.7800869941711426,5,,,,,408,324,0,,,,,,,,,0,0,0,lost_self,100,248436.0,65,73.0,0,-1,-1,0,4,0
1778085342.331539,3.1718008518218994,1,0.006663799285888672,327,1.4776517152786255,1.7724651098251343,3.7800869941711426,5,,,,,411,328,0,,,,,,,,,0,0,0,lost_self,100,248448.0,65,73.0,0,-1,-1,0,2,0
1778085342.403877,3.2441389560699463,1,-0.0008358955383300781,331,1.4758211374282837,1.7686206102371216,3.797201156616211,5,,,,,415,332,0,,,,,,,,,0,0,0,lost_self,100,248444.99999999997,65,73.0,0,0,0,0,2,0
1778085342.476087,3.3163490295410156,1,0.01099395751953125,334,1.4758211374282837,1.7686206102371216,3.797201156616211,5,0.6103256748649788,1.349759958343054,3.520235385723861,2,418,335,0,1.0212025397287463,3.6471665929893415,41.087686486376754,-3.4282001241558113,12.693120726548068,43.14007244630881,86.00728561189479,43.003642805947386,30,-10,-24,ok,100,248450.0,65,73.0,0,0,0,0,2,0
1778085342.547868,3.388129949569702,1,0.002727985382080078,338,1.630923867225647,1.748487949371338,3.8180863857269287,5,0.6103256748649788,1.349759958343054,3.520235385723861,2,422,339,0,1.0387028359638308,3.6511311065296095,42.83771610988521,-3.4282001241558113,13.089572080574863,44.92392875578609,89.58586537537457,44.792932687687276,30,-13,-1,ok,100,248450.0,65,73.0,0,0,0,0,2,0
1778085342.620639,3.4609010219573975,1,-0.004323005676269531,342,1.4758328199386597,1.7638959884643555,3.7794277667999268,5,0.6103256748649788,1.349759958343054,3.520235385723861,2,426,343,0,1.0388762631283854,3.6500669997075956,42.85505882634067,-3.4282001241558113,12.983161398373477,44.90958809649222,89.55710015192172,44.77855007596085,30,-11,-1,ok,100,248450.0,65,73.0,0,0,0,0,2,0
1778085342.693859,3.534121036529541,1,0.008883953094482422,345,1.7632542848587036,1.9395556449890137,3.7994232177734375,5,0.6103256748649788,1.349759958343054,3.520235385723861,2,430,346,0,1.0643393226729487,3.652729270968811,45.401364780796996,-3.4282001241558113,13.249388524494998,47.41922370013321,94.59027899804533,47.29513949902266,30,-12,-1,ok,100,248450.0,65,73.0,0,0,0,0,2,0
1778085342.7705688,3.610830783843994,1,0.005391836166381836,349,1.7632542848587036,1.9395556449890137,3.7994232177734375,5,0.6103256748649788,1.349759958343054,3.520235385723861,2,433,350,0,1.089802382217512,3.655391542230026,47.947670735253325,-3.4282001241558113,13.51561565061652,49.93399194379236,99.6323440525507,49.816172026275346,30,-13,-1,ok,100,248450.0,65,73.0,0,0,0,0,2,0
1778085342.845243,3.685504913330078,1,0.00021600723266601562,353,1.4758881330490112,1.757307529449463,3.779808282852173,5,0.6103256748649788,1.349759958343054,3.520235385723861,2,437,354,0,1.0891956292854403,3.656192360434906,47.88699544204616,-3.4282001241558113,13.595697471104495,49.89749370743593,99.5591748096045,49.77958740480224,30,-12,-1,ok,100,248450.0,65,73.0,0,0,0,0,2,0
1778085342.9205408,3.760802745819092,1,-0.004571199417114258,357,1.4748018980026245,1.7526543140411377,3.780075788497925,5,0.6103256748649788,1.349759958343054,3.520235385723861,2,441,358,0,1.0885209866629695,3.657009897742645,47.81953117979907,-3.4282001241558113,13.677451201878421,49.855117989297774,99.47422246261675,49.73711123130837,30,-12,-1,ok,100,248450.0,65,73.0,0,0,0,0,2,0
1778085342.9953861,3.8356480598449707,1,0.010311126708984375,360,1.4748018980026245,1.7526543140411377,3.780075788497925,5,0.6103256748649788,1.349759958343054,3.520235385723861,2,445,361,0,1.0885739826427554,3.6559627931455534,47.82483077777766,-3.4282001241558113,13.572740742169254,49.83157920704975,99.42703314847951,49.713516574239755,30,-12,-1,ok,100,248450.0,65,73.0,0,0,0,0,2,0
1778085343.070368,3.910629987716675,1,0.005251169204711914,364,1.7248190641403198,2.055377244949341,3.759455680847168,5,0.6103256748649788,1.349759958343054,3.520235385723861,2,448,365,0,1.1041363530622577,3.653603700909988,49.38106781972789,-3.4282001241558113,13.336831518612735,51.26512937722569,102.3007513945509,51.15037569727545,30,-11,-1,ok,100,248450.0,65,73.0,0,0,0,0,2,0
1778085343.147645,3.9879069328308105,1,0.0026209354400634766,368,1.6341211795806885,1.8846397399902344,3.7869510650634766,5,0.6103256748649788,1.349759958343054,3.520235385723861,2,452,369,0,1.1043361850844478,3.6516577433685224,49.4010510219469,-3.4282001241558113,13.14223576446616,51.23411713939332,102.23858768511651,51.11929384255826,30,-11,-1,ok,100,248450.0,65,73.0,0,0,0,0,2,0
1778085343.223169,4.063431024551392,1,-0.0023899078369140625,372,1.6231497526168823,1.888718843460083,3.7844793796539307,5,0.6103256748649788,1.349759958343054,3.520235385723861,2,456,373,0,1.1135434933768367,3.6519734691718977,50.32178185118579,-3.4282001241558113,13.173808344803684,52.130447063834126,104.03520471424952,52.01760235712475,30,-12,-1,ok,100,248450.0,65,73.0,0,0,0,0,2,0
1778085343.2994602,4.139722108840942,1,-0.005650758743286133,376,1.6231497526168823,1.888718843460083,3.7844793796539307,5,0.6103256748649788,1.349759958343054,3.520235385723861,2,460,377,0,1.1047869601117228,3.6510394792894285,49.44612852467441,-3.4282001241558113,13.080409356556766,51.261772219705584,102.29402201524229,51.14701100762113,30,-12,-1,ok,100,248450.0,65,73.0,0,0,0,0,2,0
1778085343.3760908,4.216352701187134,1,0.010914802551269531,379,1.5008881092071533,1.870240569114685,3.7586236000061035,5,0.6103256748649788,1.349759958343054,3.520235385723861,2,464,380,0,1.088389074133501,3.64848950317897,47.80633992685222,-3.4282001241558113,12.825411745510928,49.615419777876475,98.99368310440084,49.496841552200415,30,-11,-1,ok,100,248450.0,65,73.0,0,0,0,0,2,0
1778085343.452408,4.292670011520386,1,0.0073299407958984375,383,1.3797823190689087,1.8766342401504517,3.7390623092651367,5,0.6103256748649788,1.349759958343054,3.520235385723861,2,467,384,0,1.0823824607597445,3.6459428798297804,47.20567858947658,-3.4282001241558113,12.570749410591953,48.97093411328935,97.70158303398907,48.85079151699453,30,-11,-1,ok,100,248450.0,65,73.0,0,0,0,0,2,0
1778085343.5273988,4.367660760879517,1,0.0024728775024414062,387,1.3797823190689087,1.8766342401504517,3.7390623092651367,5,0.6103256748649788,1.349759958343054,3.520235385723861,2,471,388,0,1.0764437370763873,3.643379537377731,46.61180622114085,-3.4282001241558113,12.314415165387027,48.332782416843756,96.42209912800487,48.21104956400243,30,-11,-1,ok,100,248450.0,65,73.0,0,0,0,0,2,0
1778085343.601058,4.441319942474365,1,-0.0039141178131103516,391,1.5036933422088623,1.8510891199111938,3.763859272003174,5,0.6103256748649788,1.349759958343054,3.520235385723861,2,475,392,0,1.0782494523392772,3.642366005096809,46.79237774742984,-3.4282001241558113,12.213061937294833,48.481316537751205,96.71991516006138,48.359957580030674,30,-12,-1,ok,100,248450.0,65,73.0,0,0,0,0,2,0
1778085343.673513,4.513774871826172,1,0.008238077163696289,394,1.385856032371521,1.8621625900268555,3.7277727127075195,5,0.6103256748649788,1.349759958343054,3.520235385723861,2,478,395,0,1.0570642628537272,3.640385819588081,44.673858798874846,-3.4282001241558113,12.01504338642203,46.38822570060934,92.52275239225023,46.26137619612511,30,-11,-1,ok,100,248450.0,65,73.0,0,0,0,0,2,0
1778085343.7475252,4.58778715133667,1,0.0023412704467773438,398,1.3859602212905884,1.8581767082214355,3.7292635440826416,5,0.6103256748649788,1.349759958343054,3.520235385723861,2,482,399,0,1.041554202960596,3.636780349526779,43.12285280956172,-3.4282001241558113,11.654496380291812,44.80134235047675,89.339973591072,44.66998679553599,30,-11,-1,ok,100,248450.0,65,73.0,0,0,0,0,2,0
1778085343.8235369,4.663798809051514,1,-0.0017681121826171875,402,1.3869128227233887,1.8483866453170776,3.733598232269287,5,0.6103256748649788,1.349759958343054,3.520235385723861,2,486,403,0,1.0267893948422526,3.6336002778152388,41.646371997727385,-3.4282001241558113,11.33648920913779,43.297677123065746,86.32349131405633,43.161745657028156,30,-11,-1,ok,100,248450.0,65,73.0,0,0,0,0,2,0
1778085343.9011142,4.741376161575317,1,0.015841245651245117,405,1.3901197910308838,1.8417870998382568,3.7195382118225098,5,0.6103256748649788,1.349759958343054,3.520235385723861,2,490,406,0,1.0122250222431277,3.629541454825775,40.189934737814895,-3.4282001241558113,10.93060691019141,41.790687691711966,83.2996763896462,41.64983819482309,30,-10,-1,ok,100,248450.0,65,73.0,0,0,0,0,2,0
1778085343.976919,4.817180871963501,1,0.011569023132324219,409,1.389457106590271,1.8372117280960083,3.72117280960083,5,0.6103256748649788,1.349759958343054,3.520235385723861,2,494,410,0,1.0052605845795726,3.6272007804254454,39.49349097145938,-3.4282001241558113,10.69653947015845,41.05976548691751,81.83279992153271,40.916399960766356,30,-11,-1,ok,100,248450.0,65,73.0,0,0,0,0,2,0
1778085344.051789,4.8920509815216064,1,0.006772041320800781,413,1.3870818614959717,1.8240878582000732,3.725188732147217,5,0.6103256748649788,1.349759958343054,3.520235385723861,2,497,414,0,1.005716805981264,3.6263336818555754,39.539113111628524,-3.4282001241558113,10.609829613171451,41.08116972733306,81.8757583189233,40.93787915946165,30,-11,-1,ok,100,248450.0,65,73.0,0,0,0,0,2,0
1778085344.124952,4.965214014053345,1,-0.0003478527069091797,417,1.4005149602890015,1.930665135383606,3.7002530097961426,5,0.5878871816096507,1.4181906051214166,3.4915833649598853,2,501,418,0,0.9957933494298559,3.609582090256775,40.790616782020514,-10.271264801992075,11.79987252968897,43.687644589828864,84.92611869559477,42.463059347797376,30,-16,-29,ok,100,248450.0,65,73.0,0,0,0,0,2,0
1778085344.201041,5.041302919387817,1,-0.004065990447998047,421,1.382774829864502,1.8142796754837036,3.7278149127960205,5,0.5878871816096507,1.4181906051214166,3.4915833649598853,2,505,422,0,0.9882359424083333,3.607329317806328,40.03487607986826,-10.271264801992075,11.574595284644262,42.92157312315519,83.34896660987988,41.67448330493993,30,-11,-6,ok,100,248452.0,65,73.0,0,0,0,0,2,0
1778085344.275431,5.115692853927612,1,0.010205984115600586,424,1.280593991279602,1.826826810836792,3.69018816947937,5,0.5878871816096507,1.4181906051214166,3.4915833649598853,2,509,425,0,0.9816570648400884,3.6049802838545686,39.37698832304377,-10.271264801992075,11.339691889468329,42.24493700047191,81.954519620121,40.9772598100605,30,-11,-6,ok,100,248452.0,65,73.0,0,0,0,0,2,0
1778085344.35181,5.192071914672852,1,0.006660938262939453,428,1.2951747179031372,1.92486572265625,3.685027599334717,5,0.5878871816096507,1.4181906051214166,3.4915833649598853,2,512,429,0,0.9759829708783727,3.6022155373078233,38.8095789268722,-10.271264801992075,11.063217234793798,41.642251052242635,80.71129269353482,40.3556463467674,30,-11,-6,ok,100,248452.0,65,73.0,0,0,0,0,2,0
1778085344.4280908,5.268352746963501,1,0.0029828548431396484,432,1.2723737955093384,1.8243194818496704,3.6903929710388184,5,0.5878871816096507,1.4181906051214166,3.4915833649598853,2,516,433,0,0.9688242816774946,3.599515208480919,38.093710006784384,-10.271264801992075,10.793184352103369,40.90381951813443,79.1864526428473,39.59322632142364,30,-11,-6,ok,100,248452.0,65,73.0,0,0,0,0,2,0
1778085344.5028229,5.343084812164307,1,-0.002788066864013672,436,1.2712312936782837,1.8143588304519653,3.6931204795837402,5,0.5793323408063797,1.6996113747320964,3.328656578375116,2,520,437,0,0.9571163301913216,3.516400706923611,37.778398938494185,-38.41334176306006,18.77441285484953,57.05498076247167,84.37264970120017,42.18632485060008,30,-30,-30,ok,100,248446.99999999997,65,73.0,0,0,-1,0,2,0
1778085344.576281,5.416543006896973,1,0.010977983474731445,439,1.1782666444778442,1.832525610923767,3.654146194458008,5,0.5793323408063797,1.6996113747320964,3.328656578375116,2,524,440,0,0.9439169263092949,3.512211543477185,36.45845855029152,-38.41334176306006,18.35549651020689,56.05112199952108,81.63684099717584,40.81842049858791,30,-15,-27,ok,100,248446.99999999997,65,73.0,0,0,-1,0,2,0
1778085344.651166,5.491427898406982,1,0.005928993225097656,443,1.3815239667892456,1.8774865865707397,3.7009823322296143,5,0.5793323408063797,1.6996113747320964,3.328656578375116,2,527,444,0,0.9435695578901245,3.5106986434823346,36.42372170837448,-38.41334176306006,18.204206510721875,55.97915204055679,81.43907263160897,40.719536315804476,30,-16,-27,ok,100,248441.0,65,73.0,0,-1,-1,0,2,0
1778085344.726005,5.566267013549805,1,0.0009860992431640625,447,1.6309940814971924,1.7020981311798096,3.7558908462524414,5,,,,,531,448,0,,,,,,,,,0,0,0,lost_self,100,248451.00000000003,65,73.5,0,0,-1,0,0,0
1778085344.799983,5.640244960784912,1,-0.005618095397949219,451,1.6309940814971924,1.7020981311798096,3.7558908462524414,5,,,,,535,452,0,,,,,,,,,0,0,0,lost_self,100,248451.00000000003,65,73.5,0,0,-1,0,0,0
1778085344.8755279,5.715789794921875,1,0.010477066040039062,454,1.6309940814971924,1.7020981311798096,3.7558908462524414,5,,,,,539,455,0,,,,,,,,,0,0,0,lost_self,100,248451.00000000003,65,73.5,0,0,-1,0,0,0
1778085344.949634,5.789896011352539,1,0.004511117935180664,458,1.6309940814971924,1.7020981311798096,3.7558908462524414,5,,,,,542,459,0,,,,,,,,,0,0,0,lost_self,100,248461.0,65,73.5,0,0,-1,0,0,0
1778085345.022801,5.863062858581543,1,-0.0042591094970703125,462,1.6309940814971924,1.7020981311798096,3.7558908462524414,5,,,,,546,463,0,,,,,,,,,0,0,0,lost_self,100,248446.99999999997,65,73.5,0,0,-1,0,0,0
1778085345.097001,5.937263011932373,1,0.011601924896240234,465,1.6309940814971924,1.7020981311798096,3.7558908462524414,5,,,,,550,466,0,,,,,,,,,0,0,0,lost_self,100,248450.0,65,73.5,0,0,-1,0,0,0
1778085345.173352,6.013613939285278,1,0.00828099250793457,469,1.6309940814971924,1.7020981311798096,3.7558908462524414,5,,,,,553,470,0,,,,,,,,,0,0,0,lost_self,100,248456.0,65,73.5,0,0,-1,0,0,0
1778085345.2472231,6.087485074996948,1,0.002249002456665039,473,1.6309940814971924,1.7020981311798096,3.7558908462524414,5,,,,,557,474,0,,,,,,,,,0,0,0,lost_self,100,248456.0,65,73.5,0,0,-1,0,0,0
1778085345.319747,6.160008907318115,1,-0.00570988655090332,477,1.6309940814971924,1.7020981311798096,3.7558908462524414,5,,,,,561,478,0,,,,,,,,,0,0,0,lost_self,100,248456.0,65,73.5,0,0,-1,0,0,0
1778085345.394731,6.234992980957031,1,0.009396076202392578,480,1.6309940814971924,1.7020981311798096,3.7558908462524414,5,,,,,565,481,0,,,,,,,,,0,0,0,lost_self,100,248451.00000000003,65,73.0,0,0,-1,0,0,0
1778085345.472928,6.31318998336792,1,0.007462024688720703,484,1.6309940814971924,1.7020981311798096,3.7558908462524414,5,,,,,568,485,0,,,,,,,,,0,0,0,lost_self,100,248451.00000000003,65,73.0,0,0,-1,0,0,0
1778085345.549012,6.3892738819122314,1,0.003593921661376953,488,1.6309940814971924,1.7020981311798096,3.7558908462524414,5,,,,,572,489,0,,,,,,,,,0,0,0,lost_self,100,248451.00000000003,65,73.0,0,0,-1,0,0,0
1778085345.6198971,6.460159063339233,1,-0.005338907241821289,492,1.6309940814971924,1.7020981311798096,3.7558908462524414,5,,,,,576,493,0,,,,,,,,,0,0,0,lost_self,100,248450.0,65,73.0,0,0,-1,0,0,0
1778085345.6953862,6.5356481075286865,1,0.010077238082885742,495,1.6309940814971924,1.7020981311798096,3.7558908462524414,5,,,,,580,496,0,,,,,,,,,0,0,0,lost_self,100,248450.0,65,73.0,0,0,-1,0,0,0
1778085345.7713962,6.611658096313477,1,0.006102085113525391,499,1.6309940814971924,1.7020981311798096,3.7558908462524414,5,,,,,583,500,0,,,,,,,,,0,0,0,lost_self,100,248454.0,65,73.0,0,1,-1,0,0,0
1778085345.844735,6.684996843338013,1,-0.0014731884002685547,503,1.6309940814971924,1.7020981311798096,3.7558908462524414,5,,,,,587,504,0,,,,,,,,,0,0,0,lost_self,100,248454.0,65,73.0,0,1,-1,0,0,0
1778085345.9203799,6.760641813278198,1,-0.005189180374145508,507,1.6309940814971924,1.7020981311798096,3.7558908462524414,5,,,,,591,508,0,,,,,,,,,0,0,0,lost_self,100,248444.99999999997,65,73.0,0,2,-1,0,0,0
1778085345.996707,6.836968898773193,1,0.011366128921508789,510,1.6309940814971924,1.7020981311798096,3.7558908462524414,5,,,,,594,511,0,,,,,,,,,0,0,0,lost_self,100,248444.99999999997,65,73.0,0,2,-1,0,0,0
1778085346.0720892,6.912351131439209,1,0.006721019744873047,514,1.6309940814971924,1.7020981311798096,3.7558908462524414,5,,,,,598,515,0,,,,,,,,,0,0,0,lost_self,100,248444.99999999997,65,73.0,0,2,-1,0,0,0
1778085346.145876,6.986137866973877,1,0.0003819465637207031,518,1.6309940814971924,1.7020981311798096,3.7558908462524414,5,,,,,602,519,0,,,,,,,,,0,0,0,lost_self,100,248444.99999999997,65,73.0,0,2,-1,0,0,0
1778085346.2224169,7.062678813934326,1,-0.004474163055419922,522,1.6309940814971924,1.7020981311798096,3.7558908462524414,5,,,,,606,523,0,,,,,,,,,0,0,0,lost_self,100,248452.0,65,73.0,0,2,-1,0,1,0
1778085346.2974222,7.137684106826782,1,0.012197256088256836,525,1.6309940814971924,1.7020981311798096,3.7558908462524414,5,,,,,610,526,0,,,,,,,,,0,0,0,lost_self,100,248452.0,65,73.0,0,2,-1,0,1,0
1778085346.373733,7.213994979858398,1,0.008301973342895508,529,1.6309940814971924,1.7020981311798096,3.7558908462524414,5,,,,,614,530,0,,,,,,,,,0,0,0,lost_self,100,248446.99999999997,65,73.0,0,2,-1,0,1,0
1778085346.448763,7.289024829864502,1,0.0032677650451660156,533,1.6309940814971924,1.7020981311798096,3.7558908462524414,5,,,,,617,534,0,,,,,,,,,0,0,0,lost_self,100,248446.99999999997,65,73.0,0,2,-1,0,1,0
1778085346.5249212,7.365183115005493,1,-0.0006079673767089844,537,1.6309940814971924,1.7020981311798096,3.7558908462524414,5,,,,,621,538,0,,,,,,,,,0,0,0,lost_self,100,248446.99999999997,65,73.0,0,2,-1,0,1,0
1778085346.600698,7.440959930419922,1,-0.004431962966918945,541,1.6309940814971924,1.7020981311798096,3.7558908462524414,5,,,,,625,542,0,,,,,,,,,0,0,0,lost_self,100,248446.99999999997,65,73.0,0,2,-1,0,1,0
1778085346.67445,7.514711856842041,1,0.009199857711791992,544,1.6309940814971924,1.7020981311798096,3.7558908462524414,5,,,,,629,545,0,,,,,,,,,0,0,0,lost_self,100,248440.0,65,73.0,0,2,-1,0,2,0
1778085346.749938,7.590199947357178,1,0.0046138763427734375,548,1.6309940814971924,1.7020981311798096,3.7558908462524414,5,,,,,632,549,0,,,,,,,,,0,0,0,lost_self,100,248440.0,65,73.0,0,2,-1,0,2,0
1778085346.825208,7.6654698848724365,1,-0.0001690387725830078,552,1.6309940814971924,1.7020981311798096,3.7558908462524414,5,,,,,636,553,0,,,,,,,,,0,0,0,lost_self,100,248451.00000000003,65,73.5,0,1,-1,-1,3,0
1778085346.899672,7.739933967590332,1,0.01392984390258789,555,1.6309940814971924,1.7020981311798096,3.7558908462524414,5,,,,,640,556,0,,,,,,,,,0,0,0,lost_self,100,248451.00000000003,65,73.5,0,1,-1,-1,3,0
1778085346.976727,7.816988945007324,1,0.011172056198120117,559,1.6309940814971924,1.7020981311798096,3.7558908462524414,5,,,,,644,560,0,,,,,,,,,0,0,0,lost_self,100,248450.0,65,73.5,0,1,-1,-1,3,0
1778085347.052684,7.892946004867554,1,0.007438182830810547,563,1.6309940814971924,1.7020981311798096,3.7558908462524414,5,,,,,647,564,0,,,,,,,,,0,0,0,lost_self,100,248450.0,65,73.5,0,1,-1,-1,3,0
1778085347.1272588,7.967520713806152,1,0.0019488334655761719,567,1.6309940814971924,1.7020981311798096,3.7558908462524414,5,,,,,651,568,0,,,,,,,,,0,0,0,lost_self,90,248454.0,65,73.5,0,1,-1,-1,2,0
1778085347.203597,8.043859004974365,1,-0.002335071563720703,571,1.6309940814971924,1.7020981311798096,3.7558908462524414,5,,,,,655,572,0,,,,,,,,,0,0,0,lost_self,90,248454.0,65,73.5,0,1,-1,-1,2,0
1778085347.280363,8.120625019073486,1,-0.006231069564819336,575,1.6309940814971924,1.7020981311798096,3.7558908462524414,5,,,,,659,576,0,,,,,,,,,0,0,0,lost_self,90,248450.0,65,73.5,0,2,-1,-1,2,0
1778085347.3564942,8.19675612449646,1,0.010998010635375977,578,1.6309940814971924,1.7020981311798096,3.7558908462524414,5,,,,,663,579,0,,,,,,,,,0,0,0,lost_self,90,248450.0,65,73.5,0,2,-1,-1,2,0
1778085347.433064,8.27332592010498,1,0.007740020751953125,582,1.6309940814971924,1.7020981311798096,3.7558908462524414,5,,,,,667,583,0,,,,,,,,,0,0,0,lost_self,90,248450.0,65,73.5,0,2,-1,-1,2,0
1778085347.5093582,8.34962010383606,1,0.0040740966796875,586,1.6309940814971924,1.7020981311798096,3.7558908462524414,5,,,,,670,587,0,,,,,,,,,0,0,0,lost_self,90,248450.0,65,73.5,0,2,-1,-1,2,0
1778085347.584379,8.424640893936157,1,-0.003979921340942383,590,1.6309940814971924,1.7020981311798096,3.7558908462524414,5,,,,,674,591,0,,,,,,,,,0,0,0,lost_self,90,248459.0,65,73.5,0,2,-1,-1,3,0
1778085347.6609468,8.501208782196045,1,-0.004430294036865234,594,1.6309940814971924,1.7020981311798096,3.7558908462524414,5,,,,,678,595,0,,,,,,,,,0,0,0,lost_self,90,248459.0,65,73.5,0,2,-1,-1,3,0
1778085347.7357361,8.575998067855835,1,0.010428190231323242,597,1.6309940814971924,1.7020981311798096,3.7558908462524414,5,,,,,682,598,0,,,,,,,,,0,0,0,lost_self,90,248459.0,65,73.5,0,2,-1,-1,3,0
1778085347.812617,8.652878999710083,1,0.007111072540283203,601,1.6309940814971924,1.7020981311798096,3.7558908462524414,5,,,,,685,602,0,,,,,,,,,0,0,0,lost_self,90,248459.0,65,73.5,0,2,-1,-1,3,0
1778085347.889747,8.730008840560913,1,0.0042018890380859375,605,1.6309940814971924,1.7020981311798096,3.7558908462524414,5,,,,,689,606,0,,,,,,,,,0,0,0,lost_self,90,248459.0,65,73.5,0,2,-1,-1,3,0
1778085347.9651048,8.80536675453186,1,-0.0033142566680908203,609,1.6309940814971924,1.7020981311798096,3.7558908462524414,5,,,,,693,610,0,,,,,,,,,0,0,0,lost_self,90,248459.0,65,73.5,0,2,-1,-1,3,0
1778085348.039416,8.879678010940552,1,0.013882160186767578,612,1.6309940814971924,1.7020981311798096,3.7558908462524414,5,,,,,697,613,0,,,,,,,,,0,0,0,lost_self,90,248459.0,65,73.5,0,2,-1,-1,3,0
1778085348.1138198,8.954081773757935,1,0.008196830749511719,616,1.6309940814971924,1.7020981311798096,3.7558908462524414,5,,,,,701,617,0,,,,,,,,,0,0,0,lost_self,90,248453.00000000003,65,73.5,0,2,-1,-1,3,0
1778085348.189999,9.030261039733887,1,0.00455021858215332,620,1.6309940814971924,1.7020981311798096,3.7558908462524414,5,,,,,704,621,0,,,,,,,,,0,0,0,lost_self,90,248453.00000000003,65,73.5,0,2,-1,-1,3,0
1778085348.265409,9.105670928955078,1,-0.0008709430694580078,624,1.6309940814971924,1.7020981311798096,3.7558908462524414,5,,,,,708,625,0,,,,,,,,,0,0,0,lost_self,90,248453.00000000003,65,73.5,0,2,-1,-1,3,0
1778085348.3421319,9.182393789291382,1,-0.0035011768341064453,628,1.6309940814971924,1.7020981311798096,3.7558908462524414,5,,,,,712,629,0,,,,,,,,,0,0,0,lost_self,90,248453.00000000003,65,73.5,0,2,-1,-1,3,0
1778085348.4171782,9.257440090179443,1,0.01160120964050293,631,1.6309940814971924,1.7020981311798096,3.7558908462524414,5,,,,,716,632,0,,,,,,,,,0,0,0,lost_self,90,248453.00000000003,65,73.5,0,2,-1,-1,3,0
1778085348.4922051,9.332467079162598,1,0.006597280502319336,635,1.6309940814971924,1.7020981311798096,3.7558908462524414,5,,,,,719,636,0,,,,,,,,,0,0,0,lost_self,90,248453.00000000003,65,73.5,0,2,-1,-1,3,0
1778085348.5677068,9.407968759536743,1,0.002168893814086914,639,1.6309940814971924,1.7020981311798096,3.7558908462524414,5,,,,,723,640,0,,,,,,,,,0,0,0,lost_self,90,248453.00000000003,65,73.5,0,2,-1,-1,3,0
1778085348.644341,9.484602928161621,1,-0.0018548965454101562,643,1.6309940814971924,1.7020981311798096,3.7558908462524414,5,,,,,727,644,0,,,,,,,,,0,0,0,lost_self,90,248453.00000000003,65,73.5,0,2,-1,-1,3,0
1778085348.719638,9.559900045394897,1,-0.00624394416809082,647,1.6309940814971924,1.7020981311798096,3.7558908462524414,5,,,,,731,648,0,,,,,,,,,0,0,0,lost_self,90,248453.00000000003,65,73.5,0,2,-1,-1,3,0
1778085348.797735,9.637996912002563,1,0.012204170227050781,650,1.6309940814971924,1.7020981311798096,3.7558908462524414,5,,,,,735,651,0,,,,,,,,,0,0,0,lost_self,90,248453.00000000003,65,73.5,-1,0,-1,-1,3,0
1778085348.873426,9.713687896728516,1,0.007915019989013672,654,1.6309940814971924,1.7020981311798096,3.7558908462524414,5,,,,,739,655,0,,,,,,,,,0,0,0,lost_self,90,248453.00000000003,65,73.5,-1,0,-1,-1,3,0
1778085348.9490612,9.789323091506958,1,0.003139019012451172,658,1.6309940814971924,1.7020981311798096,3.7558908462524414,5,,,,,742,659,0,,,,,,,,,0,0,0,lost_self,90,248453.00000000003,65,73.5,-1,0,-1,-1,3,0
1778085349.024341,9.864603042602539,1,-0.005049943923950195,662,1.6309940814971924,1.7020981311798096,3.7558908462524414,5,0.6103256748649788,1.349759958343054,3.520235385723861,2,746,663,0,,,,,,,,,0,0,0,lost_self,90,248442.0,65,74.0,0,0,-1,0,0,0
1778085349.0990012,9.939263105392456,1,0.013528108596801758,665,1.6309940814971924,1.7020981311798096,3.7558908462524414,5,0.6103256748649788,1.349759958343054,3.520235385723861,2,750,666,0,,,,,,,,,0,0,0,lost_self,90,248442.0,65,74.0,0,0,-1,0,0,0
1778085349.175572,10.015833854675293,1,0.009994983673095703,669,1.6309940814971924,1.7020981311798096,3.7558908462524414,5,0.6103256748649788,1.349759958343054,3.520235385723861,2,754,670,0,,,,,,,,,0,0,0,lost_self,90,248442.0,65,74.0,0,0,-1,0,0,0
1778085349.25262,10.092881917953491,1,0.007132768630981445,673,1.6309940814971924,1.7020981311798096,3.7558908462524414,5,0.6103256748649788,1.349759958343054,3.520235385723861,2,757,674,0,,,,,,,,,0,0,0,lost_self,90,248442.0,65,74.0,0,0,-1,0,0,0
1778085349.327667,10.16792893409729,1,0.0017490386962890625,677,1.6309940814971924,1.7020981311798096,3.7558908462524414,5,0.6103256748649788,1.349759958343054,3.520235385723861,2,761,678,0,,,,,,,,,0,0,0,lost_self,90,248451.00000000003,65,73.5,0,0,-1,0,0,0
1778085349.405688,10.245949983596802,1,-0.0014150142669677734,681,1.6309940814971924,1.7020981311798096,3.7558908462524414,5,0.6103256748649788,1.349759958343054,3.520235385723861,2,765,682,0,,,,,,,,,0,0,0,lost_self,90,248451.00000000003,65,73.5,0,0,-1,0,0,0
1778085349.480342,10.320603847503662,1,-0.0053670406341552734,685,1.6309940814971924,1.7020981311798096,3.7558908462524414,5,0.6103256748649788,1.349759958343054,3.520235385723861,2,769,686,0,,,,,,,,,0,0,0,lost_self,90,248448.99999999997,65,73.5,0,0,-1,0,0,0
1778085349.556085,10.396347045898438,1,0.010521173477172852,688,1.6309940814971924,1.7020981311798096,3.7558908462524414,5,0.6103256748649788,1.349759958343054,3.520235385723861,2,773,689,0,,,,,,,,,0,0,0,lost_self,90,248448.99999999997,65,73.5,0,0,-1,0,0,0
1778085349.646915,10.487176895141602,1,0.0014958381652832031,693,1.6309940814971924,1.7020981311798096,3.7558908462524414,5,,,,,777,694,0,,,,,,,,,0,0,0,lost_self,90,248448.99999999997,65,73.5,0,0,-1,0,0,0
1778085349.719502,10.55976390838623,1,-0.0061190128326416016,697,1.6309940814971924,1.7020981311798096,3.7558908462524414,5,,,,,781,698,0,,,,,,,,,0,0,0,lost_self,90,248459.0,65,73.5,0,0,-1,0,0,0
1778085349.794838,10.6350998878479,1,0.009402990341186523,700,1.6309940814971924,1.7020981311798096,3.7558908462524414,5,,,,,785,701,0,,,,,,,,,0,0,0,lost_self,90,248448.0,65,73.5,0,0,-1,0,0,0
1778085349.8719401,10.712202072143555,1,0.006349086761474609,704,1.6309940814971924,1.7020981311798096,3.7558908462524414,5,,,,,789,705,0,,,,,,,,,0,0,0,lost_self,90,248448.0,65,73.5,0,0,-1,0,0,0
1778085349.9490051,10.78926706314087,1,0.003325939178466797,708,1.6309940814971924,1.7020981311798096,3.7558908462524414,5,,,,,792,709,0,,,,,,,,,0,0,0,lost_self,90,248448.0,65,73.5,0,0,-1,0,0,0
1778085350.0258949,10.866156816482544,1,0.00019288063049316406,712,1.6309940814971924,1.7020981311798096,3.7558908462524414,5,,,,,796,713,0,,,,,,,,,0,0,0,lost_self,90,248448.0,65,73.5,0,0,-1,0,0,0
1778085350.100086,10.940347909927368,1,-0.005443096160888672,716,1.6309940814971924,1.7020981311798096,3.7558908462524414,5,,,,,800,717,0,,,,,,,,,0,0,0,lost_self,90,248448.0,65,73.5,0,0,-1,0,0,0
1778085350.1746728,11.014934778213501,1,0.00909280776977539,719,1.6309940814971924,1.7020981311798096,3.7558908462524414,5,,,,,804,720,0,,,,,,,,,0,0,0,lost_self,90,248448.99999999997,65,74.0,0,0,-1,0,0,0
1778085350.252596,11.092857837677002,1,0.007014751434326172,723,1.6309940814971924,1.7020981311798096,3.7558908462524414,5,,,,,808,724,0,,,,,,,,,0,0,0,lost_self,90,248448.99999999997,65,74.0,0,0,-1,0,0,0
1778085350.3283148,11.168576717376709,1,0.002553701400756836,727,1.6309940814971924,1.7020981311798096,3.7558908462524414,5,,,,,811,728,0,,,,,,,,,0,0,0,lost_self,90,248448.99999999997,65,74.0,0,0,-1,0,0,0
1778085350.403927,11.244189023971558,1,-0.001986980438232422,731,1.6309940814971924,1.7020981311798096,3.7558908462524414,5,,,,,815,732,0,,,,,,,,,0,0,0,lost_self,90,248448.99999999997,65,74.0,0,0,-1,0,0,0
1778085350.48127,11.321532011032104,1,-0.0045261383056640625,735,1.6309940814971924,1.7020981311798096,3.7558908462524414,5,,,,,819,736,0,,,,,,,,,0,0,0,lost_self,90,248448.0,65,74.0,0,0,-1,0,0,0
1778085350.558238,11.398499965667725,1,-0.007506132125854492,739,1.6309940814971924,1.7020981311798096,3.7558908462524414,5,,,,,823,740,0,,,,,,,,,0,0,0,lost_self,90,248453.00000000003,65,74.0,0,0,-1,0,0,0
1778085350.635742,11.476003885269165,1,0.010136127471923828,742,1.6309940814971924,1.7020981311798096,3.7558908462524414,5,,,,,827,743,0,,,,,,,,,0,0,0,lost_self,90,248453.00000000003,65,74.0,0,0,-1,0,0,0
1778085350.712666,11.55292797088623,1,0.006886005401611328,746,1.6309940814971924,1.7020981311798096,3.7558908462524414,5,,,,,830,747,0,,,,,,,,,0,0,0,lost_self,90,248453.00000000003,65,74.0,0,0,-1,0,0,0
1778085350.790431,11.630692958831787,1,0.0046122074127197266,750,1.6309940814971924,1.7020981311798096,3.7558908462524414,5,,,,,834,751,0,,,,,,,,,0,0,0,lost_self,90,248448.99999999997,65,74.0,0,0,-1,0,0,0
1778085350.86622,11.70648193359375,1,0.0004379749298095703,754,1.6309940814971924,1.7020981311798096,3.7558908462524414,5,,,,,838,755,0,,,,,,,,,0,0,0,lost_self,90,248448.99999999997,65,74.0,0,0,-1,0,0,0
1778085350.943399,11.783660888671875,1,-0.0060882568359375,758,1.6309940814971924,1.7020981311798096,3.7558908462524414,5,,,,,842,759,0,,,,,,,,,0,0,0,lost_self,90,248448.99999999997,65,74.0,0,0,-1,0,0,0
1778085351.021337,11.86159896850586,1,-0.0054738521575927734,762,1.6309940814971924,1.7020981311798096,3.7558908462524414,5,,,,,846,763,0,,,,,,,,,0,0,0,lost_self,90,248453.00000000003,65,74.0,0,0,-1,0,0,0
1778085351.095636,11.935897827148438,1,0.009825944900512695,765,1.6309940814971924,1.7020981311798096,3.7558908462524414,5,,,,,850,766,0,,,,,,,,,0,0,0,lost_self,90,248453.00000000003,65,74.0,0,0,-1,0,0,0
1778085351.172978,12.013239860534668,1,0.0070950984954833984,769,1.6309940814971924,1.7020981311798096,3.7558908462524414,5,,,,,854,770,0,,,,,,,,,0,0,0,lost_self,90,248453.00000000003,65,74.0,0,0,-1,0,0,0
1778085351.2504919,12.09075379371643,1,0.004771709442138672,773,1.6309940814971924,1.7020981311798096,3.7558908462524414,5,,,,,857,774,0,,,,,,,,,0,0,0,lost_self,90,248453.00000000003,65,74.0,0,0,-1,0,0,0
1778085351.3276238,12.167885780334473,1,0.0019838809967041016,777,1.6309940814971924,1.7020981311798096,3.7558908462524414,5,1.8114294430093973,1.148935438734346,3.544612980736639,4,861,778,0,,,,,,,,,0,0,0,lost_self,90,248453.00000000003,65,74.0,0,0,-1,0,0,0
1778085351.399362,12.2396240234375,1,0.013846158981323242,780,1.6309940814971924,1.7020981311798096,3.7558908462524414,5,1.8114294430093973,1.148935438734346,3.544612980736639,4,865,781,0,,,,,,,,,0,0,0,lost_self,90,248453.00000000003,65,74.0,0,0,-1,0,0,0
1778085351.4738638,12.314125776290894,1,0.008204936981201172,784,1.6309940814971924,1.7020981311798096,3.7558908462524414,5,1.7215692525428277,1.1023562689497113,3.5426968725035572,4,868,785,0,,,,,,,,,0,0,0,lost_self,90,248452.0,65,73.0,0,0,-1,0,0,0
1778085351.5450518,12.385313749313354,1,-0.0004811286926269531,788,1.6309940814971924,1.7020981311798096,3.7558908462524414,5,1.6888290979479432,1.1789242541251275,3.5060992615095863,4,872,789,0,,,,,,,,,0,0,0,lost_self,90,248444.99999999997,65,73.0,0,0,-1,0,0,0
1778085351.616931,12.45719289779663,1,0.011295795440673828,791,1.6309940814971924,1.7020981311798096,3.7558908462524414,5,1.6643628275574893,1.2465199045284667,3.470730949362562,4,876,792,0,,,,,,,,,0,0,0,lost_self,90,248444.99999999997,65,73.0,0,0,-1,0,0,0
1778085351.68826,12.52852201461792,1,0.0026102066040039062,795,1.6309940814971924,1.7020981311798096,3.7558908462524414,5,1.6643628275574893,1.2465199045284667,3.470730949362562,4,879,796,0,,,,,,,,,0,0,0,lost_self,90,248444.99999999997,65,73.0,0,0,-1,0,0,0
1778085351.7625458,12.602807760238647,1,-0.004001140594482422,799,1.6309940814971924,1.7020981311798096,3.7558908462524414,5,1.8307412302400423,1.1390168784257249,3.54905838194143,4,883,800,0,,,,,,,,,0,0,0,lost_self,90,248453.00000000003,65,73.0,0,0,-1,0,0,0
1778085351.8385751,12.678837060928345,1,0.012593269348144531,802,1.6309940814971924,1.7020981311798096,3.7558908462524414,5,1.8307412302400423,1.1390168784257249,3.54905838194143,4,887,803,0,,,,,,,,,0,0,0,lost_self,90,248453.00000000003,65,73.0,0,0,-1,0,0,0
1778085351.913873,12.754134893417358,1,0.008038043975830078,806,1.6309940814971924,1.7020981311798096,3.7558908462524414,5,1.8307412302400423,1.1390168784257249,3.54905838194143,4,891,807,0,,,,,,,,,0,0,0,lost_self,90,248453.00000000003,65,73.0,0,0,-1,0,0,0
1778085351.988808,12.82906985282898,1,0.002972841262817383,810,1.6309940814971924,1.7020981311798096,3.7558908462524414,5,1.8307412302400423,1.1390168784257249,3.54905838194143,4,894,811,0,,,,,,,,,0,0,0,lost_self,90,248453.00000000003,65,73.0,0,0,-1,0,0,0
1778085352.062923,12.90318489074707,1,-0.0036940574645996094,814,1.6309940814971924,1.7020981311798096,3.7558908462524414,5,1.8307412302400423,1.1390168784257249,3.54905838194143,4,898,815,0,,,,,,,,,0,0,0,lost_self,90,248453.00000000003,65,73.0,0,0,-1,0,0,0
1778085352.139901,12.980162858963013,1,-0.005961894989013672,818,1.6309940814971924,1.7020981311798096,3.7558908462524414,5,1.8307412302400423,1.1390168784257249,3.54905838194143,4,902,819,0,,,,,,,,,0,0,0,lost_self,90,248453.00000000003,65,73.0,0,0,-1,0,0,0
1778085352.2182631,13.058525085449219,1,0.012342214584350586,821,1.6309940814971924,1.7020981311798096,3.7558908462524414,5,1.8307412302400423,1.1390168784257249,3.54905838194143,4,906,822,0,,,,,,,,,0,0,0,lost_self,90,248453.00000000003,65,73.0,0,0,-1,0,0,0
1778085352.294184,13.134445905685425,1,0.008227825164794922,825,1.6309940814971924,1.7020981311798096,3.7558908462524414,5,1.8307412302400423,1.1390168784257249,3.54905838194143,4,910,826,0,,,,,,,,,0,0,0,lost_self,90,248453.00000000003,65,73.0,0,0,-1,0,0,0
1778085352.370323,13.210584878921509,1,0.004461050033569336,829,1.6309940814971924,1.7020981311798096,3.7558908462524414,5,1.8307412302400423,1.1390168784257249,3.54905838194143,4,913,830,0,,,,,,,,,0,0,0,lost_self,90,248453.00000000003,65,73.0,0,0,-1,0,0,0
1778085352.447905,13.288166999816895,1,0.00189208984375,833,1.6309940814971924,1.7020981311798096,3.7558908462524414,5,1.8307412302400423,1.1390168784257249,3.54905838194143,4,917,834,0,,,,,,,,,0,0,0,lost_self,90,248453.00000000003,65,73.0,0,0,-1,0,0,0
1778085352.523725,13.36398696899414,1,-0.0031371116638183594,837,1.6309940814971924,1.7020981311798096,3.7558908462524414,5,1.8307412302400423,1.1390168784257249,3.54905838194143,4,921,838,0,,,,,,,,,0,0,0,lost_self,90,248453.00000000003,65,73.0,0,0,-1,0,0,0
1778085352.5985038,13.43876576423645,1,0.012841939926147461,840,1.6309940814971924,1.7020981311798096,3.7558908462524414,5,1.8307412302400423,1.1390168784257249,3.54905838194143,4,925,841,0,,,,,,,,,0,0,0,lost_self,90,248453.00000000003,65,73.0,0,0,-1,0,0,0
1778085352.671628,13.511889934539795,1,0.0059659481048583984,844,1.6309940814971924,1.7020981311798096,3.7558908462524414,5,1.8307412302400423,1.1390168784257249,3.54905838194143,4,928,845,0,,,,,,,,,0,0,0,lost_self,90,248453.00000000003,65,73.0,0,0,-1,0,0,0
1778085352.746254,13.5865159034729,1,0.0002269744873046875,848,1.6309940814971924,1.7020981311798096,3.7558908462524414,5,1.8307412302400423,1.1390168784257249,3.54905838194143,4,932,849,0,,,,,,,,,0,0,0,lost_self,90,248453.00000000003,65,73.0,0,0,-1,0,0,0
1778085352.8221161,13.662378072738647,1,-0.0039670467376708984,852,1.6309940814971924,1.7020981311798096,3.7558908462524414,5,1.8307412302400423,1.1390168784257249,3.54905838194143,4,936,853,0,,,,,,,,,0,0,0,lost_self,90,248453.00000000003,65,73.0,0,0,-1,0,0,0
1778085352.899678,13.73993992805481,1,0.013545989990234375,855,1.6309940814971924,1.7020981311798096,3.7558908462524414,5,1.8805322676625928,1.4585654261684295,3.4263313286403907,4,940,856,0,,,,,,,,,0,0,0,lost_self,90,248453.00000000003,65,73.0,0,0,-1,0,0,0
1778085352.9757178,13.815979719161987,1,0.009782791137695312,859,1.6309940814971924,1.7020981311798096,3.7558908462524414,5,1.8805322676625928,1.4585654261684295,3.4263313286403907,4,944,860,0,,,,,,,,,0,0,0,lost_self,90,248453.00000000003,65,73.0,0,0,-1,0,0,0
1778085353.0523362,13.892598152160645,1,0.00646519660949707,863,1.6309940814971924,1.7020981311798096,3.7558908462524414,5,1.90615250936704,1.3118358690226821,3.4841203982021187,4,947,864,0,,,,,,,,,0,0,0,lost_self,90,248452.0,65,74.0,0,0,-1,0,0,0
1778085353.12607,13.966331958770752,1,3.600120544433594e-05,867,1.6309940814971924,1.7020981311798096,3.7558908462524414,5,1.90615250936704,1.3118358690226821,3.4841203982021187,4,951,868,0,,,,,,,,,0,0,0,lost_self,90,248452.0,65,74.0,0,0,-1,0,0,0
1778085353.202942,14.043203830718994,1,-0.004786968231201172,871,1.6309940814971924,1.7020981311798096,3.7558908462524414,5,1.90615250936704,1.3118358690226821,3.4841203982021187,4,955,872,0,,,,,,,,,0,0,0,lost_self,90,248452.0,65,74.0,0,0,-1,0,0,0
1778085353.279711,14.119972944259644,1,0.013749122619628906,874,1.6309940814971924,1.7020981311798096,3.7558908462524414,5,1.90615250936704,1.3118358690226821,3.4841203982021187,4,959,875,0,,,,,,,,,0,0,0,lost_self,90,248456.0,65,74.0,0,0,-1,0,0,0
1778085353.355237,14.195498943328857,1,0.009222030639648438,878,1.6309940814971924,1.7020981311798096,3.7558908462524414,5,1.90615250936704,1.3118358690226821,3.4841203982021187,4,963,879,0,,,,,,,,,0,0,0,lost_self,90,248456.0,65,74.0,0,0,-1,0,0,0
1778085353.430704,14.270966053009033,1,0.004876136779785156,882,1.6309940814971924,1.7020981311798096,3.7558908462524414,5,2.1493789691302174,1.6396536891287474,3.378272040520111,4,966,883,0,,,,,,,,,0,0,0,lost_self,90,248456.0,65,74.0,0,0,-1,0,0,0
1778085353.502456,14.34271788597107,1,-0.003779888153076172,886,1.6309940814971924,1.7020981311798096,3.7558908462524414,5,2.1493789691302174,1.6396536891287474,3.378272040520111,4,970,887,0,,,,,,,,,0,0,0,lost_self,90,248456.0,65,74.0,0,0,-1,0,0,0
1778085353.5776598,14.417921781539917,1,0.011664867401123047,889,1.6309940814971924,1.7020981311798096,3.7558908462524414,5,2.1493789691302174,1.6396536891287474,3.378272040520111,4,974,890,0,,,,,,,,,0,0,0,lost_self,90,248455.00000000003,65,74.0,0,0,-1,0,0,0
1778085353.653673,14.493934869766235,1,0.007561922073364258,893,1.6309940814971924,1.7020981311798096,3.7558908462524414,5,2.1493789691302174,1.6396536891287474,3.378272040520111,4,978,894,0,,,,,,,,,0,0,0,lost_self,90,248455.00000000003,65,74.0,0,0,-1,0,0,0
1778085353.730656,14.570917844772339,1,0.004621028900146484,897,1.6309940814971924,1.7020981311798096,3.7558908462524414,5,2.1493789691302174,1.6396536891287474,3.378272040520111,4,981,898,0,,,,,,,,,0,0,0,lost_self,90,248455.00000000003,65,74.0,0,0,-1,0,0,0
1778085353.806967,14.647228956222534,1,0.001116037368774414,901,1.6309940814971924,1.7020981311798096,3.7558908462524414,5,,,,,985,902,0,,,,,,,,,0,0,0,lost_self,90,248457.00000000003,65,74.0,0,0,-1,0,0,0
1778085353.877481,14.717742919921875,1,0.011810064315795898,904,1.6309940814971924,1.7020981311798096,3.7558908462524414,5,,,,,989,905,0,,,,,,,,,0,0,0,lost_self,90,248452.0,65,74.0,0,0,-1,0,0,0
1778085353.95209,14.792351961135864,1,0.006127119064331055,908,1.6309940814971924,1.7020981311798096,3.7558908462524414,5,,,,,992,909,0,,,,,,,,,0,0,0,lost_self,90,248452.0,65,74.0,0,0,-1,0,0,0
1778085354.028096,14.86835789680481,1,0.0019450187683105469,912,1.6309940814971924,1.7020981311798096,3.7558908462524414,5,,,,,996,913,0,,,,,,,,,0,0,0,lost_self,90,248452.0,65,74.0,0,0,-1,0,0,0
1778085354.104651,14.944912910461426,1,-0.0018429756164550781,916,1.6309940814971924,1.7020981311798096,3.7558908462524414,5,,,,,1000,917,0,,,,,,,,,0,0,0,lost_self,90,248452.0,65,74.0,0,0,-1,0,0,0
1778085354.179132,15.019393920898438,1,0.01326608657836914,919,1.6309940814971924,1.7020981311798096,3.7558908462524414,5,,,,,1004,920,0,,,,,,,,,0,0,0,lost_self,90,248452.0,65,74.0,0,0,-1,0,0,0
1778085354.251998,15.092259883880615,1,0.0061798095703125,923,1.6309940814971924,1.7020981311798096,3.7558908462524414,5,1.550437221660095,0.8182866228475373,3.567986304186609,4,1007,924,0,,,,,,,,,0,0,0,lost_self,90,248452.0,65,74.0,0,0,-1,0,0,0
1778085354.326526,15.16678786277771,1,0.0006449222564697266,927,1.6309940814971924,1.7020981311798096,3.7558908462524414,5,1.550437221660095,0.8182866228475373,3.567986304186609,4,1011,928,0,,,,,,,,,0,0,0,lost_self,90,248452.0,65,74.0,0,0,-1,0,0,0
1778085354.399564,15.239825963973999,1,0.01360011100769043,930,1.6309940814971924,1.7020981311798096,3.7558908462524414,5,1.4481285926829346,0.9267981411687736,3.5244513042318264,4,1015,931,0,,,,,,,,,0,0,0,lost_self,90,248463.0,65,74.0,0,0,-1,0,0,0
1778085354.473166,15.313427925109863,1,0.007257938385009766,934,1.6309940814971924,1.7020981311798096,3.7558908462524414,5,1.4481285926829346,0.9267981411687736,3.5244513042318264,4,1018,935,0,,,,,,,,,0,0,0,lost_self,90,248462.0,65,73.5,0,0,-1,0,0,0
1778085354.546012,15.386273860931396,1,-0.00020122528076171875,938,1.6309940814971924,1.7020981311798096,3.7558908462524414,5,1.4481285926829346,0.9267981411687736,3.5244513042318264,4,1022,939,0,,,,,,,,,0,0,0,lost_self,90,248462.0,65,73.5,0,0,-1,0,0,0
1778085354.62027,15.460531949996948,1,-0.0056819915771484375,942,1.6309940814971924,1.7020981311798096,3.7558908462524414,5,1.3477658363532783,0.8387567633755728,3.516420833398443,4,1026,943,0,,,,,,,,,0,0,0,lost_self,90,248459.0,65,73.5,0,0,-1,0,0,0
1778085354.695328,15.535589933395386,1,0.009231090545654297,945,1.6309940814971924,1.7020981311798096,3.7558908462524414,5,1.4369456794795497,0.8317380710849608,3.533746500700469,4,1030,946,0,,,,,,,,,0,0,0,lost_self,90,248459.0,65,73.5,0,0,-1,0,0,0
1778085354.7700539,15.610315799713135,1,0.003989696502685547,949,1.6309940814971924,1.7020981311798096,3.7558908462524414,5,1.4369456794795497,0.8317380710849608,3.533746500700469,4,1033,950,0,,,,,,,,,0,0,0,lost_self,90,248459.0,65,73.5,0,0,-1,0,0,0
1778085354.844367,15.684628963470459,1,-0.0016210079193115234,953,1.6309940814971924,1.7020981311798096,3.7558908462524414,5,1.683465158772528,1.1723561849619575,3.492760030168395,4,1037,954,0,,,,,,,,,0,0,0,lost_self,90,248459.0,65,73.5,0,0,-1,0,0,0
1778085354.9190981,15.759360074996948,1,0.013015985488891602,956,1.6309940814971924,1.7020981311798096,3.7558908462524414,5,1.683465158772528,1.1723561849619575,3.492760030168395,4,1041,957,0,,,,,,,,,0,0,0,lost_self,90,248459.0,65,73.5,0,0,-1,0,0,0
1778085354.995005,15.835266828536987,1,0.008828878402709961,960,1.6309940814971924,1.7020981311798096,3.7558908462524414,5,1.6308060689049875,1.0580510317427043,3.5201911005709356,4,1045,961,0,,,,,,,,,0,0,0,lost_self,90,248459.0,65,73.5,0,0,-1,0,0,0
1778085355.0685802,15.908842086791992,1,0.002382040023803711,964,1.6309940814971924,1.7020981311798096,3.7558908462524414,5,1.446800997655695,0.8242402617709265,3.5370750834591536,4,1048,965,0,,,,,,,,,0,0,0,lost_self,90,248459.0,65,73.5,0,0,-1,0,0,0
1778085355.142967,15.983228921890259,1,-0.0031380653381347656,968,1.6309940814971924,1.7020981311798096,3.7558908462524414,5,1.6557763920567607,0.9619838173603719,3.5413780724679427,4,1052,969,0,,,,,,,,,0,0,0,lost_self,90,248461.0,65,73.5,0,0,-1,0,0,0
1778085355.2171688,16.057430744171143,1,0.011150836944580078,971,1.6309940814971924,1.7020981311798096,3.7558908462524414,5,1.3230404681890169,0.7516737462735934,3.5168934775096523,4,1056,972,0,,,,,,,,,0,0,0,lost_self,90,248461.0,65,74.0,0,0,-1,0,0,0
1778085355.290464,16.130725860595703,1,0.0045359134674072266,975,1.6309940814971924,1.7020981311798096,3.7558908462524414,5,1.4464515403698885,0.8258980197198532,3.536903436000995,4,1059,976,0,,,,,,,,,0,0,0,lost_self,90,248461.0,65,74.0,0,0,-1,0,0,0
1778085355.36219,16.202451944351196,1,-0.0051081180572509766,979,1.6309940814971924,1.7020981311798096,3.7558908462524414,5,1.4464515403698885,0.8258980197198532,3.536903436000995,4,1063,980,0,,,,,,,,,0,0,0,lost_self,90,248461.0,65,74.0,0,0,-1,0,0,0
