timestamp,elapsed,target_x,target_y,target_z,pos_x,pos_y,pos_z,marker_id,publish_count,err_x_cm,err_y_cm,err_z_cm,err_3d_cm,cmd_lr,cmd_fb,cmd_ud,vel_x_pub,vel_y_pub,vel_z_pub,tello_height_cm,tello_baro_cm,tello_battery,tello_temp_c,tello_pitch,tello_roll,tello_yaw,tello_vgx,tello_vgy,tello_vgz
1778190644.648733,6.9141387939453125e-06,-0.08294747181786097,0.7409959762557009,3.881007020383619,0.005468443363137787,0.8641844069342837,3.9196532051929833,2,0,-8.841591518099875,-12.318843067858277,-3.8646184809364215,15.648096085679269,-30,21,-30,0.0,0.0,0.0,70,252213.0,83,66.5,-1,0,1,0,0,0
1778190644.721192,0.07246589660644531,-0.08294747181786097,0.7409959762557009,3.881007020383619,-0.03684589934592197,0.780423540444849,3.9268863477144307,2,3,-4.610157247193899,-3.9427564189148057,-4.587932733081157,7.60578758486101,11,5,26,-0.5839764963295007,-1.1559763004790877,0.09982395936454841,70,252203.00000000003,83,66.5,-1,0,1,0,0,0
1778190644.793204,0.14447808265686035,-0.08294747181786097,0.7409959762557009,3.881007020383619,-0.15104276665531868,0.734988180132634,3.884151876749202,2,7,6.809529483745772,0.60077961230669,-0.31448563655827044,6.843210441610559,30,-14,16,-1.585799203893749,-0.6309398839858312,-0.5934338798618177,70,252203.00000000003,83,66.5,-1,0,1,0,0,0
1778190644.865927,0.21720099449157715,-0.08294747181786097,0.7409959762557009,3.881007020383619,-0.15104276665531868,0.734988180132634,3.884151876749202,2,11,6.809529483745772,0.60077961230669,-0.31448563655827044,6.843210441610559,4,0,0,0.0,0.0,0.0,70,252203.00000000003,83,66.5,-1,0,1,0,0,0
1778190644.938619,0.28989291191101074,-0.08294747181786097,0.7409959762557009,3.881007020383619,-0.03684589934592197,0.780423540444849,3.9268863477144307,2,14,-4.610157247193899,-3.9427564189148057,-4.587932733081157,7.60578758486101,-30,17,-18,1.5709706300698998,0.625040058443529,0.587884767417129,70,252215.0,83,66.5,-1,-1,1,0,0,0
1778190645.011758,0.36303210258483887,-0.08294747181786097,0.7409959762557009,3.881007020383619,-0.108639565271472,0.8136606193378787,3.880843926456014,2,18,2.5692093453611036,-7.266464308217779,0.016309392760494035,7.7073086222874165,26,-15,-16,-0.9816032316480148,0.4544359677324564,-0.629517784299084,70,252215.0,83,66.5,-1,-1,1,0,0,0
1778190645.085637,0.43691110610961914,-0.08294747181786097,0.7409959762557009,3.881007020383619,-0.14176644297561047,0.7303108022664682,3.8684170687852872,2,22,5.881897115774951,1.0685173989232744,1.2589951598331872,6.109297171102977,14,-4,29,-0.4483936724055455,-1.1281935745580758,-0.16820553984000003,70,252212.0,83,66.5,0,0,1,0,0,0
1778190645.15789,0.5091640949249268,-0.08294747181786097,0.7409959762557009,3.881007020383619,-0.14436982817345823,0.7343813857868321,3.866900900767153,2,25,6.142235635559726,0.6614590468868808,1.4106119616466017,6.336750964002668,4,-1,-1,-0.036031522578290835,0.056337925767598634,-0.02098415640645343,70,252214.0,83,66.5,0,0,1,0,0,0
1778190645.228943,0.5802171230316162,-0.08294747181786097,0.7409959762557009,3.881007020383619,-0.190605703929011,0.653203597401711,3.866134005651778,2,29,10.765823211115002,8.779237885398993,1.4873014731841216,13.971042657351784,22,-1,30,-0.6507235087310766,-1.142495830905741,-0.010793278426130834,70,252211.0,83,66.5,0,0,1,0,0,0
1778190645.299403,0.650676965713501,-0.08294747181786097,0.7409959762557009,3.881007020383619,0.01074183966556752,0.8583346156926082,3.9034998238068424,2,32,-9.368931148342849,-11.733863943690725,-2.249280342322324,15.182875089053184,-30,14,-30,2.8576212482283188,2.911318142122909,0.5303136756033549,70,252211.0,83,66.5,0,0,1,0,0,0
1778190645.369792,0.7210659980773926,-0.08294747181786097,0.7409959762557009,3.881007020383619,-0.19225732522661843,0.6525533121974015,3.8652794014117644,2,36,10.930985340875745,8.844266405829938,1.5727618971854707,14.148535923019415,30,-14,30,-2.8839601579225733,-2.9234853298078436,-0.542988319508202,70,252219.99999999997,83,66.5,0,0,1,0,0,0
1778190645.4414232,0.7926971912384033,-0.08294747181786097,0.7409959762557009,3.881007020383619,-0.0795718987411389,0.697340040620926,3.910139862917196,2,39,-0.3375573076722066,4.365593563477487,-2.913284253357684,5.25923732477446,-30,17,-12,1.5731334564285162,0.6252405753294384,0.6262699185338901,70,252209.0,83,67.5,0,0,1,0,0,0
1778190645.5110269,0.8623008728027344,-0.08294747181786097,0.7409959762557009,3.881007020383619,-0.2611033621055021,0.6981500124221087,3.8351772674678606,2,43,17.815589028764116,4.284596383359219,4.582975291575853,18.888002571296678,30,-29,2,-2.6080727238053227,0.011636910332596149,-1.0769918165902093,70,252217.99999999997,83,67.5,0,0,1,0,0,0
1778190645.5825238,0.9337978363037109,-0.08294747181786097,0.7409959762557009,3.881007020383619,-0.00022930016804489917,0.8593932282853529,3.9183622342176565,2,46,-8.271817164981607,-11.839725202965202,-3.7355213834037393,14.918316664372034,-30,30,-30,3.64874323556264,2.255245649153223,1.1634755194695745,70,252217.99999999997,83,67.5,0,0,1,0,0,0
1778190645.6532428,1.004516839981079,-0.08294747181786097,0.7409959762557009,3.881007020383619,-0.15807384129386892,0.7373295401646718,3.879126294879514,2,50,7.512636947600796,0.3666436091029124,0.18807255041051185,7.523929340894325,30,-13,30,-2.2319961102101638,-1.7260380063830643,-0.5548146509125522,70,252213.0,83,67.5,0,0,1,0,0,0
1778190645.722949,1.0742230415344238,-0.08294747181786097,0.7409959762557009,3.881007020383619,-0.15800905084018946,0.7294617045777878,3.8805308784978765,2,53,7.506157902232849,1.15342716779131,0.04761418857426314,7.5944102993981915,4,0,3,0.0009294790454172333,-0.11287138606832395,0.020150052463948822,70,252208.0,83,67.5,0,0,1,0,0,0
1778190645.793181,1.1444549560546875,-0.08294747181786097,0.7409959762557009,3.881007020383619,-0.11347881047862063,0.8042673393366444,3.8799646672742805,2,57,3.053133866075966,-6.3271363080943495,0.10423531093386451,7.0260333948417335,-13,0,-30,0.634045656675367,1.0651231035040813,-0.008062021766936846,70,252208.0,83,67.5,0,0,1,0,0,0
1778190645.8653078,1.2165818214416504,-0.08294747181786097,0.7409959762557009,3.881007020383619,-0.0014486557778206066,0.8597171661513556,3.9173017937623014,2,61,-8.149881604004037,-11.872118989565472,-3.6294773378682255,14.850619017663321,-30,15,-27,1.5532375363847402,0.7687818750644599,0.517659075958813,70,252215.0,83,67.5,0,0,1,0,0,0
1778190645.936728,1.2880020141601562,-0.08294747181786097,0.7409959762557009,3.881007020383619,-0.0440416265555863,0.7704304408499344,3.9246121276898958,2,64,-3.890584526227467,-2.943446459423349,-4.360510730627665,6.543285019554893,12,5,28,-0.596371546428624,-1.2501608005082565,0.10235668162374188,70,252210.0,83,67.5,0,0,1,0,0,0
1778190646.010326,1.3615999221801758,-0.08294747181786097,0.7409959762557009,3.881007020383619,-0.15868001290113365,0.7282772780495479,3.8808182950962977,2,68,7.573254108327268,1.2718698206153012,0.01887252873213896,7.679335049483685,30,-14,15,-1.557631044544966,-0.5727494698479789,-0.5950418126244238,70,252210.0,83,67.5,0,0,1,0,0,0
1778190646.081922,1.4331960678100586,-0.08294747181786097,0.7409959762557009,3.881007020383619,-0.15868001290113365,0.7282772780495479,3.8808182950962977,2,71,7.573254108327268,1.2718698206153012,0.01887252873213896,7.679335049483685,4,0,0,0.0,0.0,0.0,70,252215.0,83,67.5,0,0,1,0,0,0
1778190646.151003,1.50227689743042,-0.08294747181786097,0.7409959762557009,3.881007020383619,-0.16675619159710808,0.7375582815472765,3.8968504449166623,2,75,8.380871977924711,0.3437694708424366,-1.5843424533043216,8.53623649911302,8,6,-3,-0.11690911560208028,0.13434991369867832,0.23207813091519658,70,252217.99999999997,83,67.5,-1,0,1,0,0,0
1778190646.219831,1.5711050033569336,-0.08294747181786097,0.7409959762557009,3.881007020383619,-0.16771329252694822,0.7380768421543995,3.8958084346730937,2,78,8.476582070908725,0.29191341013014016,-1.4801414289474568,8.609789526669724,5,0,0,-0.01390567003052524,0.007534140307109723,-0.015139313069012532,70,252217.99999999997,83,67.5,-1,0,1,0,0,0
1778190646.2886899,1.6399638652801514,-0.08294747181786097,0.7409959762557009,3.881007020383619,-0.011398786526063631,0.8696616486831538,3.931981569213468,2,82,-7.154868529179733,-12.866567242745287,-5.097454882984875,15.57962588016795,-30,15,-30,2.2700710066220045,1.9109349596204495,0.525322863754409,70,252215.0,82,67.5,-1,0,1,0,0,0
1778190646.360981,1.7122550010681152,-0.08294747181786097,0.7409959762557009,3.881007020383619,-0.1686464484194794,0.731718996202511,3.896908440874314,2,85,8.569897660161843,0.9276980053189887,-1.5901420490695095,8.76540479561208,30,-11,30,-2.1751997693691894,-1.9081544504327672,-0.4851649923169857,70,252213.0,82,67.5,0,0,1,0,0,0
1778190646.431943,1.783216953277588,-0.08294747181786097,0.7409959762557009,3.881007020383619,-0.052068554918436094,0.7710916806318646,3.942613418107185,2,89,-3.0878916899424875,-3.009570437616371,-6.160639772356591,7.519712209422122,-30,20,-16,1.6428225249062611,0.5548421823730177,0.6440772246224885,70,252212.0,82,67.0,0,0,1,0,0,0
1778190646.50109,1.8523640632629395,-0.08294747181786097,0.7409959762557009,3.881007020383619,-0.1326735716868097,0.8210788996420337,3.9103093286513455,2,92,4.9726099868948745,-8.008292338633282,-2.9302308267726396,9.871466403779523,30,-9,-23,-1.1657033357641318,0.7229111819822786,-0.46717917007208193,70,252212.0,82,67.0,0,0,1,0,0,0
1778190646.573868,1.9251420497894287,-0.08294747181786097,0.7409959762557009,3.881007020383619,-0.17390170727283483,0.7419873706909892,3.9137410636995047,2,96,9.095423545497386,-0.09913944352882842,-3.2734043315885586,9.667043706289641,20,3,26,-0.5664918411973264,-1.08675071578488,0.047153476098299715,70,252216.0,82,67.0,-1,0,1,0,0,0
1778190646.644285,1.9955589771270752,-0.08294747181786097,0.7409959762557009,3.881007020383619,-0.13346797785012576,0.8103261027532913,3.9118512739448263,2,99,5.05205060322648,-6.933012649759041,-3.0844253561207235,9.116115372062836,-11,1,-29,0.5742046827580373,0.9704872769386899,-0.02683715160726739,70,252214.0,82,67.0,-1,-1,1,0,0,0
1778190646.715389,2.0666630268096924,-0.08294747181786097,0.7409959762557009,3.881007020383619,-0.0554131569267724,0.7756302493608558,3.9617870314535515,2,103,-2.753431489108857,-3.463427310515488,-8.078001106993238,9.21036457394737,-28,22,9,1.097754927767995,-0.48795889330221404,0.7022913284351643,70,252214.0,82,67.0,-1,-1,1,0,0,0
1778190646.788718,2.1399919986724854,-0.08294747181786097,0.7409959762557009,3.881007020383619,-0.16549522957410723,0.7353179993667871,3.8992668141654416,2,107,8.254775775624626,0.5677976888913805,-1.825979378182252,8.473365211702868,30,-20,13,-1.5012084562335224,-0.5497451957937933,-0.8525991255556188,70,252204.0,82,67.0,-1,0,1,0,0,0
1778190646.860362,2.2116360664367676,-0.08294747181786097,0.7409959762557009,3.881007020383619,-0.1297037923485862,0.8133622679468293,3.9158922495718405,2,110,4.6756320530725235,-7.23662916911284,-3.4885229188221345,9.295166969028651,-9,8,-30,0.4995729352397919,1.0893332974450505,0.23205599465818366,70,252209.0,82,67.0,-1,0,1,0,0,0
1778190646.93231,2.2835841178894043,-0.08294747181786097,0.7409959762557009,3.881007020383619,-0.054866377460675464,0.7726172818765106,3.9655823673841066,2,114,-2.8081094357185505,-3.162130562080967,-8.457534700048752,9.455920975618756,-27,22,11,1.0401590227523545,-0.5663111821331407,0.6906388263339849,70,252209.0,82,67.0,-1,0,1,0,0,0
1778190647.0037398,2.355013847351074,-0.08294747181786097,0.7409959762557009,3.881007020383619,-0.054866377460675464,0.7726172818765106,3.9655823673841066,2,118,-2.8081094357185505,-3.162130562080967,-8.457534700048752,9.455920975618756,-1,5,-2,0.0,0.0,0.0,70,252213.0,82,67.0,-1,0,1,0,0,0
1778190647.0773618,2.428635835647583,-0.08294747181786097,0.7409959762557009,3.881007020383619,-0.04552686483143176,0.7667768961180561,3.949610725336677,2,121,-3.7420606986429212,-2.57809198623552,-6.860370495305768,8.228867473393993,-4,0,0,0.12685765279293054,-0.07932936740220346,-0.21694119402351475,70,252213.0,82,67.0,-1,0,1,0,0,0
1778190647.149597,2.500870943069458,-0.08294747181786097,0.7409959762557009,3.881007020383619,-0.04552686483143176,0.7667768961180561,3.949610725336677,2,125,-3.7420606986429212,-2.57809198623552,-6.860370495305768,8.228867473393993,-1,4,-2,0.0,0.0,0.0,70,252213.0,82,67.0,-1,0,1,0,0,0
1778190647.2254632,2.57673716545105,-0.08294747181786097,0.7409959762557009,3.881007020383619,-0.20806298071876128,0.657497725750755,3.901365878272327,2,129,12.511550890090032,8.349825050494585,-2.035885788870795,15.179041965634907,30,-14,30,-2.142404231883402,-1.4404192924968489,-0.6359199858625869,70,252211.0,82,67.0,0,0,1,0,0,0
1778190647.297641,2.6489150524139404,-0.08294747181786097,0.7409959762557009,3.881007020383619,-0.20565113706511373,0.6491027460616501,3.9059857817929426,2,132,12.270366524725276,9.189323019405082,-2.4978761409323536,15.532061595986088,7,3,8,0.033415271007969094,-0.11630957960048263,0.06400718717341855,70,252213.0,82,67.0,-1,0,1,0,0,0
1778190647.369472,2.7207460403442383,-0.08294747181786097,0.7409959762557009,3.881007020383619,-0.2741878933344226,0.6968034817208109,3.8761432288630058,2,136,19.124042151656166,4.419249453489005,0.48637915206133364,19.63403470074464,30,-10,-14,-0.9541391291431831,0.6640690464322698,-0.41545513697925174,70,252213.0,82,67.0,-2,-2,1,0,0,0
1778190647.440752,2.7920260429382324,-0.08294747181786097,0.7409959762557009,3.881007020383619,-0.21596840664821015,0.6550821406703745,3.9207384958454905,2,139,13.302093483034918,8.59138355853264,-3.973147546187139,16.326158883981186,-11,18,20,0.8167716690167163,-0.585316211169045,0.6256350359089662,70,252213.0,82,67.0,-2,-2,1,0,0,0
1778190647.5105238,2.86179780960083,-0.08294747181786097,0.7409959762557009,3.881007020383619,-0.09714689612631267,0.6826984197937243,3.972527251308782,2,143,1.4199424308451696,5.829755646197665,-9.152023092516304,10.94357410023068,-30,24,-6,1.7030027503315863,0.395808798376807,0.742259483176508,70,252213.0,82,68.0,-1,-1,1,0,0,0
1778190647.580406,2.9316799640655518,-0.08294747181786097,0.7409959762557009,3.881007020383619,-0.27463666940629916,0.6938787210878055,3.877818125919304,2,146,19.16891975884382,4.711725516789544,0.31888944643152506,19.742075183364186,30,-30,0,-2.5398440365714245,0.15998793082038296,-1.3552691114766633,70,252213.0,82,68.0,-1,-1,1,0,0,0
1778190647.651328,3.0026021003723145,-0.08294747181786097,0.7409959762557009,3.881007020383619,-0.27463666940629916,0.6938787210878055,3.877818125919304,2,150,19.16891975884382,4.711725516789544,0.31888944643152506,19.742075183364186,12,0,3,0.0,0.0,0.0,70,252211.0,82,68.0,-1,0,1,0,0,0
1778190647.725245,3.076519012451172,-0.08294747181786097,0.7409959762557009,3.881007020383619,-0.09668980216923195,0.6806119724175896,3.9740195523930035,2,154,1.3742330351370984,6.038400383811126,-9.301253200938442,11.174260903435183,-30,30,8,2.4073904365380767,-0.1794819114746344,1.3014805917631984,70,252211.0,82,68.0,-1,0,1,0,0,0
1778190647.796128,3.147402048110962,-0.08294747181786097,0.7409959762557009,3.881007020383619,-0.0497503574949576,0.7672954044540707,3.9722887626803516,2,157,-3.319711432290337,-2.6299428198369834,-9.128174229673247,10.06283498804199,-17,5,-30,0.6622098537027216,1.2229080093652673,-0.024417544995660737,70,252213.0,82,68.0,-1,0,1,0,0,0
1778190647.8691049,3.220378875732422,-0.08294747181786097,0.7409959762557009,3.881007020383619,-0.17804734037888226,0.7262297604638319,3.94326992518757,2,161,9.50998685610213,1.4766215791868986,-6.226290480395091,11.46241486064844,30,-5,15,-1.7580509740628538,-0.5627216930181114,-0.39764454606475824,70,252211.0,82,68.0,-2,-1,1,0,0,0
1778190647.9399822,3.2912561893463135,-0.08294747181786097,0.7409959762557009,3.881007020383619,-0.10357107625740092,0.683954019944588,3.970497370792815,2,164,2.062360443953995,5.704195631111286,-8.949035040919595,10.8109392081531,-23,15,18,1.050777185591362,-0.5964636406727193,0.38414895002324967,70,252211.0,82,68.0,-2,-2,1,0,0,0
1778190648.01024,3.361514091491699,-0.08294747181786097,0.7409959762557009,3.881007020383619,-0.18066986808257468,0.7240845270274885,3.9427234060471634,2,168,9.772239626471372,1.6911449228212416,-6.1716385663544315,11.681000002605717,30,-5,-13,-1.097368259952198,0.5711885191199957,-0.39531446139935333,70,252211.0,82,68.0,-2,-2,1,0,0,0
1778190648.0807638,3.432037830352783,-0.08294747181786097,0.7409959762557009,3.881007020383619,-0.2443978877582611,0.7639778977844427,3.897219869646024,2,171,16.145041594040013,-2.298192152874179,-1.6212849262404738,16.388185380232585,30,-14,-15,-0.9036392667895329,0.5656729407885653,-0.6452229722359358,70,252207.00000000003,82,68.0,-2,-2,1,0,0,0
1778190648.151916,3.503190040588379,-0.08294747181786097,0.7409959762557009,3.881007020383619,-0.22098437787685965,0.6442197673296737,3.923643429993187,2,175,13.803690605899869,9.677620892602723,-4.263640960956794,17.388986592906946,1,12,30,0.3290622990329575,-1.6831259360493762,0.37136668361630376,70,252207.00000000003,82,68.0,-2,-2,1,0,0,0
1778190648.224576,3.575850009918213,-0.08294747181786097,0.7409959762557009,3.881007020383619,-0.28083225551962054,0.6879579246908625,3.8803395218146397,2,178,19.78847837017596,5.303805156483843,0.06674985689794077,20.487036898689432,30,-14,-11,-0.823670560210208,0.6019567275433741,-0.5959802705389649,70,252213.0,82,68.0,-1,-1,1,0,0,0
1778190648.296395,3.6476690769195557,-0.08294747181786097,0.7409959762557009,3.881007020383619,-0.17544936088651641,0.7016326496228794,3.932365632929435,2,182,9.250188906865544,3.9363326632821494,-5.135861254581586,11.288834327557149,-29,22,-2,1.4673386752731532,0.19040521553644332,0.72440527685806,70,252208.0,81,68.0,-1,0,1,0,-1,0
1778190648.368882,3.720155954360962,-0.08294747181786097,0.7409959762557009,3.881007020383619,-0.21682632654625533,0.6278584172946468,3.911740792987406,2,186,13.387885472839436,11.313755896105416,-3.0733772603786846,17.795566798928828,23,-4,30,-0.5708200866175455,-1.0177598336728881,-0.2845320514558075,70,252204.0,81,68.0,0,0,1,0,0,0
1778190648.439907,3.7911810874938965,-0.08294747181786097,0.7409959762557009,3.881007020383619,-0.16890767210747315,0.6947735426543145,3.91796874007592,2,189,8.596020028961219,4.622243360138645,-3.696171969230111,10.436396947451291,-10,5,-20,0.6746718003202469,0.9421330507670524,0.08768652466807338,70,252204.0,81,68.0,0,0,1,0,0,0
1778190648.510598,3.8618719577789307,-0.08294747181786097,0.7409959762557009,3.881007020383619,-0.16890767210747315,0.6947735426543145,3.91796874007592,2,193,8.596020028961219,4.622243360138645,-3.696171969230111,10.436396947451291,6,3,3,0.0,0.0,0.0,70,252204.0,81,68.0,0,0,1,0,0,0
1778190648.583934,3.9352080821990967,-0.08294747181786097,0.7409959762557009,3.881007020383619,-0.17260007185461235,0.6976853186656006,3.9168141898097217,2,197,8.965260003675137,4.331065759010033,-3.5807169426102625,10.580905035272856,8,2,2,-0.050348989346427175,0.03970452535238464,-0.01574326807323084,70,252212.0,81,67.0,0,1,1,0,0,0
1778190648.658585,4.009859085083008,-0.08294747181786097,0.7409959762557009,3.881007020383619,-0.17260007185461235,0.6976853186656006,3.9168141898097217,2,200,8.965260003675137,4.331065759010033,-3.5807169426102625,10.580905035272856,7,3,3,0.0,0.0,0.0,70,252212.0,81,67.0,0,1,1,0,0,0
1778190648.7352252,4.086499214172363,-0.08294747181786097,0.7409959762557009,3.881007020383619,-0.23812437184101953,0.73233835562532,3.8716503137735687,2,204,15.517690002315856,0.8657620630380891,0.9356706610050392,15.569962316705684,30,-15,-11,-0.8549607205125107,0.4521526434189213,-0.5892980162324103,70,252214.0,81,67.0,-1,0,1,0,0,0
1778190648.8053172,4.156591176986694,-0.08294747181786097,0.7409959762557009,3.881007020383619,-0.23904402067265473,0.7288899268135904,3.8735634645643917,2,208,15.609654885479376,1.2106049442110467,0.7443555819227399,15.674213065001316,11,1,2,-0.01312060320055937,-0.04919863381289855,0.02729486682932253,70,252209.0,81,67.0,0,0,1,0,0,0
1778190648.8768268,4.228100776672363,-0.08294747181786097,0.7409959762557009,3.881007020383619,-0.33705967819057214,0.6958567564074638,3.8273351402775186,2,211,25.411220637271114,4.51392198482371,5.367188010610047,26.36118990300674,30,-18,15,-1.3706643296670624,-0.4619403625713028,-0.646463195012649,70,252205.00000000003,81,67.0,0,0,1,0,0,0
1778190648.947041,4.298315048217773,-0.08294747181786097,0.7409959762557009,3.881007020383619,-0.2768271309218415,0.6567968031550264,3.853684528353403,2,215,19.387965910398055,8.419917310067449,2.7322492030215972,21.313221609098484,-7,8,19,0.857839096568509,-0.5562964963209207,0.3752711164829699,70,252205.00000000003,81,67.0,0,0,1,0,0,0
1778190649.020389,4.3716630935668945,-0.08294747181786097,0.7409959762557009,3.881007020383619,-0.2421363911311789,0.7248307541448187,3.874541405408578,2,218,15.918891931331794,1.6165222110882227,0.6465614975041056,16.013816102054403,0,7,-21,0.4729606579908445,0.9275496117989938,0.2843549130164358,70,252210.0,81,67.0,0,0,1,0,0,0
1778190649.092066,4.443340063095093,-0.08294747181786097,0.7409959762557009,3.881007020383619,-0.29939842697167895,0.7581446892333448,3.83017060370954,2,222,21.645095515381797,-1.7148712977643865,5.083641667407912,22.300097668855695,30,-17,-12,-0.7988903021070491,0.46477878888867014,-0.6190384720657347,70,252214.0,81,67.0,0,0,1,0,0,0
1778190649.1637871,4.515061140060425,-0.08294747181786097,0.7409959762557009,3.881007020383619,-0.29856764497253074,0.7632698867555285,3.8305125298587486,2,225,21.562017315466978,-2.227391049982763,5.049449052487054,22.2571066703582,15,-2,-3,0.01158351260606123,0.07146013053681757,0.004767443040124173,70,252214.0,81,67.0,0,0,1,0,0,0
1778190649.236083,4.587357044219971,-0.08294747181786097,0.7409959762557009,3.881007020383619,-0.1725342131915757,0.6745369647849635,3.9045214965837376,2,229,8.958674137371473,6.64590114707374,-2.3514476200118484,11.399787290381516,-30,27,30,1.7432997518478879,-1.2273575246357689,1.023695153762275,70,252210.0,81,67.0,0,1,1,0,0,0
1778190649.308275,4.659548997879028,-0.08294747181786097,0.7409959762557009,3.881007020383619,-0.23253501487624173,0.7199348523138888,3.8588935228831462,2,233,14.958754305838076,2.1061123941812143,2.2113497500472867,15.267288807001297,30,-16,-14,-0.83112865968461,0.6288496879212713,-0.6320368321943397,70,252208.0,81,67.0,0,1,1,0,0,0
1778190649.380136,4.731410026550293,-0.08294747181786097,0.7409959762557009,3.881007020383619,-0.2984248753663208,0.7594333130914126,3.82982031832592,2,236,21.54774035484598,-1.8437336835711693,5.118670205769904,22.22397923350428,30,-12,-14,-0.9169067255006703,0.5496506452504797,-0.404575401922291,70,252209.0,81,67.0,0,0,1,0,0,0
1778190649.451534,4.802808046340942,-0.08294747181786097,0.7409959762557009,3.881007020383619,-0.3361319804003031,0.6950760974764105,3.8285826792310322,2,240,25.318450858244212,4.5919878779290375,5.242434115258687,26.26011085249265,30,-2,26,-0.5281253618033902,-0.9013865623123425,-0.017334361632392485,70,252209.0,81,67.0,0,0,1,0,0,0
1778190649.5225868,4.873860836029053,-0.08294747181786097,0.7409959762557009,3.881007020383619,-0.3361319804003031,0.6950760974764105,3.8285826792310322,2,243,25.318450858244212,4.5919878779290375,5.242434115258687,26.26011085249265,18,-2,3,0.0,0.0,0.0,70,252208.0,81,67.5,0,0,1,0,0,0
1778190649.5950239,4.946297883987427,-0.08294747181786097,0.7409959762557009,3.881007020383619,-0.2374012151763265,0.735622275804366,3.8731128450509957,2,247,15.445374335846553,0.5373700451334895,0.7894175332623377,15.474867850216237,-22,15,-13,1.3629871454826856,0.5597436597810469,0.6147429675150866,70,252212.0,81,67.5,-1,0,1,0,0,0
1778190649.666604,5.01787805557251,-0.08294747181786097,0.7409959762557009,3.881007020383619,-0.3332118127689718,0.6988007321724172,3.8277600914324243,2,251,25.02643409511108,4.219524408328368,5.324692895119476,25.932202840806895,30,-18,16,-1.3385075150142811,-0.5144098263047784,-0.6335938097698371,70,252214.0,81,67.5,-1,0,1,0,0,0
1778190649.738762,5.090035915374756,-0.08294747181786097,0.7409959762557009,3.881007020383619,-0.23495359300763874,0.7308021053698799,3.8748899050053502,2,254,15.200612118977777,1.0193870885821021,0.6117115378268867,15.247030853037993,-21,16,-9,1.3617119469814785,0.4434911634735948,0.6531487172996622,70,252214.0,81,67.5,-1,0,1,0,0,0
1778190649.811001,5.162275075912476,-0.08294747181786097,0.7409959762557009,3.881007020383619,-0.12454169825364958,0.7686610335728817,3.9206002536313376,2,258,4.1594226435788615,-2.766505731718083,-3.9593233247718462,6.374213040182133,-30,19,-14,1.5284216196883615,0.5240776321484769,0.6327641169379264,60,252206.0,81,67.5,0,1,1,0,0,0
1778190649.881407,5.232681035995483,-0.08294747181786097,0.7409959762557009,3.881007020383619,-0.2315746754497212,0.7416958854092703,3.872707711742554,2,261,14.862720363186025,-0.06999091535694335,0.8299308641065206,14.886038444182978,30,-16,9,-1.520226086965947,-0.3829952482974424,-0.6802341993819687,60,252205.00000000003,81,67.5,0,0,1,0,1,0
1778190649.952529,5.303802967071533,-0.08294747181786097,0.7409959762557009,3.881007020383619,-0.28852155502253907,0.7716221403110518,3.82752502502165,2,265,20.55740832046781,-3.06261640553509,5.348199536196896,21.461358167200615,30,-18,-12,-0.8006936638422438,0.4207739363795071,-0.6352848697624712,60,252203.00000000003,81,67.5,0,0,1,0,1,0
1778190650.022326,5.373600006103516,-0.08294747181786097,0.7409959762557009,3.881007020383619,-0.23043073490117316,0.7389716409427761,3.872163401028766,2,268,14.748326308331219,0.20243353129247854,0.8843619354852894,14.77620398696978,-8,16,12,0.8322820126330503,-0.46779204134024316,0.6395454108971851,60,252203.00000000003,81,67.5,0,0,1,0,1,0
1778190650.093641,5.444915056228638,-0.08294747181786097,0.7409959762557009,3.881007020383619,-0.12057903829030758,0.7784920000555945,3.916752271420584,2,272,3.7631566472446614,-3.7496023799893585,-3.574525103696491,6.402975533037742,-30,18,-16,1.540371862855471,0.5541657622546714,0.6252378749448643,60,252203.00000000003,81,67.5,-1,-1,1,0,1,0
1778190650.1646411,5.515915155410767,-0.08294747181786097,0.7409959762557009,3.881007020383619,-0.12057903829030758,0.7784920000555945,3.916752271420584,2,276,3.7631566472446614,-3.7496023799893585,-3.574525103696491,6.402975533037742,6,2,-2,0.0,0.0,0.0,60,252203.00000000003,81,67.5,-1,-1,1,0,1,0
1778190650.238137,5.589411020278931,-0.08294747181786097,0.7409959762557009,3.881007020383619,-0.16574512404300146,0.7055572949815301,3.9161724813764045,2,279,8.27976522251405,3.5438681274170825,-3.516546099278539,9.668485399111223,24,2,27,-0.6145391422185754,-0.9923647433075826,-0.007888743743876445,60,252203.00000000003,81,67.5,-1,-1,1,0,1,0
1778190650.3118348,5.663108825683594,-0.08294747181786097,0.7409959762557009,3.881007020383619,-0.16574512404300146,0.7055572949815301,3.9161724813764045,2,283,8.27976522251405,3.5438681274170825,-3.516546099278539,9.668485399111223,8,2,2,0.0,0.0,0.0,60,252203.00000000003,81,67.5,-1,-1,1,0,1,0
1778190650.3857548,5.7370288372039795,-0.08294747181786097,0.7409959762557009,3.881007020383619,-0.16574512404300146,0.7055572949815301,3.9161724813764045,2,287,8.27976522251405,3.5438681274170825,-3.516546099278539,9.668485399111223,8,2,2,0.0,0.0,0.0,60,252203.00000000003,81,67.5,-1,-1,1,0,1,0
1778190650.462743,5.814017057418823,-0.08294747181786097,0.7409959762557009,3.881007020383619,-0.08778988089541295,0.658276935308526,3.9451511210899546,2,290,0.48424090775519846,8.271904094717486,-6.414410070633547,10.47871858402508,-21,14,21,1.012560660969252,-0.6141245964780483,0.3764035541110332,60,252198.99999999997,81,67.5,0,0,1,0,0,0
1778190650.537858,5.889132022857666,-0.08294747181786097,0.7409959762557009,3.881007020383619,-0.22438702261953325,0.7464670277037191,3.8713629974676786,2,294,14.143955080167228,-0.5471051448018183,0.9644022915940464,14.187348629299585,30,-25,-30,-1.8185076825381112,1.1740682017220097,-0.9823358526651107,60,252202.0,80,67.5,-1,-1,1,0,1,0
1778190650.608927,5.960201025009155,-0.08294747181786097,0.7409959762557009,3.881007020383619,-0.3211651849428918,0.7142286959744977,3.8253217958720045,2,298,23.821771312503085,2.676728028120323,5.568522451161462,24.60995944106388,30,-18,13,-1.3617492773722666,-0.45362015440293973,-0.6478380194157455,60,252202.0,80,67.5,-1,-1,1,0,1,0
1778190650.680344,6.031618118286133,-0.08294747181786097,0.7409959762557009,3.881007020383619,-0.3211651849428918,0.7142286959744977,3.8253217958720045,2,301,23.821771312503085,2.676728028120323,5.568522451161462,24.60995944106388,18,-2,2,0.0,0.0,0.0,60,252202.0,80,67.5,-1,-1,1,0,1,0
1778190650.753964,6.10523796081543,-0.08294747181786097,0.7409959762557009,3.881007020383619,-0.3211651849428918,0.7142286959744977,3.8253217958720045,2,305,23.821771312503085,2.676728028120323,5.568522451161462,24.60995944106388,18,-2,2,0.0,0.0,0.0,60,252202.0,80,67.5,-1,-1,1,0,1,0
1778190650.830396,6.1816699504852295,-0.08294747181786097,0.7409959762557009,3.881007020383619,-0.3211651849428918,0.7142286959744977,3.8253217958720045,2,309,23.821771312503085,2.676728028120323,5.568522451161462,24.60995944106388,18,-2,2,0.0,0.0,0.0,60,252202.0,80,67.5,-1,-1,1,0,1,0
1778190650.9082692,6.259543180465698,-0.08294747181786097,0.7409959762557009,3.881007020383619,-0.3211651849428918,0.7142286959744977,3.8253217958720045,2,313,23.821771312503085,2.676728028120323,5.568522451161462,24.60995944106388,19,-2,2,0.0,0.0,0.0,60,252202.0,80,67.5,-1,-1,1,0,1,0
1778190650.9851751,6.336449146270752,-0.08294747181786097,0.7409959762557009,3.881007020383619,-0.3211651849428918,0.7142286959744977,3.8253217958720045,2,317,23.821771312503085,2.676728028120323,5.568522451161462,24.60995944106388,19,-2,2,0.0,0.0,0.0,60,252202.0,80,67.5,-1,-1,1,0,1,0
1778190651.062593,6.413866996765137,-0.08294747181786097,0.7409959762557009,3.881007020383619,-0.3211651849428918,0.7142286959744977,3.8253217958720045,2,321,23.821771312503085,2.676728028120323,5.568522451161462,24.60995944106388,19,-2,2,0.0,0.0,0.0,60,252202.0,80,67.5,-1,-1,1,0,1,0
1778190651.139458,6.490731954574585,-0.08294747181786097,0.7409959762557009,3.881007020383619,-0.3211651849428918,0.7142286959744977,3.8253217958720045,2,324,23.821771312503085,2.676728028120323,5.568522451161462,24.60995944106388,19,-2,2,0.0,0.0,0.0,60,252202.0,80,67.5,-1,-1,1,0,1,0
1778190651.217485,6.568758964538574,-0.08294747181786097,0.7409959762557009,3.881007020383619,-0.3211651849428918,0.7142286959744977,3.8253217958720045,2,328,23.821771312503085,2.676728028120323,5.568522451161462,24.60995944106388,19,-2,2,0.0,0.0,0.0,60,252202.0,80,67.5,-1,-1,1,0,1,0
1778190651.2955992,6.646873235702515,-0.08294747181786097,0.7409959762557009,3.881007020383619,-0.3211651849428918,0.7142286959744977,3.8253217958720045,2,332,23.821771312503085,2.676728028120323,5.568522451161462,24.60995944106388,19,-2,2,0.0,0.0,0.0,60,252202.0,80,67.5,-1,-1,1,0,1,0
1778190651.3725078,6.7237818241119385,-0.08294747181786097,0.7409959762557009,3.881007020383619,-0.3211651849428918,0.7142286959744977,3.8253217958720045,2,336,23.821771312503085,2.676728028120323,5.568522451161462,24.60995944106388,19,-2,2,0.0,0.0,0.0,60,252202.0,80,67.5,-1,-1,1,0,1,0
1778190651.449706,6.800980091094971,-0.08294747181786097,0.7409959762557009,3.881007020383619,-0.3211651849428918,0.7142286959744977,3.8253217958720045,2,340,23.821771312503085,2.676728028120323,5.568522451161462,24.60995944106388,20,-2,2,0.0,0.0,0.0,60,252202.0,80,67.5,-1,-1,1,0,1,0
1778190651.5256882,6.876962184906006,-0.08294747181786097,0.7409959762557009,3.881007020383619,-0.3211651849428918,0.7142286959744977,3.8253217958720045,2,344,23.821771312503085,2.676728028120323,5.568522451161462,24.60995944106388,20,-2,2,0.0,0.0,0.0,60,252202.0,80,67.5,-1,-1,1,0,1,0
1778190651.6003351,6.951609134674072,-0.08294747181786097,0.7409959762557009,3.881007020383619,-0.3211651849428918,0.7142286959744977,3.8253217958720045,2,347,23.821771312503085,2.676728028120323,5.568522451161462,24.60995944106388,20,-2,2,0.0,0.0,0.0,60,252202.0,80,67.5,-1,-1,1,0,1,0
1778190651.6758552,7.027129173278809,-0.08294747181786097,0.7409959762557009,3.881007020383619,-0.3211651849428918,0.7142286959744977,3.8253217958720045,2,351,23.821771312503085,2.676728028120323,5.568522451161462,24.60995944106388,20,-2,2,0.0,0.0,0.0,60,252202.0,80,67.5,-1,-1,1,0,1,0
1778190651.750863,7.102137088775635,-0.08294747181786097,0.7409959762557009,3.881007020383619,-0.3211651849428918,0.7142286959744977,3.8253217958720045,2,355,23.821771312503085,2.676728028120323,5.568522451161462,24.60995944106388,20,-3,2,0.0,0.0,0.0,60,252202.0,80,67.5,-1,-1,1,0,1,0
1778190651.825821,7.17709493637085,-0.08294747181786097,0.7409959762557009,3.881007020383619,-0.3211651849428918,0.7142286959744977,3.8253217958720045,2,359,23.821771312503085,2.676728028120323,5.568522451161462,24.60995944106388,20,-3,2,0.0,0.0,0.0,70,252213.0,80,67.5,-1,-1,1,0,0,0
1778190651.9044511,7.255725145339966,-0.08294747181786097,0.7409959762557009,3.881007020383619,,,,,363,,,,,0,0,0,,,,70,252210.0,80,68.0,0,0,1,0,1,0
1778190651.9776452,7.328919172286987,-0.08294747181786097,0.7409959762557009,3.881007020383619,,,,,366,,,,,0,0,0,,,,70,252210.0,80,68.0,0,0,1,0,1,0
1778190652.048488,7.399761915206909,-0.08294747181786097,0.7409959762557009,3.881007020383619,,,,,370,,,,,0,0,0,,,,70,252207.00000000003,80,68.0,0,0,1,0,1,0
1778190652.119937,7.471210956573486,-0.08294747181786097,0.7409959762557009,3.881007020383619,,,,,373,,,,,0,0,0,,,,70,252207.00000000003,80,68.0,0,0,1,0,1,0
1778190652.192302,7.543576002120972,-0.08294747181786097,0.7409959762557009,3.881007020383619,,,,,377,,,,,0,0,0,,,,70,252207.00000000003,80,68.0,0,0,1,0,1,0
1778190652.2652612,7.616535186767578,-0.08294747181786097,0.7409959762557009,3.881007020383619,,,,,381,,,,,0,0,0,,,,70,252207.00000000003,80,68.0,0,0,1,0,1,0
1778190652.340362,7.691636085510254,-0.08294747181786097,0.7409959762557009,3.881007020383619,-0.19910726985330562,0.65948853206886,4.468852008353419,2,384,11.615979803544466,8.150744418684086,-58.784498796980024,60.47299331261195,7,30,9,0.2372170142149644,-0.10638636773209155,1.25068755639418,70,252207.00000000003,80,68.0,0,0,1,0,1,0
1778190652.417653,7.768927097320557,-0.08294747181786097,0.7409959762557009,3.881007020383619,-0.19910726985330562,0.65948853206886,4.468852008353419,2,388,11.615979803544466,8.150744418684086,-58.784498796980024,60.47299331261195,13,30,6,0.0,0.0,0.0,60,252200.0,79,68.0,0,0,1,0,1,0
1778190652.4907892,7.8420631885528564,-0.08294747181786097,0.7409959762557009,3.881007020383619,-0.19910726985330562,0.65948853206886,4.468852008353419,2,392,11.615979803544466,8.150744418684086,-58.784498796980024,60.47299331261195,14,30,7,0.0,0.0,0.0,60,252204.0,79,67.0,0,0,1,0,0,0
1778190652.5623732,7.913647174835205,-0.08294747181786097,0.7409959762557009,3.881007020383619,,,,,395,,,,,0,0,0,,,,60,252209.0,79,67.0,-1,0,1,0,0,0
1778190652.635231,7.986505031585693,-0.08294747181786097,0.7409959762557009,3.881007020383619,,,,,399,,,,,0,0,0,,,,60,252209.0,79,67.0,-1,0,1,0,0,0
1778190652.7076402,8.058914184570312,-0.08294747181786097,0.7409959762557009,3.881007020383619,,,,,403,,,,,0,0,0,,,,60,252201.00000000003,79,67.0,-2,0,1,0,0,0
1778190652.779835,8.13110899925232,-0.08294747181786097,0.7409959762557009,3.881007020383619,,,,,406,,,,,0,0,0,,,,60,252204.0,79,67.0,-1,0,1,0,0,0
1778190652.851818,8.203092098236084,-0.08294747181786097,0.7409959762557009,3.881007020383619,,,,,410,,,,,0,0,0,,,,60,252204.0,79,67.0,-1,0,1,0,0,0
1778190652.924364,8.275638103485107,-0.08294747181786097,0.7409959762557009,3.881007020383619,,,,,414,,,,,0,0,0,,,,60,252207.00000000003,79,67.0,-1,0,1,0,0,0
1778190653.003296,8.354569911956787,-0.08294747181786097,0.7409959762557009,3.881007020383619,0.04796687720506476,0.6628697732722868,3.9396955403461535,2,417,-13.091434902292573,7.812620298341411,-5.868851996253444,16.33603769219906,-13,-18,7,0.48208957224477156,0.006597457260598393,-1.032486880353007,60,252198.99999999997,79,67.0,0,0,1,0,0,0
1778190653.0748868,8.42616081237793,-0.08294747181786097,0.7409959762557009,3.881007020383619,0.04796687720506476,0.6628697732722868,3.9396955403461535,2,421,-13.091434902292573,7.812620298341411,-5.868851996253444,16.33603769219906,-1,7,7,0.0,0.0,0.0,60,252198.99999999997,79,67.0,0,0,1,0,0,0
1778190653.146197,8.49747109413147,-0.08294747181786097,0.7409959762557009,3.881007020383619,0.04796687720506476,0.6628697732722868,3.9396955403461535,2,425,-13.091434902292573,7.812620298341411,-5.868851996253444,16.33603769219906,-1,7,7,0.0,0.0,0.0,60,252198.99999999997,79,67.0,0,0,1,0,0,0
1778190653.220547,8.571820974349976,-0.08294747181786097,0.7409959762557009,3.881007020383619,0.04796687720506476,0.6628697732722868,3.9396955403461535,2,428,-13.091434902292573,7.812620298341411,-5.868851996253444,16.33603769219906,-1,7,7,0.0,0.0,0.0,60,252198.99999999997,79,67.0,0,0,1,0,0,0
1778190653.297087,8.648360967636108,-0.08294747181786097,0.7409959762557009,3.881007020383619,-0.07949932878703359,0.6223280025362292,3.8930885546707623,2,432,-0.3448143030827383,11.866797371947168,-1.2081534287143203,11.933122452978385,30,-10,23,-1.6653542876021146,-0.5296808765647326,-0.6089233049859084,60,252198.99999999997,79,67.0,0,0,1,0,0,0
1778190653.374788,8.726062059402466,-0.08294747181786097,0.7409959762557009,3.881007020383619,-0.1446060165958123,0.671601876220619,3.8490108675780315,2,436,6.165854477795133,6.939410003508195,3.199615280558765,9.818895588696371,30,-12,-9,-0.8379121364800208,0.6341464780514713,-0.5672724293922388,60,252203.00000000003,79,67.0,0,0,1,0,0,0
1778190653.4482,8.799474000930786,-0.08294747181786097,0.7409959762557009,3.881007020383619,-0.1446060165958123,0.671601876220619,3.8490108675780315,2,440,6.165854477795133,6.939410003508195,3.199615280558765,9.818895588696371,10,1,6,0.0,0.0,0.0,60,252198.0,79,67.0,0,0,1,0,0,0
1778190653.523412,8.874686002731323,-0.08294747181786097,0.7409959762557009,3.881007020383619,-0.1446060165958123,0.671601876220619,3.8490108675780315,2,444,6.165854477795133,6.939410003508195,3.199615280558765,9.818895588696371,10,1,6,0.0,0.0,0.0,60,252198.0,79,67.0,0,0,1,0,0,0
1778190653.599166,8.950439929962158,-0.08294747181786097,0.7409959762557009,3.881007020383619,-0.1446060165958123,0.671601876220619,3.8490108675780315,2,447,6.165854477795133,6.939410003508195,3.199615280558765,9.818895588696371,10,1,7,0.0,0.0,0.0,60,252198.0,79,67.0,0,0,1,0,0,0
1778190653.672273,9.023546934127808,-0.08294747181786097,0.7409959762557009,3.881007020383619,-0.02770598943675151,0.7137501444552303,3.894166000870985,2,451,-5.5241482381109455,2.7245831800470577,-1.3158980487365746,6.298504182445887,-30,20,-10,1.5990263654380228,0.5765284560027898,0.6176581000452255,60,252198.0,79,67.5,0,0,1,0,0,0
1778190653.743531,9.094805002212524,-0.08294747181786097,0.7409959762557009,3.881007020383619,-0.07259436933379071,0.6279608071091599,3.8751030636313977,2,454,-1.035310248407026,11.3035169146541,0.590395675222144,11.366174774463438,21,-3,30,-0.6299410172567773,-1.2039245470993936,-0.26751970340991804,60,252198.0,79,67.5,0,0,1,0,0,0
1778190653.816471,9.167745113372803,-0.08294747181786097,0.7409959762557009,3.881007020383619,-0.07101142813976535,0.6332351200719089,3.8751470670122337,2,458,-1.1936043678095616,10.776085618379206,0.5859953371385451,10.857813001550603,5,3,8,0.02170193010190246,0.072310185422657,0.0006032809675775744,60,252202.0,79,67.5,0,0,1,0,0,0
1778190653.8868558,9.23812985420227,-0.08294747181786097,0.7409959762557009,3.881007020383619,-0.07101142813976535,0.6332351200719089,3.8751470670122337,2,462,-1.1936043678095616,10.776085618379206,0.5859953371385451,10.857813001550603,5,3,9,0.0,0.0,0.0,60,252202.0,79,67.5,0,0,1,0,0,0
1778190653.95789,9.309164047241211,-0.08294747181786097,0.7409959762557009,3.881007020383619,-0.06398376059871613,0.619624526894816,3.8600583357422686,2,465,-1.8963711219144836,12.137144936088495,2.094868464135047,12.46174082998348,2,-2,15,0.09893358733865963,-0.19160621941086417,-0.212415044423655,60,252204.0,79,67.5,-1,0,1,0,0,0
1778190654.0285718,9.37984585762024,-0.08294747181786097,0.7409959762557009,3.881007020383619,-0.0148551652674338,0.7047882317243497,3.8611422364836834,2,469,-6.809230655042716,3.6207744531351227,1.9864783899935734,7.96377587253439,-15,2,-24,0.6950670203243556,1.2048885614678917,0.015334931796488524,60,252203.00000000003,79,67.5,-1,0,1,0,0,0
1778190654.099541,9.450814962387085,-0.08294747181786097,0.7409959762557009,3.881007020383619,0.0657931618163865,0.6629740451752704,3.9054142105003207,2,472,-14.874063363424748,7.802193108043054,-2.440719011670156,16.972598137241597,-30,20,22,1.1363864226380433,-0.5891885868710217,0.6238203815883503,60,252203.00000000003,79,67.5,-1,0,1,0,0,0
1778190654.170789,9.52206301689148,-0.08294747181786097,0.7409959762557009,3.881007020383619,0.0657931618163865,0.6629740451752704,3.9054142105003207,2,476,-14.874063363424748,7.802193108043054,-2.440719011670156,16.972598137241597,-2,5,8,0.0,0.0,0.0,60,252203.00000000003,79,67.5,-1,0,1,0,0,0
1778190654.242686,9.593960046768188,-0.08294747181786097,0.7409959762557009,3.881007020383619,-0.12999657295078837,0.67272611862824,3.813416056248148,2,479,4.7049101132927404,6.8269857627460855,6.759096413547105,10.697163086843512,30,-30,4,-2.723196425539699,0.13563944810644912,-1.2795821247405295,60,252209.0,79,67.5,0,0,1,0,0,0
1778190654.3142421,9.665516138076782,-0.08294747181786097,0.7409959762557009,3.881007020383619,-0.06018500976138652,0.6301813326423107,3.8379285884623404,2,483,-2.276246205647445,11.081464361339021,4.307843192127869,12.105274145937946,-19,9,25,0.9756201311825652,-0.5945655388365214,0.34256387913195663,60,252209.0,78,67.5,0,-1,1,0,0,0
1778190654.3849769,9.736250877380371,-0.08294747181786097,0.7409959762557009,3.881007020383619,0.0157537286152738,0.5815602492348457,3.8628914564792995,2,487,-9.870120043313477,15.943572702085518,1.8115563904319565,18.838750402609506,-26,11,30,1.0735706263189326,-0.6873720591347126,0.35290817867893925,60,252209.0,78,67.5,0,-1,1,0,0,0
1778190654.45715,9.80842399597168,-0.08294747181786097,0.7409959762557009,3.881007020383619,0.0157537286152738,0.5815602492348457,3.8628914564792995,2,490,-9.870120043313477,15.943572702085518,1.8115563904319565,18.838750402609506,0,2,14,0.0,0.0,0.0,60,252209.0,78,67.5,0,-1,1,0,0,0
1778190654.529757,9.881031036376953,-0.08294747181786097,0.7409959762557009,3.881007020383619,0.06465816856777051,0.6747209415333915,3.8828562909518554,2,494,-14.760564038563148,6.627503472230945,-0.18492705682362498,16.181231443474946,-19,10,-24,0.6735495577222949,1.2830807009698675,0.27497105461284954,60,252209.0,78,67.5,0,-1,1,0,0,0
1778190654.602871,9.954144954681396,-0.08294747181786097,0.7409959762557009,3.881007020383619,0.06465816856777051,0.6747209415333915,3.8828562909518554,2,497,-14.760564038563148,6.627503472230945,-0.18492705682362498,16.181231443474946,-2,3,7,0.0,0.0,0.0,60,252209.0,78,67.5,0,-1,1,0,0,0
1778190654.679007,10.030281066894531,-0.08294747181786097,0.7409959762557009,3.881007020383619,-0.05762893469417074,0.6337192604180661,3.839451951007796,2,501,-2.531853712369023,10.727671583763476,4.1555069375823095,11.779705375696707,30,-13,24,-1.6061642722130571,-0.5385313213859091,-0.5700887355865193,60,252212.0,78,68.0,0,-1,1,0,0,0
1778190654.751147,10.102421045303345,-0.08294747181786097,0.7409959762557009,3.881007020383619,-0.06232326006827171,0.6384200895861053,3.835435561497562,2,505,-2.0624211749589256,10.25758866695956,4.557145888605696,11.41224276877652,6,0,8,-0.0650724532726982,0.06516260846932616,-0.05567494749545385,60,252208.0,78,68.0,0,-1,1,0,0,0
1778190654.821633,10.17290711402893,-0.08294747181786097,0.7409959762557009,3.881007020383619,-0.06165006266680795,0.6327292474174115,3.8360631746499427,2,508,-2.129740915105302,10.826672883828936,4.494384573367638,11.914366739035497,4,1,12,0.009550786611247046,-0.08073711971154408,0.008904073723049905,60,252206.0,78,68.0,-1,-2,1,0,0,0
1778190654.8933618,10.244635820388794,-0.08294747181786097,0.7409959762557009,3.881007020383619,-0.061974465589382355,0.6312517228693327,3.8363032976904847,2,512,-2.0973006228478615,10.974425338636816,4.4703722693134385,12.034155958859701,4,0,11,-0.004522637295964548,-0.02059878984386062,0.0033476560881677787,60,252206.0,78,68.0,-1,-2,1,0,0,0
1778190654.96444,10.315714120864868,-0.08294747181786097,0.7409959762557009,3.881007020383619,-0.0123185511088717,0.7000749998322675,3.840939548366364,2,516,-7.0628920708989265,4.09209764234334,4.0067472017255135,9.093059477325225,-15,2,-17,0.6986086350956775,0.9682740935273416,0.06522737100952303,60,252202.0,78,68.0,0,0,1,0,0,0
1778190655.039701,10.390974998474121,-0.08294747181786097,0.7409959762557009,3.881007020383619,-0.012556010206887791,0.6985211818712693,3.8412869323127534,2,519,-7.039146161097317,4.247479438443158,3.972008807086569,9.130581264128905,1,1,6,-0.0031551465457120356,-0.020645759262407925,0.004615730741183074,60,252209.0,78,68.0,0,0,1,0,0,0
1778190655.1108348,10.462108850479126,-0.08294747181786097,0.7409959762557009,3.881007020383619,-0.012565201636405288,0.7004888905180586,3.840850236704663,2,523,-7.038227018145568,4.050708573764227,4.015678367895603,9.05927989759153,1,0,5,-0.0001292131560209889,0.027662056690685832,-0.006139068752520495,70,252200.0,78,68.0,0,0,1,0,0,0
1778190655.192769,10.544043064117432,-0.08294747181786097,0.7409959762557009,3.881007020383619,-0.06497301910001352,0.6201206550798992,3.83723791345285,2,527,-1.7974452717847451,12.087532117580169,4.37691069307693,12.980623614209167,20,0,30,-0.6396328851700441,-0.9808873713359942,-0.04408809325686189,70,252200.0,78,68.0,0,0,1,0,0,0
1778190655.262845,10.614119052886963,-0.08294747181786097,0.7409959762557009,3.881007020383619,-0.05852178067675462,0.6177984202950391,3.820670128792401,2,530,-2.442569114110635,12.319755596066184,6.033689159121813,13.933697524093,1,-6,13,0.0920606121517028,-0.03313880867949813,-0.2364259848681927,70,252203.00000000003,78,68.0,0,0,1,0,0,0
1778190655.334799,10.686073064804077,-0.08294747181786097,0.7409959762557009,3.881007020383619,-0.013700069974259321,0.6922581232992537,3.842667254406493,2,534,-6.924740184360164,4.873785295644717,3.8339765977126294,9.295439004196801,-14,8,-18,0.6229216343645525,1.0348235076869208,0.3057108982252569,60,252206.0,78,68.0,0,0,1,0,0,0
1778190655.4065988,10.757872819900513,-0.08294747181786097,0.7409959762557009,3.881007020383619,-0.12825368680756322,0.6648641667059476,3.7961587281219384,2,538,4.530621498970225,7.613180954975329,8.484829226168067,12.267003807669013,30,-18,18,-1.5954597154188739,-0.38153273025113815,-0.6477532718891301,60,252206.0,78,68.0,0,0,1,0,0,0
1778190655.477341,10.828614950180054,-0.08294747181786097,0.7409959762557009,3.881007020383619,-0.015381334209496611,0.6983570143628091,3.8417878453463916,2,541,-6.756613760836435,4.263896189289184,3.9219175037227494,8.90022904942148,-30,17,-5,1.5955464184078985,0.47344980317263285,0.6450062649251227,60,252208.0,78,68.0,0,0,1,0,0,0
1778190655.547859,10.89913296699524,-0.08294747181786097,0.7409959762557009,3.881007020383619,-0.00761940121687954,0.6932393308090956,3.826724805505235,2,545,-7.5328070600981425,4.775664544660529,5.428221487838414,10.441060414001194,-1,-5,8,0.11007021103499885,-0.07257270956904437,-0.21360555105561232,60,252206.0,78,68.0,0,0,1,0,0,0
1778190655.619018,10.970292091369629,-0.08294747181786097,0.7409959762557009,3.881007020383619,-0.013406867687700386,0.6873006044922481,3.8449252380377605,2,548,-6.954060413016058,5.369537176345284,3.608178234585857,9.497885864157892,3,7,9,-0.08133133342635354,-0.08345698979658772,0.2557708894332032,60,252214.0,78,68.0,0,0,1,0,0,0
1778190655.688929,11.040203094482422,-0.08294747181786097,0.7409959762557009,3.881007020383619,0.11272992713767949,0.7396153434951888,3.8862017320128306,2,552,-19.567739895554045,0.1380632760512146,-0.5194711629211479,19.575120852177594,-30,18,-14,1.804248104148547,0.748304797150989,0.5904148436902759,60,252214.0,78,68.0,0,0,1,0,0,0
1778190655.760083,11.111356973648071,-0.08294747181786097,0.7409959762557009,3.881007020383619,0.0642605388398596,0.8629362837234973,3.8490402503090673,2,555,-14.720801065772058,-12.194030746779639,3.1966770074551842,19.380792392506443,13,-11,-30,-0.6811910870661173,1.7331583558671744,-0.5222692302867947,60,252205.00000000003,78,68.0,0,0,1,0,0,0
1778190655.833344,11.18461799621582,-0.08294747181786097,0.7409959762557009,3.881007020383619,-0.05045695247224291,0.8113026365551702,3.812744977414352,2,559,-3.249051934561806,-7.03066602994693,6.826204296926708,10.323936671711532,30,-13,16,-1.5658734657438902,-0.7047901511418058,-0.4954240552832953,60,252214.0,78,68.0,0,0,1,0,0,0
1778190655.906197,11.257471084594727,-0.08294747181786097,0.7409959762557009,3.881007020383619,-0.23110373987634736,0.6311141377354954,3.75187654445832,2,563,14.81562680584864,10.98818385202055,12.913047592529914,22.516433557358244,30,-25,30,-2.479603698673241,-2.473313113131471,-0.8354955748678431,60,252214.0,78,68.0,0,0,1,0,0,0
1778190655.976901,11.328175067901611,-0.08294747181786097,0.7409959762557009,3.881007020383619,0.06775680471926337,0.644214783326563,3.872055836009145,2,566,-15.070427653712434,9.67811929291379,0.8951184374474064,17.932791743917313,-30,30,6,4.226926555162124,0.18528864963951666,1.6997527710595433,60,252211.0,78,68.0,-1,0,1,0,0,0
1778190656.047765,11.399039030075073,-0.08294747181786097,0.7409959762557009,3.881007020383619,-0.014639815519507549,0.68619587251058,3.8468979530004623,2,570,-6.830765629835342,5.48001037451209,3.4109067383156777,9.398093294492625,30,-7,-6,-1.1627436247084122,0.5924180344482437,-0.35501660134527696,60,252212.0,78,68.0,-1,0,1,0,0,0
1778190656.119534,11.470808029174805,-0.08294747181786097,0.7409959762557009,3.881007020383619,-0.01087289900189825,0.6799956677727449,3.850109081062067,2,573,-7.207457281596271,6.100030848295601,3.089793932155205,9.935021054802863,0,2,10,0.052486680389324164,-0.08639112730580513,0.04474255043103624,60,252206.0,78,68.0,0,0,1,0,0,0
1778190656.193158,11.544431924819946,-0.08294747181786097,0.7409959762557009,3.881007020383619,-0.1266145406778627,0.6493864151633536,3.8038093538283166,2,577,4.366706886000174,9.16095610923473,7.719766655530247,12.750923224590569,30,-17,20,-1.572066251884108,-0.41575160267155975,-0.6288682068239039,60,252201.00000000003,78,68.0,0,0,1,0,0,0
1778190656.267097,11.61837100982666,-0.08294747181786097,0.7409959762557009,3.881007020383619,0.07063758107414908,0.6327360891309882,3.876798574601183,2,581,-15.358505289201005,10.825988712471268,0.42084457824360655,18.795287347630723,-30,26,17,2.667765252086914,-0.22518977656882672,0.9871534218504163,60,252201.00000000003,78,68.0,0,0,1,0,0,0
1778190656.3426769,11.693950891494751,-0.08294747181786097,0.7409959762557009,3.881007020383619,-0.1268367022913599,0.6536110872962587,3.80300986430809,2,584,4.388923047349894,8.738488895944219,7.799715607552926,12.508373086009394,30,-27,3,-2.612788998965593,0.2761978148754332,-0.9763009502599705,60,252207.00000000003,77,68.0,-1,0,1,0,0,0
1778190656.4147358,11.76600980758667,-0.08294747181786097,0.7409959762557009,3.881007020383619,-0.18660177524500732,0.6870651108538897,3.7611132701628067,2,588,10.365430342714635,5.393086540181125,11.989375022081239,16.741345287630192,30,-18,-3,-0.8293917837649764,0.46425932239886475,-0.5814213759729537,60,252204.0,77,68.0,0,0,1,0,0,0
1778190656.487104,11.838377952575684,-0.08294747181786097,0.7409959762557009,3.881007020383619,-0.12818749572843346,0.6422238718076237,3.803779385674394,2,592,4.52400239105725,9.877210444807716,7.722763470922489,13.329176997591603,-12,12,26,0.8071822142938971,-0.6196267577823549,0.5895703906472207,60,252210.0,77,68.0,0,0,1,0,0,0
1778190656.55845,11.909723997116089,-0.08294747181786097,0.7409959762557009,3.881007020383619,-0.12881932526016704,0.646751151255862,3.803084976587977,2,595,4.587185344230607,9.424482499983888,7.792204379564227,13.060688682750483,8,-2,9,-0.00885584527921168,0.06345522694918776,-0.00973297245685592,60,252210.0,77,68.0,0,0,1,0,0,0
1778190656.6305878,11.98186182975769,-0.08294747181786097,0.7409959762557009,3.881007020383619,-0.09120060595421653,0.7205573528690206,3.821379457024157,2,599,0.8253134136355561,2.0438623386680344,5.962756335946207,6.357120308128435,-7,5,-19,0.5214839138964644,1.0231275172882701,0.2536045202116297,60,252207.00000000003,77,68.0,0,0,1,0,0,0
1778190656.7017338,12.05300784111023,-0.08294747181786097,0.7409959762557009,3.881007020383619,-0.09120060595421653,0.7205573528690206,3.821379457024157,2,602,0.8253134136355561,2.0438623386680344,5.962756335946207,6.357120308128435,5,0,5,0.0,0.0,0.0,60,252207.00000000003,77,68.0,0,0,1,0,0,0
1778190656.7754,12.126673936843872,-0.08294747181786097,0.7409959762557009,3.881007020383619,-0.09120060595421653,0.7205573528690206,3.821379457024157,2,606,0.8253134136355561,2.0438623386680344,5.962756335946207,6.357120308128435,5,0,5,0.0,0.0,0.0,60,252207.00000000003,77,68.0,0,0,1,0,0,0
1778190656.851886,12.203160047531128,-0.08294747181786097,0.7409959762557009,3.881007020383619,-0.09120060595421653,0.7205573528690206,3.821379457024157,2,610,0.8253134136355561,2.0438623386680344,5.962756335946207,6.357120308128435,5,0,5,0.0,0.0,0.0,60,252207.00000000003,77,68.0,0,0,1,0,0,0
1778190656.928627,12.279901027679443,-0.08294747181786097,0.7409959762557009,3.881007020383619,-0.09120060595421653,0.7205573528690206,3.821379457024157,2,614,0.8253134136355561,2.0438623386680344,5.962756335946207,6.357120308128435,5,0,5,0.0,0.0,0.0,60,252207.00000000003,77,68.0,0,0,1,0,0,0
1778190657.005456,12.356729984283447,-0.08294747181786097,0.7409959762557009,3.881007020383619,-0.013736705693437656,0.6752665039544172,3.8498544820026983,2,618,-6.921076612442331,6.572947230128367,3.1152538380920802,10.040405531705172,-24,10,23,1.0082643795365807,-0.5895023298057261,0.37062881284863497,60,252207.00000000003,77,68.0,0,0,1,0,0,0
1778190657.079584,12.43085789680481,-0.08294747181786097,0.7409959762557009,3.881007020383619,-0.013736705693437656,0.6752665039544172,3.8498544820026983,2,621,-6.921076612442331,6.572947230128367,3.1152538380920802,10.040405531705172,1,0,9,0.0,0.0,0.0,60,252207.00000000003,77,68.0,0,0,1,0,0,0
1778190657.1556869,12.50696086883545,-0.08294747181786097,0.7409959762557009,3.881007020383619,-0.013736705693437656,0.6752665039544172,3.8498544820026983,2,625,-6.921076612442331,6.572947230128367,3.1152538380920802,10.040405531705172,1,0,9,0.0,0.0,0.0,60,252207.00000000003,77,68.0,0,0,1,0,0,0
1778190657.230844,12.582118034362793,-0.08294747181786097,0.7409959762557009,3.881007020383619,-0.013736705693437656,0.6752665039544172,3.8498544820026983,2,629,-6.921076612442331,6.572947230128367,3.1152538380920802,10.040405531705172,1,0,9,0.0,0.0,0.0,60,252207.00000000003,77,68.0,0,0,1,0,0,0
1778190657.307112,12.658385992050171,-0.08294747181786097,0.7409959762557009,3.881007020383619,-0.013736705693437656,0.6752665039544172,3.8498544820026983,2,633,-6.921076612442331,6.572947230128367,3.1152538380920802,10.040405531705172,1,0,9,0.0,0.0,0.0,60,252207.00000000003,77,68.0,0,0,1,0,0,0
1778190657.383809,12.735083103179932,-0.08294747181786097,0.7409959762557009,3.881007020383619,-0.013736705693437656,0.6752665039544172,3.8498544820026983,2,637,-6.921076612442331,6.572947230128367,3.1152538380920802,10.040405531705172,0,0,9,0.0,0.0,0.0,60,252214.0,77,68.0,0,0,1,0,0,0
1778190657.459095,12.81036901473999,-0.08294747181786097,0.7409959762557009,3.881007020383619,-0.06925576262520505,0.6031640872956967,3.8410089314636497,2,640,-1.3691709192655916,13.78318889600042,3.9998088919969366,14.416982913268978,23,-2,30,-0.7374428466271225,-0.9577145997787585,-0.11749277329254508,60,252214.0,77,68.0,-1,0,1,0,0,0
1778190657.5296278,12.88090181350708,-0.08294747181786097,0.7409959762557009,3.881007020383619,-0.1018639371489014,0.728060046872869,3.8318658275588144,2,644,1.8916465331040437,1.2935929382831945,4.914119282480467,5.422202284923261,17,-3,-30,-0.4623122163544589,1.7707500873401882,-0.1296291096434049,60,252214.0,77,68.0,-1,0,1,0,0,0
1778190657.60092,12.952193975448608,-0.08294747181786097,0.7409959762557009,3.881007020383619,-0.1018639371489014,0.728060046872869,3.8318658275588144,2,647,1.8916465331040437,1.2935929382831945,4.914119282480467,5.422202284923261,6,0,5,0.0,0.0,0.0,60,252214.0,77,68.0,-1,0,1,0,0,0
1778190657.67424,13.025514125823975,-0.08294747181786097,0.7409959762557009,3.881007020383619,-0.1018639371489014,0.728060046872869,3.8318658275588144,2,651,1.8916465331040437,1.2935929382831945,4.914119282480467,5.422202284923261,6,0,5,0.0,0.0,0.0,60,252214.0,77,68.0,-1,0,1,0,0,0
1778190657.746305,13.097579002380371,-0.08294747181786097,0.7409959762557009,3.881007020383619,-0.1018639371489014,0.728060046872869,3.8318658275588144,2,655,1.8916465331040437,1.2935929382831945,4.914119282480467,5.422202284923261,6,0,5,0.0,0.0,0.0,60,252214.0,77,68.0,-1,0,1,0,0,0
1778190657.822607,13.17388105392456,-0.08294747181786097,0.7409959762557009,3.881007020383619,-0.1018639371489014,0.728060046872869,3.8318658275588144,2,658,1.8916465331040437,1.2935929382831945,4.914119282480467,5.422202284923261,6,0,5,0.0,0.0,0.0,60,252214.0,77,68.0,-1,0,1,0,0,0
1778190657.899692,13.25096607208252,-0.08294747181786097,0.7409959762557009,3.881007020383619,-0.1018639371489014,0.728060046872869,3.8318658275588144,2,662,1.8916465331040437,1.2935929382831945,4.914119282480467,5.422202284923261,6,0,5,0.0,0.0,0.0,60,252214.0,77,68.0,-1,0,1,0,0,0
1778190657.975702,13.32697606086731,-0.08294747181786097,0.7409959762557009,3.881007020383619,0.011810462856345127,0.7738777017705061,3.8727061441905346,2,666,-9.47579346742061,-3.288172551480517,0.8300876193084505,10.06438204865307,-30,15,-12,1.4955192313880898,0.602784655413677,0.5373019689208599,60,252214.0,77,68.0,0,0,1,0,0,0
1778190658.053011,13.404284954071045,-0.08294747181786097,0.7409959762557009,3.881007020383619,0.011810462856345127,0.7738777017705061,3.8727061441905346,2,670,-9.47579346742061,-3.288172551480517,0.8300876193084505,10.06438204865307,0,1,2,0.0,0.0,0.0,60,252219.99999999997,77,68.0,0,0,1,0,0,0
1778190658.127309,13.478583097457886,-0.08294747181786097,0.7409959762557009,3.881007020383619,0.011810462856345127,0.7738777017705061,3.8727061441905346,2,674,-9.47579346742061,-3.288172551480517,0.8300876193084505,10.06438204865307,0,1,2,0.0,0.0,0.0,60,252217.99999999997,77,68.0,0,0,1,0,0,0
1778190658.20174,13.553014039993286,-0.08294747181786097,0.7409959762557009,3.881007020383619,-0.10460598675674349,0.7354385497209093,3.82935637501133,2,677,2.1658514938882516,0.5557426534791632,5.165064537228892,5.628290527701421,30,-15,18,-1.5640867312370703,-0.5164404848335034,-0.58241596441677,70,252217.0,77,68.0,0,0,1,0,0,0
1778190658.276458,13.627732038497925,-0.08294747181786097,0.7409959762557009,3.881007020383619,-0.027021430417351278,0.6860636234913243,3.8591489706523125,2,681,-5.592604140050969,5.493235276437658,2.185804973130656,8.138218370760093,-24,10,25,1.0383650243866687,-0.6608170349546988,0.3987338557942336,70,252217.0,77,68.0,0,0,1,0,0,0
1778190658.350244,13.701518058776855,-0.08294747181786097,0.7409959762557009,3.881007020383619,0.013386646933134627,0.7692100720251878,3.8738805721781326,2,685,-9.63341187509956,-2.8214095769486858,0.7126448205486469,10.063341343533061,-14,6,-25,0.5476386610598144,1.1268591017586784,0.1996530165217035,70,252212.0,76,68.0,0,0,1,0,0,0
1778190658.424254,13.775527954101562,-0.08294747181786097,0.7409959762557009,3.881007020383619,-0.10280168595512129,0.7330875309125224,3.8299306151161274,2,689,1.9854214137260322,0.7908445343178472,5.107640526749169,5.536725116712299,30,-15,17,-1.5699026782634604,-0.48807718149286977,-0.5938389301752359,70,252212.0,76,68.0,0,0,1,0,0,0
1778190658.4959009,13.847174882888794,-0.08294747181786097,0.7409959762557009,3.881007020383619,-0.07737240756545583,0.6013707806128923,3.855749415283174,2,692,-0.5575064252405143,13.962519564280862,2.525760510044517,14.200078596656097,-4,9,30,0.3549248909912429,-1.8384144656191326,0.3603615759123483,70,252212.0,76,68.0,0,0,1,0,0,0
