timestamp,phase,command,axis,repeat,t_send,t_since_cmd,marker_id,n_markers,pos_x,pos_y,pos_z,marker_dist,tello_height_cm,tello_baro_cm,tello_battery,tello_temp_c,tello_pitch,tello_roll,tello_yaw,tello_vgx,tello_vgy,tello_vgz,tello_agx,tello_agy,tello_agz
1777586015.950051,init_hover,none,-,0,,,2,1,1.0874644617278002,0.697573101887309,2.9616846811473665,2.9778811147483957,70,255050.0,53,78.5,0,0,0,0,0,0,-13.0,20.0,-1003.0
1777586016.15711,init_hover,none,-,0,,,2,1,1.2205989492770994,0.7582379400803956,2.941639253673603,2.9715719437510844,70,255044.99999999997,53,78.5,0,-1,0,0,0,0,0.0,-1.0,-1039.0
1777586016.206846,init_hover,none,-,0,,,2,1,1.2004786739325732,0.6478050862782178,2.9559176956656183,2.9730537302639286,70,255048.99999999997,53,78.5,0,0,0,0,0,0,14.0,6.0,-1016.0
1777586016.2569,init_hover,none,-,0,,,2,1,1.3167641215819024,0.6459070492599164,2.945709156786081,2.972879449619617,70,255048.99999999997,53,78.5,0,0,0,0,0,0,14.0,6.0,-1016.0
1777586016.306176,init_hover,none,-,0,,,2,1,1.314306869684817,0.6452079091044014,2.9464341331829016,2.9732793054477233,70,255046.0,53,78.5,0,0,0,0,0,0,-14.0,19.0,-998.0
1777586016.35615,init_hover,none,-,0,,,2,1,1.195354100658108,0.638213114149417,2.957461234470234,2.973463580707001,70,255046.0,53,78.5,0,0,0,0,0,0,-14.0,19.0,-998.0
1777586016.4069812,init_hover,none,-,0,,,2,1,1.4337468967846718,0.5648533919457686,2.931456105874236,2.967953488849463,70,255052.0,53,78.5,0,0,0,0,0,0,-7.0,14.0,-1000.0
1777586016.4701,init_hover,none,-,0,,,,,,,,,70,255052.0,53,78.5,0,0,0,0,0,0,-7.0,14.0,-1000.0
1777586016.5219462,init_hover,none,-,0,,,2,1,1.3160713811229054,0.6305575579421506,2.9471227909595226,2.972976732247031,70,255053.00000000003,53,79.0,0,0,0,0,0,0,21.0,-5.0,-999.0
1777586016.572629,init_hover,none,-,0,,,2,1,1.348336946095888,0.5231704431488903,2.9563189658196816,2.979317273092286,70,255053.00000000003,53,79.0,0,0,0,0,0,0,21.0,-5.0,-999.0
1777586016.622692,init_hover,none,-,0,,,2,1,1.1136264151842332,0.7775838966320625,2.9515155452884954,2.9777381643292813,70,255046.99999999997,53,79.0,0,0,0,0,0,0,9.0,-4.0,-1021.0
1777586016.673023,init_hover,none,-,0,,,2,1,1.4113486961906425,0.6426831610975925,2.932618894555262,2.9712550289802775,70,255046.99999999997,53,79.0,0,0,0,0,0,0,9.0,-4.0,-1021.0
1777586016.723136,init_hover,none,-,0,,,2,1,1.2112105832946574,0.7386247455151375,2.955663986572452,2.982486585098451,70,255054.0,53,79.0,0,0,0,0,0,0,4.0,1.0,-1006.0
1777586016.7744288,init_hover,none,-,0,,,2,1,1.110703312136304,0.770784107971779,2.9525305386933685,2.977779820597777,70,255054.0,53,79.0,0,0,0,0,0,0,4.0,1.0,-1006.0
1777586016.824739,init_hover,none,-,0,,,2,1,1.2142092371455508,0.7294845669097701,2.956006495071425,2.9820161092815454,70,255046.0,53,79.0,0,0,0,0,0,0,8.0,3.0,-998.0
1777586016.875242,init_hover,none,-,0,,,2,1,1.213122735828911,0.7280801001357474,2.9562794784665356,2.982054024902073,70,255046.0,53,79.0,0,0,0,0,0,0,8.0,3.0,-998.0
1777586016.926023,init_hover,none,-,0,,,2,1,1.3094007435490524,0.7075370157174281,2.9515512331976006,2.9836156787252888,70,255042.99999999997,53,79.0,0,0,0,0,0,0,-1.0,25.0,-978.0
1777586016.977566,init_hover,none,-,0,,,2,1,1.2339655487005634,0.8111262950377303,2.9428051342618953,2.9805816155053324,70,255042.99999999997,53,79.0,0,0,0,0,0,0,-1.0,25.0,-978.0
1777586017.0281868,init_hover,none,-,0,,,2,1,1.2339655487005634,0.8111262950377303,2.9428051342618953,2.9805816155053324,70,255044.99999999997,53,79.0,0,0,0,0,0,0,-8.0,44.0,-1003.0
1777586017.079128,init_hover,none,-,0,,,2,1,1.3327303328225837,0.6009064138877638,2.9658010182904873,2.991161737789242,70,255044.99999999997,53,79.0,0,0,0,0,0,0,-14.0,20.0,-1035.0
1777586017.129188,init_hover,none,-,0,,,2,1,1.2110539340018285,0.7076443581797358,2.9691845786737296,2.9925316834431954,70,255044.99999999997,53,79.0,0,0,0,0,0,0,-14.0,20.0,-1035.0
1777586017.180164,init_hover,none,-,0,,,2,1,1.2380045846029235,0.8029921994292353,2.9541954193660516,2.9910398644779357,70,255057.00000000003,53,79.0,0,0,0,0,0,0,-5.0,9.0,-1016.0
1777586017.231522,init_hover,none,-,0,,,2,1,1.2360184709240556,0.8029322803024016,2.954758818812073,2.991430898161403,70,255057.00000000003,53,79.0,0,0,0,0,0,0,-5.0,9.0,-1016.0
1777586017.28306,init_hover,none,-,0,,,2,1,1.3182671122133183,0.6890685777396091,2.9632931756300147,2.9943214660567805,70,255050.0,53,79.0,0,0,0,0,0,0,13.0,-10.0,-1013.0
1777586017.334156,init_hover,none,-,0,,,2,1,1.2354745774961349,0.7950530505069228,2.9567993280547484,2.9923531636066656,70,255050.0,53,79.0,0,0,0,0,0,0,13.0,-10.0,-1013.0
1777586017.3849971,init_hover,none,-,0,,,2,1,1.2118270292208806,0.6914851905863337,2.9832382779107727,3.0049201203079803,70,255046.99999999997,53,79.0,0,0,0,0,0,0,12.0,-10.0,-1010.0
1777586017.435626,init_hover,none,-,0,,,2,1,1.2312740917795526,0.7873568622977283,2.970113120409897,3.00418125157731,70,255046.99999999997,53,79.0,0,0,0,0,0,0,12.0,-10.0,-1010.0
1777586017.486252,init_hover,none,-,0,,,2,1,1.410646129573459,0.6837377340920747,2.9534988388438284,2.99537856314243,70,255054.0,53,79.0,0,0,0,0,0,0,-6.0,40.0,-972.0
1777586017.536751,init_hover,none,-,0,,,2,1,1.3233189611687903,0.671999415226024,2.9774200061614153,3.0072493620624163,70,255054.0,53,79.0,0,0,0,0,0,0,-6.0,40.0,-972.0
1777586017.5873878,init_hover,none,-,0,,,2,1,1.2295018823737243,0.7765842235083921,2.9635282485451033,2.9961619567929416,70,255057.00000000003,53,79.0,0,0,0,0,0,0,-13.0,27.0,-969.0
1777586017.638177,init_hover,none,-,0,,,2,1,1.4050566407163023,0.7563645297803963,2.9501001763845034,2.99902611041949,70,255057.00000000003,53,79.0,0,0,0,0,0,0,-13.0,27.0,-969.0
1777586017.6887429,init_hover,none,-,0,,,2,1,1.224557742020076,0.7699444150172643,2.9769963300467555,3.0082872533744967,70,255051.00000000003,53,79.0,0,0,0,0,0,0,-5.0,44.0,-949.0
1777586017.7401059,init_hover,none,-,0,,,2,1,1.3141547150754365,0.7458079306562669,2.9648655196183897,3.001450292663685,70,255051.00000000003,53,79.0,0,0,0,0,0,0,-5.0,44.0,-949.0
1777586017.789802,init_hover,none,-,0,,,2,1,1.3185428676705377,0.7449280538212681,2.975211324053297,3.012030435376056,80,255044.99999999997,53,79.0,0,0,0,0,0,0,1.0,24.0,-997.0
1777586017.840543,init_hover,none,-,0,,,2,1,1.3235085907090387,0.8246273681123423,2.9550925081429043,3.0029215676895196,80,255044.99999999997,53,79.0,0,0,0,0,0,0,1.0,24.0,-997.0
1777586017.891317,init_hover,none,-,0,,,2,1,1.323289027461799,0.741405347972388,2.977017473567615,3.0139187853736615,80,255058.0,53,79.0,0,0,0,0,0,0,3.0,24.0,-985.0
1777586017.942035,init_hover,none,-,0,,,2,1,1.4054129773436994,0.732876626666754,2.9592243116683417,3.0053577253878934,80,255058.0,53,79.0,0,0,0,0,0,0,3.0,24.0,-985.0
1777586017.992498,init_hover,none,-,0,,,2,1,1.3204873378243351,0.8108554900589415,2.9618504810172013,3.00733646925633,80,255057.00000000003,53,79.0,0,0,0,0,0,0,13.0,26.0,-964.0
1777586018.04293,init_hover,none,-,0,,,2,1,1.3253711921782942,0.8090714510201757,2.962254513610074,3.0080155697972266,80,255057.00000000003,53,79.0,0,0,0,0,0,0,13.0,26.0,-964.0
1777586018.094055,init_hover,none,-,0,,,2,1,1.4060135998853633,0.7196148890042837,2.9644049198559856,3.0091023992930954,80,255054.0,53,79.0,0,0,0,0,0,0,7.0,-8.0,-1018.0
1777586018.1446881,init_hover,none,-,0,,,2,1,1.2324656520795785,0.8120474140029962,2.971734010839739,3.009157088283193,80,255054.0,53,79.0,0,0,0,0,0,0,7.0,-8.0,-1018.0
1777586018.1952991,init_hover,none,-,0,,,2,1,1.31816689087098,0.7933767195764033,2.969906807476844,3.012693455871091,80,255046.0,53,79.0,0,0,0,0,0,0,4.0,3.0,-1014.0
1777586018.245877,init_hover,none,-,0,,,2,1,1.4002121098457543,0.7813186032150009,2.9535285367624375,3.004813542883334,80,255046.0,53,79.0,0,0,0,0,0,0,4.0,3.0,-1014.0
1777586018.29619,init_hover,none,-,0,,,2,1,1.4009187166139432,0.7774375477934701,2.9550653355466103,3.0059284850383445,70,255053.00000000003,53,79.0,0,0,0,0,0,0,0.0,-13.0,-1000.0
1777586018.347748,init_hover,none,-,0,,,2,1,1.3220557033191365,0.7758326492035973,2.9772830822077094,3.0181425757985685,70,255053.00000000003,53,79.0,0,0,0,0,0,0,0.0,-13.0,-1000.0
1777586018.398845,init_hover,none,-,0,,,2,1,1.4014758038046768,0.7650861100343053,2.9605723787707046,3.0098936025581735,70,255046.99999999997,53,79.0,0,0,0,0,0,0,13.0,-23.0,-1005.0
1777586018.450939,init_hover,none,-,0,,,2,1,1.398346137442337,0.7541236311694579,2.964800011870249,3.0123283854443392,70,255046.99999999997,53,79.0,0,0,0,0,0,0,13.0,-23.0,-1005.0
1777586018.502254,init_hover,none,-,0,,,2,1,1.4784441407675577,0.7565623827813659,2.954210554871208,3.0138688642941953,70,255055.00000000003,53,78.5,0,0,0,0,0,0,20.0,-13.0,-1019.0
1777586018.5530071,init_hover,none,-,0,,,2,1,1.3167125819413825,0.7440968641670114,2.9901406277058973,3.026491448021449,70,255055.00000000003,53,78.5,0,0,0,0,0,0,20.0,-13.0,-1019.0
1777586018.603067,init_hover,none,-,0,,,2,1,1.4776898212344438,0.7425543555476979,2.958818396133688,3.016643391770864,70,255053.00000000003,53,78.5,0,0,0,0,0,0,2.0,9.0,-1010.0
1777586018.656682,init_hover,none,-,0,,,2,1,1.4850083388211277,0.7373730955221337,2.9603020052833204,3.0186821059516458,70,255053.00000000003,53,78.5,0,0,0,0,0,0,2.0,9.0,-1010.0
1777586018.708031,init_hover,none,-,0,,,2,1,1.4751444785848153,0.8030917129985282,2.946846992841142,3.0120013950585425,70,255058.0,53,78.5,0,0,0,0,0,0,9.0,11.0,-1002.0
1777586018.7589781,init_hover,none,-,0,,,2,1,1.4781404170682573,0.7950939728652476,2.9501953432375227,3.0146923672389887,70,255058.0,53,78.5,0,0,0,0,0,0,9.0,11.0,-1002.0
1777586018.809126,init_hover,none,-,0,,,2,1,1.4084543310689739,0.7829965581746,2.9762328327549445,3.0284456704572253,70,255053.00000000003,53,78.5,0,0,0,0,0,0,18.0,-21.0,-1020.0
1777586018.8596349,init_hover,none,-,0,,,2,1,1.4100106627059203,0.7782138422635618,2.9781230249989865,3.029912739014348,70,255053.00000000003,53,78.5,0,0,0,0,0,0,18.0,-21.0,-1020.0
1777586018.910719,init_hover,none,-,0,,,2,1,1.4864181583588594,0.7710581072363386,2.9594732709188403,3.0220471182643887,70,255041.0,53,78.5,0,0,0,0,0,0,9.0,25.0,-990.0
1777586018.961768,init_hover,none,-,0,,,2,1,1.5609333530675547,0.7192340499161869,2.947246883611823,3.017088132317169,70,255041.0,53,78.5,0,0,0,0,0,0,9.0,25.0,-990.0
1777586019.012873,init_hover,none,-,0,,,2,1,1.6459112991448515,0.6719176348360265,2.9308523294833506,3.0134757313998386,70,255046.99999999997,53,78.5,0,0,0,0,0,0,18.0,-12.0,-1028.0
1777586019.064586,init_hover,none,-,0,,,2,1,1.634623057458882,0.714927846335331,2.9379188753095797,3.0221338969933442,70,255046.99999999997,53,78.5,0,0,0,0,0,0,18.0,-12.0,-1028.0
1777586019.116513,init_hover,none,-,0,,,4,1,1.354472933025188,0.7546661011350432,2.9517806401971667,3.042285684371905,70,255055.00000000003,53,78.5,0,0,0,0,0,0,13.0,1.0,-1027.0
1777586019.1681721,init_hover,none,-,0,,,4,1,1.3469575154391946,0.704583153827167,2.9474430437289207,3.034247168617392,70,255055.00000000003,53,78.5,0,0,0,0,0,0,13.0,1.0,-1027.0
1777586019.2187421,init_hover,none,-,0,,,4,1,1.3505033126827166,0.7084574081863644,2.946226999526458,3.032696069875755,70,255052.0,53,78.5,0,0,0,0,0,0,3.0,-4.0,-1044.0
1777586019.269727,init_hover,none,-,0,,,4,1,1.3354255145979728,0.6623910277579123,2.9495527927906546,3.0348591360315846,70,255052.0,53,78.5,0,0,0,0,0,0,3.0,-4.0,-1044.0
1777586019.320333,init_hover,none,-,0,,,4,1,1.5717288397927038,0.7506772822483017,3.004479733897272,3.055043242631728,70,255048.99999999997,53,78.5,0,0,0,0,0,0,14.0,0.0,-997.0
1777586019.3714502,init_hover,none,-,0,,,4,1,1.4228516303070362,0.7209546839581118,2.9624579528163535,3.0351720333448573,70,255048.99999999997,53,78.5,0,0,0,0,0,0,14.0,0.0,-997.0
1777586019.421761,init_hover,none,-,0,,,4,1,1.351175650471404,0.6822727980353749,2.943236610805149,3.0270931132417624,70,255046.0,53,78.5,0,0,0,0,0,0,10.0,-17.0,-1001.0
1777586019.4720588,init_hover,none,-,0,,,4,1,1.480192309698709,0.6480664495606147,2.9827367282485504,3.037837287995662,70,255046.0,53,78.5,0,0,0,0,0,0,10.0,-17.0,-1001.0
1777586019.5230038,init_hover,none,-,0,,,4,1,1.5019251372685976,0.7283023716193395,2.979986032106257,3.039108054618029,70,255054.0,53,78.5,0,0,0,0,0,0,20.0,-19.0,-994.0
1777586019.573555,init_hover,none,-,0,,,4,1,1.5065738631379868,0.7413021655517892,2.9747467484484735,3.0346457351977145,70,255054.0,53,78.5,0,0,0,0,0,0,20.0,-19.0,-994.0
1777586019.6234891,init_hover,none,-,0,,,4,1,1.4918387999335225,0.6765278640471216,2.984813953124411,3.0403634321596558,70,255046.99999999997,53,78.5,0,0,0,0,0,0,6.0,-21.0,-1018.0
1777586019.6742241,init_hover,none,-,0,,,4,1,1.5898865045353965,0.7523924687472556,2.991782920558729,3.0402530445571303,70,255046.99999999997,53,78.5,0,0,0,0,0,0,6.0,-21.0,-1018.0
1777586019.724316,init_hover,none,-,0,,,4,1,1.6718781036612556,0.7618280485087686,2.997931764070329,3.0374624899027864,70,255055.00000000003,53,78.5,0,0,0,0,0,0,-3.0,6.0,-971.0
1777586019.775142,init_hover,none,-,0,,,4,1,1.5064464895234932,0.7052060615024259,2.975091027605837,3.0311569458248546,70,255055.00000000003,53,78.5,0,0,0,0,0,0,-3.0,6.0,-971.0
1777586019.825214,init_hover,none,-,0,,,4,1,1.510745305319967,0.7117356584035881,2.9735518004848016,3.0296137686433195,70,255050.0,53,78.5,0,0,0,0,0,0,13.0,-12.0,-978.0
1777586019.876126,init_hover,none,-,0,,,4,1,1.5134300807128855,0.7267794596245045,2.9683679914425114,3.0256806893999904,70,255050.0,53,78.5,0,0,0,0,0,0,13.0,-12.0,-978.0
1777586019.926612,init_hover,none,-,0,,,4,1,1.4997079135579954,0.6572265745744819,2.9685044134897742,3.021336812626504,70,255054.0,53,78.5,0,0,0,0,0,0,30.0,-21.0,-971.0
1777586019.977313,init_hover,none,-,0,,,4,1,1.6886380595328156,0.7403102529764398,2.9954263139091375,3.030731945968112,70,255054.0,53,78.5,0,0,0,0,0,0,30.0,-21.0,-971.0
1777586020.028161,init_hover,none,-,0,,,4,1,1.6886380595328156,0.7403102529764398,2.9954263139091375,3.030731945968112,70,255058.0,53,78.5,0,0,0,0,0,0,2.0,10.0,-999.0
1777586020.078964,init_hover,none,-,0,,,4,1,1.593379576954429,0.6678441829027955,2.986052807986603,3.0254903812171183,70,255058.0,53,78.5,0,0,0,0,0,0,2.0,10.0,-999.0
1777586020.129471,init_hover,none,-,0,,,4,1,1.7866830523994202,0.7782220373196009,3.002169702183139,3.033410448711848,70,255050.0,53,78.5,0,0,0,0,0,0,-1.0,13.0,-998.0
1777586020.180651,init_hover,none,-,0,,,4,1,1.6978233869804495,0.6756180579697151,3.0048325197556522,3.032539281050794,70,255050.0,53,78.5,0,0,0,0,0,0,-1.0,13.0,-998.0
1777586020.2309551,init_hover,none,-,0,,,4,1,1.6922968818631106,0.781956263036675,2.990494671096367,3.0304504902142644,70,255046.99999999997,53,78.5,0,0,0,0,0,0,-2.0,14.0,-978.0
1777586020.281867,init_hover,none,-,0,,,4,1,1.6876747350689807,0.5906360498972836,3.015087122195468,3.0372091678156803,70,255046.99999999997,53,78.5,0,0,0,0,0,0,-2.0,14.0,-978.0
1777586020.3330681,init_hover,none,-,0,,,4,1,1.5530887411568406,0.5379205196568091,2.9921952479142973,3.028528379372412,70,255054.0,53,78.5,0,0,0,0,0,0,7.0,-8.0,-1024.0
1777586020.384127,init_hover,none,-,0,,,4,1,1.699785228426391,0.7226860902404815,3.0016540685728272,3.033839542442133,70,255054.0,53,78.5,0,0,0,0,0,0,7.0,-8.0,-1024.0
1777586020.434164,init_hover,none,-,0,,,4,1,1.8050778407061794,0.7462083969641446,3.0043976081689596,3.0305543866236118,70,255048.99999999997,53,78.5,0,0,0,0,0,0,6.0,32.0,-958.0
1777586020.48388,init_hover,none,-,0,,,4,1,1.700272794551285,0.6341085361890426,3.0054707667202893,3.029438517945679,70,255048.99999999997,53,78.5,0,0,0,0,0,0,6.0,32.0,-958.0
1777586020.53467,init_hover,none,-,0,,,4,1,1.6992515938801067,0.6471219995078601,3.013722377328657,3.0387565637997245,70,255051.00000000003,53,79.0,0,0,0,0,0,0,18.0,-24.0,-993.0
1777586020.5860832,init_hover,none,-,0,,,4,1,1.6983254396346128,0.7605894529253898,2.989102394419439,3.0258495366188822,70,255051.00000000003,53,79.0,0,0,0,0,0,0,18.0,-24.0,-993.0
1777586020.6366029,init_hover,none,-,0,,,4,1,1.8297305236463117,0.518175384704264,3.0370443224682675,3.0441082984618824,70,255050.0,53,79.0,0,0,0,0,0,0,4.0,21.0,-997.0
1777586020.687351,init_hover,none,-,0,,,4,1,1.8169989570659026,0.6902408862964008,3.0127002550426143,3.0321761130460283,70,255050.0,53,79.0,0,0,0,0,0,0,4.0,21.0,-997.0
1777586020.737856,init_hover,none,-,0,,,4,1,1.6820174782905453,0.5820724865215986,3.018009250751291,3.040171559646138,70,255046.0,53,79.0,0,0,0,0,0,0,-22.0,6.0,-1012.0
1777586020.78784,init_hover,none,-,0,,,4,1,1.8120673716779572,0.7132798242939367,3.0177239250728487,3.039756669382395,70,255046.0,53,79.0,0,0,0,0,0,0,-22.0,6.0,-1012.0
1777586020.838583,init_hover,none,-,0,,,4,1,1.829564257516119,0.5849791353372031,3.03940554078185,3.0497953479146007,70,255048.0,53,79.0,0,0,0,0,0,0,5.0,6.0,-1033.0
1777586020.8887959,init_hover,none,-,0,,,4,1,1.7637272251567908,0.41520216194774484,3.035344152880166,3.044564017438919,70,255048.0,53,79.0,0,0,0,0,0,0,5.0,6.0,-1033.0
1777586020.9395359,init_hover,none,-,0,,,4,1,1.9675345982743986,0.6806658947847329,3.0292357971315864,3.0423834178860423,70,255050.0,53,79.0,0,0,0,0,0,0,7.0,8.0,-993.0
1777586021.0075982,recenter,right,-,1,,,4,,1.6638914350223424,0.345339388208201,3.0244884426949987,3.0435977214356718,70,255055.00000000003,53,79.0,0,0,0,0,0,0,-10.0,3.0,-1041.0
1777586021.056459,recenter,right,-,1,,,4,,2.0987783023752593,0.5733558017237245,3.043368547650549,3.0499018842972676,70,255055.00000000003,53,79.0,0,0,0,0,0,0,-10.0,3.0,-1041.0
1777586021.103704,recenter,right,-,1,,,4,,2.092199856104716,0.568522185131816,3.04379390178793,3.049849481025043,70,255054.0,53,79.0,0,0,0,0,0,0,13.0,5.0,-993.0
1777586021.1512132,recenter,right,-,1,,,4,,2.059278799929293,0.5582460252158745,3.0457522253255003,3.0504364275776865,70,255054.0,53,79.0,0,0,0,0,0,0,13.0,5.0,-993.0
1777586021.19971,recenter,right,-,1,,,4,,2.2528919710016306,0.5541066080298946,3.036445122844861,3.050852697146146,70,255042.0,53,79.0,0,0,0,0,0,0,-12.0,0.0,-1011.0
1777586021.2500029,recenter,right,-,1,,,4,,2.033380332945627,0.560539705801484,3.046027952564003,3.050438252377458,70,255042.0,53,79.0,0,0,0,0,0,0,-12.0,0.0,-1011.0
1777586021.299316,recenter,right,-,1,,,4,,2.3668019296673406,0.5712041120947546,3.0227173537539,3.049700756515435,70,255050.0,53,79.0,0,0,0,0,0,0,3.0,-13.0,-998.0
1777586021.3509278,recenter,right,-,1,,,4,,2.3642172174215297,0.5653262923870186,3.023734641362883,3.0500751049439168,70,255050.0,53,79.0,0,0,0,0,0,0,3.0,-13.0,-998.0
1777586021.403574,recenter,right,-,1,,,4,,2.3598402381621586,0.5529437155105736,3.025757090411163,3.0509150672033147,70,255044.0,53,79.0,0,0,0,0,0,0,15.0,0.0,-1006.0
1777586021.455132,recenter,right,-,1,,,4,,2.207167841261195,0.6504565818449589,3.04844323555795,3.0657222924233216,70,255044.0,53,79.0,0,0,0,0,0,0,15.0,0.0,-1006.0
1777586021.5065029,recenter,right,-,1,,,4,,2.2019693449102786,0.6440239195286803,3.0500432053030253,3.066447919629613,70,255051.00000000003,53,79.0,0,0,0,0,0,0,2.0,-8.0,-986.0
1777586021.5574558,recenter,right,-,1,,,4,,2.322864554191993,0.633827391624166,3.041755628118096,3.067766951809649,70,255051.00000000003,53,79.0,0,0,0,0,0,0,2.0,-8.0,-986.0
1777586021.608641,recenter,right,-,1,,,4,,2.2084180059773146,0.7482250846461858,3.040817816551192,3.0677796153321646,70,255046.0,53,79.0,0,0,0,0,0,0,5.0,-3.0,-1023.0
1777586021.6611688,recenter,right,-,1,,,4,,2.1974143589022894,0.7385404961010469,3.0554235551819873,3.0804537325144294,70,255046.0,53,79.0,0,0,0,0,0,0,5.0,-3.0,-1023.0
1777586021.7122262,recenter,right,-,1,,,4,,2.1929498457418926,0.7327019884298351,3.057421444345364,3.0815168577211898,70,255051.00000000003,53,79.0,0,0,0,0,0,0,-11.0,12.0,-1023.0
1777586021.763336,recenter,right,-,1,,,4,,2.1890922824782395,0.7244175566145366,3.060729905379859,3.0836780305374254,70,255051.00000000003,53,79.0,0,0,0,0,0,0,-11.0,12.0,-1023.0
1777586021.8144882,recenter,right,-,1,,,4,,2.3003581912038547,0.6973045729540002,3.0465357388988425,3.0757088712214826,70,255046.99999999997,53,79.0,0,0,0,0,0,0,2.0,18.0,-987.0
1777586021.865582,recenter,right,-,1,,,4,,2.398829733847507,0.6911918154045944,3.0374821696913745,3.0773618183685385,70,255046.99999999997,53,79.0,0,0,0,0,0,0,2.0,18.0,-987.0
1777586021.9173608,recenter,right,-,1,,,4,,2.2069385795937215,0.8031343918049233,3.0532864383228655,3.086729497061011,70,255054.0,53,79.0,0,0,0,0,0,0,2.0,10.0,-985.0
1777586021.9691362,recenter,right,-,1,,,4,,2.3031957284504667,0.7686029360639832,3.054742909430903,3.09180368344175,70,255054.0,53,79.0,0,0,0,0,0,0,2.0,10.0,-985.0
1777586022.020363,recenter,right,-,1,,,4,,2.3029421489032966,0.6447500789745957,3.080421535769865,3.10494337867456,70,255050.0,53,79.0,0,0,0,0,0,0,13.0,23.0,-978.0
1777586022.071875,recenter,right,-,1,,,4,,2.3019783920782584,0.7469270554545276,3.0725265406644393,3.1067617665627187,70,255050.0,53,79.0,0,0,0,0,0,0,13.0,23.0,-978.0
1777586022.122787,recenter,right,-,1,,,4,,2.300484126351145,0.7316425478856509,3.0777466623130247,3.11011286083577,70,255048.0,53,79.0,0,0,0,0,0,0,-4.0,-3.0,-1036.0
1777586022.173582,recenter,right,-,1,,,4,,2.485205971517703,0.734645144889618,3.0537804716116477,3.110142661774744,70,255048.0,53,79.0,0,0,0,0,0,0,-4.0,-3.0,-1036.0
1777586022.2246149,recenter,right,-,1,,,4,,2.4020704785612486,0.7095719933552106,3.073115332524294,3.1147284529788934,70,255050.0,53,79.0,0,0,0,0,0,0,14.0,4.0,-1019.0
1777586022.275479,recenter,right,-,1,,,4,,2.40789164873135,0.7068938210184337,3.0849199148212283,3.126865890207747,70,255050.0,53,79.0,0,0,0,0,0,0,14.0,4.0,-1019.0
1777586022.326175,recenter,right,-,1,,,4,,2.404138280388607,0.7815975983641257,3.0818933656677254,3.1316147901840465,70,255048.99999999997,53,79.0,0,0,0,0,0,0,19.0,-13.0,-997.0
1777586022.37791,recenter,right,-,1,,,4,,2.4052076758568397,0.7743895058924014,3.0846425373488358,3.1335890518569154,70,255048.99999999997,53,79.0,0,0,0,0,0,0,19.0,-13.0,-997.0
1777586022.429379,recenter,right,-,1,,,4,,2.3264819460797734,0.8574487738842395,3.0970102618919544,3.147589935825234,70,255054.0,53,79.0,0,0,0,0,0,0,24.0,-21.0,-1020.0
1777586022.4800918,recenter,right,-,1,,,4,,2.3263608325448724,0.8498929449743038,3.1004850842962655,3.149908381667736,70,255054.0,53,79.0,0,0,0,0,0,0,24.0,-21.0,-1020.0
1777586022.530686,recenter,right,-,1,,,4,,2.4925365406165065,0.8253353261921598,3.087436718505686,3.1552761962032148,70,255052.0,53,79.0,0,0,0,0,0,0,-9.0,6.0,-983.0
1777586022.5816371,recenter,right,-,1,,,4,,2.579511840685754,0.7557273268839748,3.0801189972028413,3.1542842201546843,70,255052.0,53,79.0,0,0,0,0,0,0,-9.0,6.0,-983.0
1777586022.633188,recenter,right,-,1,,,4,,2.607890146378707,0.675767956205205,3.094089643728508,3.165275520260744,70,255046.99999999997,53,79.0,0,0,0,0,0,0,13.0,-2.0,-1017.0
1777586022.68494,recenter,right,-,1,,,4,,2.6121295857136015,0.6696188537473313,3.095751301373742,3.1671869341671557,70,255046.99999999997,53,79.0,0,0,0,0,0,0,13.0,-2.0,-1017.0
1777586022.735421,recenter,right,-,1,,,4,,2.527100110255555,0.7114720008878883,3.1299274777133217,3.189246831042307,70,255039.0,53,79.0,0,0,0,0,0,0,11.0,-5.0,-1043.0
1777586022.786848,recenter,right,-,1,,,4,,2.531450403631941,0.7039815622890879,3.132183534680633,3.191460169993781,70,255039.0,53,79.0,0,0,0,0,0,0,11.0,-5.0,-1043.0
1777586022.837847,recenter,right,-,1,,,4,,2.679612564498273,0.7297618439533899,3.1007913650090697,3.19147664896146,70,255055.00000000003,53,79.0,0,0,0,0,0,0,1.0,1.0,-992.0
1777586022.887691,recenter,right,-,1,,,4,,2.6241233117633613,0.6967976387352492,3.1223877873817303,3.197956260087974,70,255055.00000000003,53,79.0,0,0,0,0,0,0,1.0,1.0,-992.0
1777586022.938448,recenter,right,-,1,,,4,,2.697949123348481,0.7157571416040978,3.1158570692870855,3.208644702593793,70,255044.99999999997,53,79.0,0,0,0,0,0,0,14.0,-6.0,-998.0
1777586022.989193,recenter,right,-,1,,,4,,2.5318459067508163,0.8196897478435077,3.1499494077016212,3.221983988795156,70,255044.99999999997,53,79.0,0,0,0,0,0,0,14.0,-6.0,-998.0
1777586023.0386639,recenter,right,-,1,,,4,,2.6896090210473202,0.7613967146960201,3.1253949945062987,3.220910128983413,70,255054.0,53,79.0,0,0,0,0,0,0,-3.0,-17.0,-1011.0
1777586023.089705,recenter,right,-,1,,,4,,2.633389332775078,0.7401375436651351,3.1557432574753257,3.236601783133784,70,255054.0,53,79.0,0,0,0,0,0,0,-3.0,-17.0,-1011.0
1777586023.140188,recenter,right,-,1,,,4,,2.7091122548542086,0.745923220534209,3.1416008394787096,3.239160215102444,70,255044.99999999997,53,79.0,0,0,0,0,0,0,0.0,5.0,-971.0
1777586023.19049,recenter,right,-,1,,,4,,2.7227190432965176,0.7371557734140729,3.156695237005522,3.255874943916492,70,255044.99999999997,53,79.0,0,0,0,0,0,0,0.0,5.0,-971.0
1777586023.241514,recenter,right,-,1,,,4,,2.726428069487042,0.7292193251992962,3.1601798285219047,3.259266735451409,70,255058.0,53,79.0,0,0,0,0,2,0,1.0,9.0,-1020.0
1777586023.2920141,recenter,right,-,1,,,4,,2.82301103838343,0.6815099681650545,3.148185218535362,3.2661391889632942,70,255058.0,53,79.0,0,0,0,0,2,0,1.0,9.0,-1020.0
1777586023.342218,recenter,right,-,1,,,4,,2.75041655367164,0.7123833611338222,3.174813043993145,3.2772162322078633,70,255058.0,53,79.0,0,0,0,0,2,0,1.0,9.0,-1020.0
1777586023.393153,recenter,right,-,1,,,4,,2.7671703843019864,0.706845048997739,3.1871032158872876,3.292465822353145,70,255052.0,53,79.0,0,-4,0,0,2,0,16.0,-18.0,-1039.0
1777586023.444631,recenter,right,-,1,,,4,,2.8299511361691083,0.7294632739120626,3.1673461417654254,3.2908124405747547,70,255048.99999999997,53,79.0,0,-4,0,0,1,0,24.0,0.0,-992.0
1777586023.496033,recenter,right,-,1,,,4,,2.8854831113197434,0.7440926256605735,3.1524100315537322,3.2924412041078397,70,255048.99999999997,53,79.0,0,-4,0,0,1,0,24.0,0.0,-992.0
1777586023.5476182,recenter,right,-,1,,,4,,2.839723449725179,0.7237525175167758,3.1824497831153686,3.3072553252913304,70,255052.0,53,78.5,0,-2,0,0,0,0,10.0,-10.0,-1022.0
1777586023.598547,recenter,right,-,1,,,4,,2.824816641173932,0.7787929534697818,3.188217343462039,3.314896140500928,70,255052.0,53,78.5,0,-2,0,0,0,0,10.0,-10.0,-1022.0
1777586023.649023,recenter,right,-,1,,,4,,2.8997561899346085,0.7414816464095577,3.1632884279423044,3.306442891464167,70,255054.0,53,78.5,0,-1,0,0,0,0,28.0,11.0,-991.0
1777586023.697709,recenter,right,-,1,,,4,,2.857413811218709,0.7231388843820911,3.192818844090471,3.321696758201673,70,255054.0,53,78.5,0,-1,0,0,0,0,28.0,11.0,-991.0
1777586023.7460868,recenter,right,-,1,,,4,,2.7818609714527303,0.7601886788759085,3.217041027425568,3.330224532251652,70,255052.0,53,78.5,0,-2,0,0,0,0,10.0,20.0,-995.0
1777586023.796319,recenter,right,-,1,,,4,,2.9196103468049293,0.745239452903202,3.1837365122315946,3.3318240723525876,70,255052.0,53,78.5,0,-2,0,0,0,0,10.0,20.0,-995.0
1777586023.84888,recenter,right,-,1,,,4,,2.848554927973116,0.7821081428976907,3.2084350568216222,3.3406747241385455,70,255048.99999999997,53,78.5,0,-1,0,0,0,0,11.0,16.0,-1003.0
1777586023.899785,recenter,right,-,1,,,4,,2.7626734079910884,0.8880702738324322,3.226454386447515,3.351102986672003,70,255048.99999999997,53,78.5,0,-1,0,0,0,0,11.0,16.0,-1003.0
1777586023.95185,recenter,right,-,1,,,4,,2.8205839459179023,0.8984032974910903,3.208750547111823,3.34930499250794,70,255055.00000000003,53,78.5,0,-1,0,0,0,0,12.0,17.0,-982.0
1777586024.003283,recenter,right,-,1,,,4,,2.769296493904053,0.8927225373511217,3.2356662599694013,3.3621613197839224,70,255055.00000000003,53,78.5,0,-1,0,0,0,0,12.0,17.0,-982.0
1777586024.054688,recenter,right,-,1,,,4,,2.769296493904053,0.8927225373511217,3.2356662599694013,3.3621613197839224,70,255044.99999999997,53,78.5,0,-1,0,0,0,0,-10.0,47.0,-958.0
1777586024.1060421,recenter,right,-,1,,,4,,2.862300826318231,0.7917249420698277,3.2275995808427225,3.363689967812853,70,255044.99999999997,53,78.5,0,-1,0,0,0,0,-10.0,47.0,-958.0
1777586024.156492,recenter,right,-,1,,,4,,2.862300826318231,0.7917249420698277,3.2275995808427225,3.363689967812853,70,255048.0,53,78.5,0,0,0,0,0,0,8.0,18.0,-985.0
1777586024.207732,recenter,right,-,1,,,4,,2.9155467501427825,0.8092645801026198,3.2077364089815825,3.360847544553255,70,255048.0,53,78.5,0,0,0,0,0,0,8.0,18.0,-985.0
1777586024.258212,recenter,right,-,1,,,4,,2.9373538213672434,0.7590517036668374,3.2139630387792586,3.367062328941512,70,255050.0,53,78.5,0,0,0,0,0,0,1.0,12.0,-972.0
1777586024.308884,recenter,right,-,1,,,4,,2.919268607223042,0.8164231325101213,3.21880251837461,3.373299964398373,70,255050.0,53,78.5,0,0,0,0,0,0,1.0,12.0,-972.0
1777586024.359762,recenter,right,-,1,,,4,,2.919268607223042,0.8164231325101213,3.21880251837461,3.373299964398373,70,255044.0,53,78.5,0,0,0,0,0,0,5.0,11.0,-989.0
1777586024.410681,recenter,right,-,1,,,4,,2.8686322796206127,0.7981828883020134,3.2502484473407547,3.3877996722321733,70,255044.0,53,78.5,0,0,0,0,0,0,5.0,11.0,-989.0
1777586024.46178,recenter,right,-,1,,,4,,2.790463188561252,0.839949827921765,3.272166483820567,3.394916994772842,70,255042.99999999997,53,78.5,0,0,0,0,0,0,5.0,-7.0,-998.0
1777586024.5134022,recenter,right,-,1,,,4,,2.7940400893183615,0.8479159521781672,3.283295481786234,3.407514869282053,70,255042.99999999997,53,78.5,0,0,0,0,0,0,5.0,-7.0,-998.0
1777586024.5642319,recenter,right,-,1,,,4,,2.8666350375830345,0.8000265840591656,3.2501373443931456,3.387398753282454,70,255052.0,53,79.0,0,0,0,0,0,0,11.0,24.0,-967.0
1777586024.615673,recenter,right,-,1,,,4,,2.7940400893183615,0.8479159521781672,3.283295481786234,3.407514869282053,70,255052.0,53,79.0,0,0,0,0,0,0,11.0,24.0,-967.0
1777586024.667573,recenter,right,-,1,,,4,,2.9441635092497838,0.7682179688146894,3.235140027332951,3.3901563682533475,70,255044.99999999997,53,79.0,0,0,0,0,0,0,-1.0,14.0,-982.0
1777586024.71891,recenter,right,-,1,,,4,,2.9441635092497838,0.7682179688146894,3.235140027332951,3.3901563682533475,70,255044.99999999997,53,79.0,0,0,0,0,0,0,-1.0,14.0,-982.0
1777586024.7705479,recenter,right,-,1,,,4,,2.926180636003606,0.8263556509183321,3.2397126481063236,3.3963697905084076,70,255052.0,53,79.0,0,0,0,0,0,0,-6.0,14.0,-1025.0
1777586024.8217442,recenter,right,-,1,,,4,,2.7941164735311763,0.8517134504892895,3.2807994805929,3.405629346647279,70,255052.0,53,79.0,0,0,0,0,0,0,-6.0,14.0,-1025.0
1777586024.872619,recenter,right,-,1,,,4,,2.869100627106749,0.8023980706244562,3.260164039668155,3.397930204230954,70,255054.0,53,79.0,0,0,0,0,0,0,-23.0,39.0,-1017.0
1777586024.923604,recenter,right,-,1,,,4,,2.9420924826797514,0.7699075808681712,3.2345428871908584,3.3891942336464598,70,255053.00000000003,53,79.0,0,0,0,0,0,0,8.0,28.0,-986.0
1777586024.97378,recenter,right,-,1,,,4,,2.9220444260390863,0.821978250278578,3.2394740963068545,3.3944696180612706,70,255053.00000000003,53,79.0,0,0,0,0,0,0,8.0,28.0,-986.0
1777586025.022877,recenter,right,-,1,,,4,,2.8117369906894067,0.7941595301033029,3.2904669709402548,3.4119571456970976,70,255053.00000000003,53,79.0,0,0,0,0,0,0,-9.0,24.0,-999.0
1777586025.0697038,recenter,right,-,1,,,4,,2.8151100262477993,0.8014786635473453,3.301982886784613,3.4247161133139046,70,255053.00000000003,53,79.0,0,0,0,0,0,0,-9.0,24.0,-999.0
1777586025.11962,recenter,right,-,1,,,4,,2.7959671939773707,0.863595413006386,3.3026888447458584,3.4287370978331806,70,255053.00000000003,53,79.0,0,0,0,0,0,0,-9.0,24.0,-999.0
1777586025.1708028,recenter,right,-,1,,,4,,2.8134449183885977,0.801005202377355,3.3159350750805654,3.4377206445165798,70,255054.0,53,79.0,0,0,0,0,0,0,-6.0,25.0,-1009.0
1777586025.2220411,recenter,right,-,1,,,4,,2.8079199070447602,0.795843422744424,3.303459459398465,3.4237802194969285,70,255054.0,53,79.0,0,0,0,0,0,0,-6.0,25.0,-1009.0
1777586025.27391,recenter,right,-,1,,,4,,2.744370243730813,0.7782443403006656,3.336570781701854,3.4394564137415484,70,255050.0,53,79.0,0,0,0,0,0,0,22.0,-2.0,-973.0
1777586025.32556,recenter,right,-,1,,,4,,2.811304569027358,0.8031385118080783,3.3151341063125,3.4366917095171448,70,255050.0,53,79.0,0,0,0,0,0,0,22.0,-2.0,-973.0
1777586025.376138,recenter,right,-,1,,,4,,2.811304569027358,0.8031385118080783,3.3151341063125,3.4366917095171448,70,255061.0,53,79.0,0,0,0,0,0,0,-1.0,25.0,-989.0
1777586025.4275389,recenter,right,-,1,,,4,,2.8113274491024107,0.8033355567823484,3.3145556760286814,3.436162267781587,70,255061.0,53,79.0,0,0,0,0,0,0,-1.0,25.0,-989.0
1777586025.479831,recenter,right,-,1,,,4,,2.8113274491024107,0.8033355567823484,3.3145556760286814,3.436162267781587,70,255048.0,53,79.0,0,0,0,0,0,0,6.0,10.0,-1028.0
1777586025.531879,recenter,right,-,1,,,4,,2.8351774654991067,0.7421922187715642,3.322822949632926,3.4432207695807975,70,255054.0,53,78.5,0,0,0,0,0,0,14.0,4.0,-1026.0
1777586025.583801,recenter,right,-,1,,,4,,2.9441030195496234,0.7841631224452794,3.2708178854465744,3.425954094252698,70,255054.0,53,78.5,0,0,0,0,0,0,14.0,4.0,-1026.0
1777586025.635531,recenter,right,-,1,,,4,,2.8332719464083262,0.7402144863289813,3.324325869908609,3.4440137227837586,70,255054.0,53,78.5,0,0,0,0,0,0,14.0,4.0,-1026.0
1777586025.686309,recenter,right,-,1,,,4,,2.8738440542531487,0.827601226480492,3.3068508536969112,3.4469854668444992,70,255054.0,53,78.5,0,0,0,0,0,0,19.0,-5.0,-1000.0
1777586025.7368371,recenter,right,-,1,,,4,,2.8152821508448063,0.8085223074594932,3.3405786718214125,3.4628083001815555,70,255055.00000000003,53,78.5,0,0,0,0,0,0,7.0,39.0,-1001.0
1777586025.7889721,recenter,right,-,1,,,4,,2.8097173700751195,0.8049969747041168,3.3284378057335866,3.4493713913635724,70,255055.00000000003,53,78.5,0,0,0,0,0,0,7.0,39.0,-1001.0
1777586025.840271,recenter,right,-,1,,,4,,2.8097173700751195,0.8049969747041168,3.3284378057335866,3.4493713913635724,70,255055.00000000003,53,78.5,0,0,0,0,0,0,3.0,22.0,-976.0
1777586025.891267,recenter,right,-,1,,,4,,2.7447902821934074,0.7857652649138377,3.3620357086618804,3.4650846324990923,70,255055.00000000003,53,78.5,0,0,0,0,0,0,3.0,22.0,-976.0
1777586025.942146,recenter,right,-,1,,,4,,2.7915977693313208,0.8711758955617355,3.329578290136611,3.454667182684573,70,255051.00000000003,53,78.5,0,0,0,0,0,0,14.0,24.0,-984.0
1777586025.993052,recenter,right,-,1,,,4,,2.835468693804848,0.742326644720898,3.352195668265118,3.471658287958258,70,255051.00000000003,53,78.5,0,0,0,0,0,0,14.0,24.0,-984.0
1777586026.043752,recenter,right,-,1,,,4,,2.835468693804848,0.742326644720898,3.352195668265118,3.471658287958258,70,255051.00000000003,53,78.5,0,0,0,0,0,0,8.0,0.0,-989.0
1777586026.094528,recenter,right,-,1,,,4,,2.811106525856001,0.805014020636089,3.343741051733934,3.464467401239151,70,255051.00000000003,53,78.5,0,0,0,0,0,0,8.0,0.0,-989.0
1777586026.1446888,recenter,right,-,1,,,4,,2.892236540260119,0.7599863588846896,3.3195402053631167,3.4561573166423734,70,255048.0,53,78.5,0,0,0,0,0,0,8.0,23.0,-1003.0
1777586026.19611,recenter,right,-,1,,,4,,2.8136424328652057,0.8063816549056673,3.3570953297793347,3.4781099912494,70,255048.0,53,78.5,0,0,0,0,0,0,8.0,23.0,-1003.0
1777586026.248047,recenter,right,-,1,,,4,,2.7451979890723477,0.7863938010152451,3.378336534466787,3.481059889242577,70,255051.00000000003,53,78.5,0,0,0,0,0,0,17.0,-3.0,-993.0
1777586026.298832,recenter,right,-,1,,,4,,2.8089196567880363,0.8030309675913895,3.345936595839815,3.4658442947362555,70,255051.00000000003,53,78.5,0,0,0,0,0,0,17.0,-3.0,-993.0
1777586026.350326,recenter,right,-,1,,,4,,2.8089196567880363,0.8030309675913895,3.345936595839815,3.4658442947362555,70,255046.0,53,78.5,0,0,0,0,0,0,3.0,29.0,-988.0
1777586026.4003031,recenter,right,-,1,,,4,,2.8710574419837025,0.8214949575757751,3.3249909833106894,3.46294153944221,70,255046.0,53,78.5,0,0,0,0,0,0,3.0,29.0,-988.0
1777586026.450326,recenter,right,-,1,,,4,,2.89650277907718,0.7615920835997154,3.33306077033386,3.4704121032744273,70,255058.0,53,78.5,0,0,0,0,0,0,8.0,0.0,-1015.0
1777586026.502115,recenter,right,-,1,,,4,,2.8146665984309642,0.8086267016805464,3.358026112617821,3.479511003136584,70,255058.0,53,78.5,0,0,0,0,0,0,8.0,0.0,-1015.0
1777586026.553486,recenter,right,-,1,,,4,,2.8146665984309642,0.8086267016805464,3.358026112617821,3.479511003136584,70,255042.99999999997,53,79.0,0,0,0,0,0,0,10.0,20.0,-988.0
1777586026.604678,recenter,right,-,1,,,4,,2.813616040296545,0.8023782320347065,3.3595489548703648,3.480006965914546,70,255042.99999999997,53,79.0,0,0,0,0,0,0,10.0,20.0,-988.0
1777586026.6560059,recenter,right,-,1,,,4,,2.813616040296545,0.8023782320347065,3.3595489548703648,3.480006965914546,70,255042.99999999997,53,79.0,0,0,0,0,0,0,6.0,12.0,-1023.0
1777586026.707377,recenter,right,-,1,,,4,,2.871155648477216,0.8178033741889394,3.327387799001196,3.4648205420049463,70,255042.99999999997,53,79.0,0,0,0,0,0,0,6.0,12.0,-1023.0
1777586026.7583182,recenter,right,-,1,,,4,,2.8113809032315,0.7985993742014479,3.3612411680099523,3.4806842173296135,70,255050.0,53,79.0,0,0,0,0,0,0,-4.0,19.0,-997.0
1777586026.809293,recenter,right,-,1,,,4,,2.896865181559973,0.7578060194789114,3.3352605668167508,3.4722262815134526,70,255050.0,53,79.0,0,0,0,0,0,0,-4.0,19.0,-997.0
1777586026.859627,recenter,right,-,1,,,4,,2.814691481464144,0.8046120072247993,3.3604735777681918,3.48141002371724,70,255042.99999999997,53,79.0,0,0,0,0,0,0,16.0,5.0,-968.0
1777586026.910644,recenter,right,-,1,,,4,,2.8963611412360626,0.758525559295272,3.336178121828037,3.4730517319426806,70,255042.99999999997,53,79.0,0,0,0,0,0,0,16.0,5.0,-968.0
1777586026.961548,recenter,right,-,1,,,4,,2.8951405403170636,0.755842804664494,3.3373707590852897,3.47360681024035,70,255044.0,53,79.0,0,0,0,0,0,0,22.0,-12.0,-990.0
1777586026.993451,pre_hover,right,x,1,,,4,1,2.811403225241267,0.7965504081086419,3.363647814508027,3.4827796427778326,70,255044.0,53,79.0,0,0,0,0,0,0,22.0,-12.0,-990.0
1777586027.044338,pre_hover,right,x,1,,,4,1,2.8692953415780007,0.8124103331833616,3.3314104284972608,3.4675715013400845,70,255044.0,53,79.0,0,0,0,0,0,0,22.0,-12.0,-990.0
1777586027.094364,pre_hover,right,x,1,,,4,1,2.809141963665914,0.7927395741677464,3.3653503317414653,3.4834663692699817,70,255042.99999999997,53,79.0,0,0,0,0,0,0,6.0,1.0,-997.0
1777586027.145738,pre_hover,right,x,1,,,4,1,2.894882317529195,0.7528152024361745,3.3399717124043,3.4757307100748482,70,255042.99999999997,53,79.0,0,0,0,0,0,0,6.0,1.0,-997.0
1777586027.1967611,pre_hover,right,x,1,,,4,1,2.8323968590608812,0.725846039434143,3.3619958842915834,3.478803889037564,70,255050.0,53,79.0,0,0,0,0,0,0,6.0,0.0,-997.0
1777586027.247884,pre_hover,right,x,1,,,4,1,2.893554061060212,0.7502631240829165,3.34061484849936,3.4757489383072424,70,255050.0,53,79.0,0,0,0,0,0,0,6.0,0.0,-997.0
1777586027.299,pre_hover,right,x,1,,,4,1,2.8693316219617238,0.8106403668768485,3.3337338783659884,3.46960293861077,70,255052.0,53,79.0,0,0,0,0,0,0,15.0,19.0,-969.0
1777586027.3508549,pre_hover,right,x,1,,,4,1,2.867388756129481,0.806945288221546,3.3354765874405796,3.4703561470301314,70,255052.0,53,79.0,0,0,0,0,0,0,15.0,19.0,-969.0
1777586027.4015732,pre_hover,right,x,1,,,4,1,2.8068918941793957,0.7888303612892058,3.369454370764789,3.486471903718521,70,255044.99999999997,53,79.0,0,0,0,0,0,0,23.0,3.0,-975.0
1777586027.4526458,pre_hover,right,x,1,,,4,1,2.86537817220792,0.8052603668792491,3.3371217796239394,3.471238556760033,70,255044.99999999997,53,79.0,0,0,0,0,0,0,23.0,3.0,-975.0
1777586027.50401,pre_hover,right,x,1,,,4,1,2.86537817220792,0.8052603668792491,3.3371217796239394,3.471238556760033,70,255046.99999999997,53,79.0,0,0,0,0,0,0,-5.0,12.0,-985.0
1777586027.5556202,pre_hover,right,x,1,,,4,1,2.885810403521148,0.7411174948003426,3.3324608009623957,3.4650131610422625,70,255046.99999999997,53,79.0,0,0,0,0,0,0,-5.0,12.0,-985.0
1777586027.607497,pre_hover,right,x,1,,,4,1,2.863350075031087,0.8035752931482874,3.3387760819703356,3.472127891485724,70,255046.0,53,78.5,0,0,0,0,0,0,22.0,1.0,-994.0
1777586027.6587148,pre_hover,right,x,1,,,4,1,2.863350075031087,0.8035752931482874,3.3387760819703356,3.472127891485724,70,255046.0,53,78.5,0,0,0,0,0,0,22.0,1.0,-994.0
1777586027.7106361,pre_hover,right,x,1,,,4,1,2.8001184657471567,0.7838687822820639,3.359281472954047,3.4745239696644212,70,255042.99999999997,53,78.5,0,0,0,0,0,0,11.0,26.0,-970.0
1777586027.761376,pre_hover,right,x,1,,,4,1,2.883901187101038,0.739245772635591,3.334065210262359,3.4658851436669864,70,255042.99999999997,53,78.5,0,0,0,0,0,0,11.0,26.0,-970.0
1777586027.8129978,pre_hover,right,x,1,,,4,1,2.7978493529245734,0.7820462542849784,3.36095738470849,3.4754219128333,70,255044.0,53,78.5,0,0,0,0,0,0,-1.0,27.0,-996.0
1777586027.864665,pre_hover,right,x,1,,,4,1,2.7978493529245734,0.7820462542849784,3.36095738470849,3.4754219128333,70,255044.0,53,78.5,0,0,0,0,0,0,-1.0,27.0,-996.0
1777586027.916364,pre_hover,right,x,1,,,4,1,2.939240549542884,0.7608156336272789,3.3143021233824506,3.4636626995758255,70,255052.0,53,78.5,0,0,0,0,0,0,9.0,18.0,-1017.0
1777586027.9674811,pre_hover,right,x,1,,,4,1,2.7942198267737046,0.7781999358740157,3.361619204295704,3.474809922776388,70,255052.0,53,78.5,0,0,0,0,0,0,9.0,18.0,-1017.0
1777586028.01891,pre_hover,right,x,1,,,4,1,2.8811411499622626,0.7420184235742222,3.3358204500263975,3.467143550970356,70,255039.0,53,78.5,0,0,0,0,0,0,37.0,0.0,-996.0
1777586028.070564,pre_hover,right,x,1,,,4,1,2.960386023064312,0.7042031253597085,3.3064416654606865,3.4565065227582514,70,255039.0,53,78.5,0,0,0,0,0,0,37.0,0.0,-996.0
1777586028.122071,pre_hover,right,x,1,,,4,1,2.7932422238569963,0.7822818191860845,3.3624358958313554,3.4758233224036323,70,255044.99999999997,53,78.5,0,0,0,0,0,0,-1.0,34.0,-983.0
1777586028.173516,pre_hover,right,x,1,,,4,1,2.7932422238569963,0.7822818191860845,3.3624358958313554,3.4758233224036323,70,255044.99999999997,53,78.5,0,0,0,0,0,0,-1.0,34.0,-983.0
1777586028.224612,pre_hover,right,x,1,,,4,1,2.878051808887868,0.7355768830327296,3.3364770712367107,3.4663620801072583,70,255039.0,53,78.5,0,0,0,0,0,0,19.0,-4.0,-1008.0
1777586028.276132,pre_hover,right,x,1,,,4,1,2.878051808887868,0.7355768830327296,3.3364770712367107,3.4663620801072583,70,255039.0,53,78.5,0,0,0,0,0,0,19.0,-4.0,-1008.0
1777586028.326832,pre_hover,right,x,1,,,4,1,2.878051808887868,0.7355768830327296,3.3364770712367107,3.4663620801072583,70,255052.0,53,78.5,0,0,0,0,0,0,21.0,4.0,-1003.0
1777586028.378697,pre_hover,right,x,1,,,4,1,2.93201531119312,0.7595762807116748,3.3028091077956967,3.450579030320427,70,255052.0,53,78.5,0,0,0,0,0,0,21.0,4.0,-1003.0
1777586028.4295151,pre_hover,right,x,1,,,4,1,2.93201531119312,0.7595762807116748,3.3028091077956967,3.450579030320427,70,255048.0,53,78.5,0,0,0,0,0,0,-4.0,41.0,-998.0
1777586028.4808562,pre_hover,right,x,1,,,4,1,2.7932422238569963,0.7822818191860845,3.3624358958313554,3.4758233224036323,70,255048.0,53,78.5,0,0,0,0,0,0,-4.0,41.0,-998.0
1777586028.532332,pre_hover,right,x,1,,,4,1,2.853988087265525,0.80218413926884,3.3287445517654155,3.4599982696496805,70,255048.99999999997,53,78.5,0,0,0,0,0,0,13.0,17.0,-1000.0
1777586028.5831208,pre_hover,right,x,1,,,4,1,2.878051808887868,0.7355768830327296,3.3364770712367107,3.4663620801072583,70,255048.99999999997,53,78.5,0,0,0,0,0,0,13.0,17.0,-1000.0
1777586028.6336262,pre_hover,right,x,1,,,4,1,2.8751516982662264,0.7366220635133576,3.323824539815637,3.4535509957293065,70,255040.0,53,79.0,0,0,0,0,0,0,8.0,9.0,-983.0
1777586028.684577,pre_hover,right,x,1,,,4,1,2.7942198267737046,0.7781999358740157,3.361619204295704,3.474809922776388,70,255040.0,53,79.0,0,0,0,0,0,0,8.0,9.0,-983.0
1777586028.7352839,pre_hover,right,x,1,,,4,1,2.7942198267737046,0.7781999358740157,3.361619204295704,3.474809922776388,70,255037.0,53,79.0,0,0,0,0,0,0,23.0,5.0,-1012.0
1777586028.786201,pre_hover,right,x,1,,,4,1,2.724107528482056,0.7569848889165401,3.38281035069079,3.477811925975856,70,255037.0,53,79.0,0,0,0,0,0,0,23.0,5.0,-1012.0
1777586028.837425,pre_hover,right,x,1,,,4,1,2.877302549511326,0.7347445485915333,3.323906603153886,3.4539931648283306,70,255042.99999999997,53,79.0,0,0,0,0,0,0,13.0,3.0,-974.0
1777586028.888055,pre_hover,right,x,1,,,4,1,2.9340981029191653,0.7576399082416023,3.3034597190948585,3.451563658043485,70,255042.99999999997,53,79.0,0,0,0,0,0,0,13.0,3.0,-974.0
1777586028.937942,pre_hover,right,x,1,,,4,1,2.880262562674499,0.7334704556640448,3.3371332650302143,3.467351028179621,70,255041.0,53,79.0,0,0,0,0,0,0,14.0,12.0,-965.0
1777586028.9888651,pre_hover,right,x,1,,,4,1,2.7741733853804833,0.8448448009023369,3.35182975705233,3.4687164842031697,70,255041.0,53,79.0,0,0,0,0,0,0,14.0,12.0,-965.0
1777586029.039735,pre_hover,right,x,1,,,4,1,2.7741733853804833,0.8448448009023369,3.35182975705233,3.4687164842031697,70,255054.0,53,79.0,0,0,0,0,0,0,-6.0,11.0,-1017.0
1777586029.089927,pre_hover,right,x,1,,,4,1,2.882260864796285,0.7333838460848441,3.337955057984004,3.4686413754527012,70,255054.0,53,79.0,0,0,0,0,0,0,-6.0,11.0,-1017.0
1777586029.140592,pre_hover,right,x,1,,,4,1,2.877610372390897,0.7307668726868768,3.326163403493847,3.4558601934304165,70,255042.99999999997,53,79.0,0,0,0,0,0,0,-5.0,3.0,-998.0
1777586029.192136,pre_hover,right,x,1,,,4,1,2.877610372390897,0.7307668726868768,3.326163403493847,3.4558601934304165,70,255042.99999999997,53,79.0,0,0,0,0,0,0,21.0,-10.0,-1009.0
1777586029.2437172,pre_hover,right,x,1,,,4,1,2.791820139563752,0.77015403629135,3.353842003786097,3.465869202719785,70,255042.99999999997,53,79.0,0,0,0,0,0,0,21.0,-10.0,-1009.0
1777586029.295379,pre_hover,right,x,1,,,4,1,2.791820139563752,0.77015403629135,3.353842003786097,3.465869202719785,70,255042.0,53,79.0,0,0,0,0,0,0,-1.0,7.0,-1014.0
1777586029.346703,pre_hover,right,x,1,,,4,1,2.771308382743255,0.8391896084141606,3.356304316277443,3.47168299199273,70,255042.0,53,79.0,0,0,0,0,0,0,-1.0,7.0,-1014.0
1777586029.397894,pre_hover,right,x,1,,,4,1,2.7894754265479844,0.7683002053592735,3.3555471914537778,3.4667871934204646,70,255037.0,53,79.0,0,0,0,0,0,0,2.0,29.0,-985.0
1777586029.4487429,pre_hover,right,x,1,,,4,1,2.8725009378545856,0.7201763245622271,3.331408576376177,3.4586202260612615,70,255037.0,53,79.0,0,0,0,0,0,0,2.0,29.0,-985.0
1777586029.499676,pre_hover,right,x,1,,,4,1,2.78710902367723,0.7664441314122432,3.3572615557338485,3.4677120800621637,70,255046.99999999997,53,79.0,0,0,0,0,0,0,35.0,-1.0,-996.0
1777586029.550758,pre_hover,right,x,1,,,4,1,2.874005205685522,0.7228973307825548,3.3317063506461757,3.4595397082166794,70,255046.99999999997,53,79.0,0,0,0,0,0,0,35.0,-1.0,-996.0
1777586029.601401,pre_hover,right,x,1,,,4,1,2.8720214501803873,0.7209621316809167,3.333359429446332,3.4604512979417352,70,255037.0,53,78.5,0,0,0,0,0,0,4.0,16.0,-1012.0
1777586029.652174,pre_hover,right,x,1,,,4,1,2.8720214501803873,0.7209621316809167,3.333359429446332,3.4604512979417352,70,255037.0,53,78.5,0,0,0,0,0,0,4.0,16.0,-1012.0
1777586029.703296,pre_hover,right,x,1,,,4,1,2.714370703702379,0.7383153418788544,3.381779009766634,3.4729255741747522,70,255040.0,52,78.5,0,0,0,0,0,0,-6.0,19.0,-993.0
1777586029.754379,pre_hover,right,x,1,,,4,1,2.714370703702379,0.7383153418788544,3.381779009766634,3.4729255741747522,70,255040.0,52,78.5,0,0,0,0,0,0,-6.0,19.0,-993.0
1777586029.805395,pre_hover,right,x,1,,,4,1,2.923293780033731,0.7384498432068628,3.3027587424964193,3.4460462869427992,70,255038.0,52,78.5,0,0,0,0,0,0,14.0,9.0,-964.0
1777586029.856229,pre_hover,right,x,1,,,4,1,2.8980126315921453,0.7973138998168192,3.2976983798725574,3.440799271404943,70,255038.0,52,78.5,0,0,0,0,0,0,14.0,9.0,-964.0
1777586029.9073548,pre_hover,right,x,1,,,4,1,2.9165142941482296,0.7334428876778869,3.2936548735362248,3.43501747254507,70,255035.0,52,78.5,0,0,0,0,0,0,9.0,7.0,-1038.0
1777586029.958357,pre_hover,right,x,1,,,4,1,2.9165142941482296,0.7334428876778869,3.2936548735362248,3.43501747254507,70,255035.0,52,78.5,0,0,0,0,0,0,9.0,7.0,-1038.0
1777586030.009546,response,right,x,1,1777586030.0092711,0.00027489662170410156,4,1,2.7753110871437263,0.7527776171777365,3.353926270862029,3.460401820512766,70,255034.0,52,78.5,0,0,0,0,0,0,8.0,-10.0,-1019.0
1777586030.060117,response,right,x,1,1777586030.0092711,0.05084586143493652,4,1,2.8622000492222046,0.7077329080235351,3.3269627829248485,3.4506187599510962,70,255034.0,52,78.5,0,0,0,0,0,0,8.0,-10.0,-1019.0
1777586030.110441,response,right,x,1,1777586030.0092711,0.10116982460021973,4,1,2.864195658256865,0.7074969180082631,3.3278286502995025,3.451931635488861,70,255037.0,52,78.5,0,0,0,0,0,0,2.0,7.0,-992.0
1777586030.160834,response,right,x,1,1777586030.0092711,0.15156292915344238,4,1,2.9167323785312633,0.7297353772996649,3.295308851343337,3.436303842594872,70,255037.0,52,78.5,0,0,0,0,0,0,2.0,7.0,-992.0
1777586030.2120378,response,right,x,1,1777586030.0092711,0.20276665687561035,4,1,2.8375705059279803,0.7721602009328579,3.321897237081128,3.4460163698517268,70,255040.0,52,78.5,0,0,0,0,0,0,27.0,5.0,-1023.0
1777586030.2618282,response,right,x,1,1777586030.0092711,0.25255703926086426,4,1,2.912775969698871,0.7298572326728092,3.296998415377733,3.4368829360060493,70,255040.0,52,78.5,0,0,0,0,0,0,27.0,5.0,-1023.0
1777586030.311404,response,right,x,1,1777586030.0092711,0.30213284492492676,4,1,2.8287834384467327,0.7692265301112075,3.326343098748977,3.4478643576823753,70,255039.0,52,78.5,1,4,0,0,0,0,14.0,11.0,-993.0
1777586030.3589172,response,right,x,1,1777586030.0092711,0.34964609146118164,4,1,2.907049493294666,0.7244612506873682,3.3020823538031325,3.43973280325402,70,255039.0,52,78.5,1,4,0,0,0,0,14.0,11.0,-993.0
1777586030.406742,response,right,x,1,1777586030.0092711,0.39747095108032227,4,1,2.912636487171013,0.7266861417646364,3.3017285942828303,3.441081356672897,70,255036.0,52,78.5,0,4,0,0,1,0,7.0,1.0,-1017.0
1777586030.4577742,response,right,x,1,1777586030.0092711,0.4485030174255371,4,1,2.8942196908121898,0.7826056918648608,3.308716861418812,3.4487132730803802,70,255036.0,52,78.5,0,4,0,0,1,0,7.0,1.0,-1017.0
1777586030.5064461,response,right,x,1,1777586030.0092711,0.4971749782562256,4,1,2.9752510345635947,0.7373797910184671,3.2839985810149135,3.4423228180856302,70,255044.0,52,78.5,0,2,0,0,1,0,31.0,-20.0,-1001.0
1777586030.557051,response,right,x,1,1777586030.0092711,0.5477797985076904,4,1,2.9051567017694055,0.7698897496032686,3.312324668498115,3.453638920205872,70,255044.0,52,78.5,0,2,0,0,1,0,31.0,-20.0,-1001.0
1777586030.608169,response,right,x,1,1777586030.0092711,0.5988979339599609,4,1,2.94741854911143,0.7070225763514011,3.3310728593851247,3.4767673439737163,70,255039.0,52,78.5,0,0,0,0,2,0,0.0,6.0,-1044.0
1777586030.659172,response,right,x,1,1777586030.0092711,0.6499009132385254,4,1,2.869450465383944,0.7379692679637935,3.3479678367597283,3.4754936302375747,70,255039.0,52,78.5,0,0,0,0,2,0,0.0,6.0,-1044.0
1777586030.7104719,response,right,x,1,1777586030.0092711,0.7012007236480713,4,1,2.9636168047431646,0.6967734882360199,3.3327885886521327,3.4819695039378327,70,255042.99999999997,52,78.5,0,0,0,0,2,0,37.0,0.0,-981.0
1777586030.761346,response,right,x,1,1777586030.0092711,0.7520749568939209,4,1,2.9685066350156273,0.6927256678308107,3.3338910266473567,3.4840382885720493,70,255042.99999999997,52,78.5,0,0,0,0,2,0,37.0,0.0,-981.0
1777586030.8120499,response,right,x,1,1777586030.0092711,0.8027787208557129,4,1,2.8967804170971325,0.7111925813069759,3.367882336897633,3.4990980801252873,70,255042.0,52,78.5,0,0,0,0,2,0,24.0,1.0,-970.0
1777586030.864915,response,right,x,1,1777586030.0092711,0.8556437492370605,4,1,2.9588361765575817,0.7321967580975463,3.3484212121953236,3.498806384160987,70,255042.0,52,78.5,0,0,0,0,2,0,24.0,1.0,-970.0
1777586030.916841,response,right,x,1,1777586030.0092711,0.9075698852539062,4,1,3.0936298605611237,0.7213620503023583,3.299100490364296,3.4904675739515785,70,255042.0,52,78.5,0,0,0,0,2,0,9.0,-3.0,-993.0
1777586030.967764,response,right,x,1,1777586030.0092711,0.9584927558898926,4,1,2.9808061678485753,0.7197143580706216,3.3643256233233165,3.5189323536260457,70,255042.0,52,78.5,0,0,0,0,2,0,9.0,-3.0,-993.0
1777586031.019273,response,right,x,1,1777586030.0092711,1.0100018978118896,4,1,2.9952448026129153,0.7168737269477474,3.3656714919030035,3.524012736549964,70,255039.0,52,78.5,0,0,0,0,2,0,2.0,-5.0,-1037.0
1777586031.070334,response,right,x,1,1777586030.0092711,1.0610628128051758,4,1,2.979378774401477,0.76113604734262,3.365673350564825,3.523827341278322,70,255039.0,52,78.5,0,0,0,0,2,0,2.0,-5.0,-1037.0
1777586031.121273,response,right,x,1,1777586030.0092711,1.112001895904541,4,1,2.879932284408942,0.7138039542234469,3.433885279891925,3.558696652187406,70,255036.0,52,78.5,0,0,0,0,2,0,8.0,0.0,-1001.0
1777586031.1726441,response,right,x,1,1777586030.0092711,1.1633729934692383,4,1,3.078722744016937,0.7200728470065533,3.34973918094335,3.5336725889925535,70,255036.0,52,78.5,0,0,0,0,2,0,8.0,0.0,-1001.0
1777586031.222864,response,right,x,1,1777586030.0092711,1.213592767715454,4,1,3.0843731899157465,0.7160095563083082,3.351550699499553,3.5367526554739683,70,255035.0,52,78.5,0,0,0,0,2,0,-4.0,8.0,-1025.0
1777586031.274231,response,right,x,1,1777586030.0092711,1.2649598121643066,4,1,2.9513513460184244,0.7773060444312685,3.4255598494170405,3.5751768511045063,70,255035.0,52,78.5,0,0,0,0,2,0,-4.0,8.0,-1025.0
1777586031.325004,response,right,x,1,1777586030.0092711,1.3157329559326172,4,1,3.0867832308194414,0.7596872911549323,3.3772187534711935,3.56596119538705,70,255042.0,52,78.5,0,-1,0,0,2,0,25.0,-7.0,-997.0
1777586031.3761768,response,right,x,1,1777586030.0092711,1.366905689239502,4,1,3.124233920948973,0.6973727626429982,3.3808673854396436,3.5752757581623995,70,255042.0,52,78.5,0,-1,0,0,2,0,25.0,-7.0,-997.0
1777586031.438041,response,right,x,1,1777586030.0092711,1.428769826889038,4,1,3.1103747367406074,0.7398563785035059,3.380540185767459,3.574421122586142,70,255046.0,52,78.5,0,-2,0,0,2,0,3.0,-2.0,-970.0
1777586031.489067,response,right,x,1,1777586030.0092711,1.4797959327697754,4,1,3.0446015346339674,0.7691153547218543,3.412135186638568,3.5874928631494303,70,255046.0,52,78.5,0,-2,0,0,2,0,3.0,-2.0,-970.0
1777586031.539629,response,right,x,1,1777586030.0092711,1.530357837677002,4,1,3.175880433173244,0.7619121621743121,3.3589767041186427,3.5772055720996976,70,255042.0,52,78.5,0,-4,0,0,1,0,-18.0,28.0,-1066.0
1777586031.590017,response,right,x,1,1777586030.0092711,1.5807459354400635,4,1,3.184378957902071,0.7599023636229545,3.3715704183044033,3.5916250239756256,70,255042.0,52,78.5,0,-4,0,0,1,0,-18.0,28.0,-1066.0
1777586031.640451,response,right,x,1,1777586030.0092711,1.6311798095703125,4,1,3.2851363196139287,0.7483619677749291,3.3100705005201814,3.5678422245100436,70,255042.0,52,79.0,-2,-3,0,0,1,0,30.0,-3.0,-959.0
1777586031.691259,response,right,x,1,1777586030.0092711,1.6819877624511719,4,1,3.1700742327177105,0.7288932095108553,3.3786359353051556,3.590602350117266,70,255042.0,52,79.0,-2,-3,0,0,1,0,30.0,-3.0,-959.0
1777586031.742048,response,right,x,1,1777586030.0092711,1.7327768802642822,4,1,3.110578564907915,0.7677531711827988,3.4044655313682397,3.5998628721136527,70,255051.00000000003,51,79.0,-4,-2,0,0,0,0,-11.0,10.0,-1012.0
1777586031.7928698,response,right,x,1,1777586030.0092711,1.7835986614227295,4,1,3.147266215846062,0.7270227793874606,3.3966640662708425,3.6000681170438447,70,255051.00000000003,51,79.0,-4,-2,0,0,0,0,-11.0,10.0,-1012.0
1777586031.8440828,response,right,x,1,1777586030.0092711,1.8348116874694824,4,1,3.1077601518025872,0.7086873135357543,3.4129369770885973,3.60146625987781,70,255053.00000000003,51,79.0,-3,-1,0,1,0,0,2.0,1.0,-1021.0
1777586031.893335,response,right,x,1,1777586030.0092711,1.884063959121704,4,1,3.157885848295596,0.7306702327029891,3.39226070258194,3.59964930441297,70,255053.00000000003,51,79.0,-3,-1,0,1,0,0,2.0,1.0,-1021.0
1777586031.944538,response,right,x,1,1777586030.0092711,1.9352669715881348,4,1,3.182854754301491,0.6772558357739291,3.3807003350298204,3.5923739954958864,70,255042.0,51,79.0,-2,-1,0,1,0,0,7.0,18.0,-977.0
1777586031.994089,response,right,x,1,1777586030.0092711,1.9848177433013916,4,1,3.4334587180608693,0.6208035271572865,3.190016150745051,3.5042490117005216,70,255042.0,51,79.0,-2,-1,0,1,0,0,7.0,18.0,-977.0
1777586032.044082,response,right,x,1,1777586030.0092711,2.034810781478882,4,1,3.0877787593682706,0.743942453113563,3.420528469119513,3.6057695501021176,70,255048.99999999997,51,79.0,3,0,0,1,0,0,-29.0,24.0,-1015.0
1777586032.094273,response,right,x,1,1777586030.0092711,2.0850019454956055,4,1,3.1983529375422783,0.735942712351715,3.3546538525553964,3.578073467574862,70,255048.99999999997,51,79.0,3,0,0,1,0,0,-29.0,24.0,-1015.0
1777586032.145792,response,right,x,1,1777586030.0092711,2.1365208625793457,4,1,3.2405823905847835,0.7594004039832494,3.318547196461815,3.5610347953027572,70,255044.0,51,79.0,3,0,0,0,0,0,2.0,23.0,-990.0
1777586032.196332,response,right,x,1,1777586030.0092711,2.187060832977295,4,1,3.2464011690680996,0.7608078850569499,3.3304994565166455,3.5743425736813847,70,255044.0,51,79.0,3,0,0,0,0,0,2.0,23.0,-990.0
1777586032.247895,response,right,x,1,1777586030.0092711,2.238623857498169,4,1,3.1161912277493893,0.8171170408845998,3.3785472723608962,3.582520223847769,70,255034.0,51,79.0,1,0,0,0,0,0,-3.0,24.0,-1011.0
1777586032.299218,response,right,x,1,1777586030.0092711,2.2899467945098877,4,1,3.1421252217505504,0.7683801755469957,3.382075579166238,3.588675131449965,70,255034.0,51,79.0,1,0,0,0,0,0,-3.0,24.0,-1011.0
1777586032.3503811,response,right,x,1,1777586030.0092711,2.3411099910736084,4,1,3.1880503473289155,0.7890572379879925,3.361421780567913,3.5863610455579567,70,255037.0,51,79.0,0,0,0,0,0,0,32.0,-8.0,-967.0
1777586032.401394,response,right,x,1,1777586030.0092711,2.392122745513916,4,1,3.1880503473289155,0.7890572379879925,3.361421780567913,3.5863610455579567,70,255037.0,51,79.0,0,0,0,0,0,0,32.0,-8.0,-967.0
1777586032.452119,response,right,x,1,1777586030.0092711,2.442847967147827,4,1,3.1880503473289155,0.7890572379879925,3.361421780567913,3.5863610455579567,70,255038.0,51,79.0,0,0,0,0,0,0,26.0,2.0,-1001.0
1777586032.503223,response,right,x,1,1777586030.0092711,2.4939517974853516,4,1,3.186438079807981,0.7867744846522023,3.363333356768776,3.5873724490147314,70,255038.0,51,79.0,0,0,0,0,0,0,26.0,2.0,-1001.0
1777586032.554589,response,right,x,1,1777586030.0092711,2.5453178882598877,4,1,3.1689835655421144,0.8410858767040864,3.37122263735795,3.595305466545236,70,255034.0,51,79.0,0,0,0,0,0,0,24.0,-32.0,-1023.0
1777586032.606251,response,right,x,1,1777586030.0092711,2.596979856491089,4,1,3.1492032574625335,0.7726040432383792,3.4102060388765145,3.6178732879400206,70,255034.0,51,79.0,0,0,0,0,0,0,24.0,-32.0,-1023.0
1777586032.6574762,response,right,x,1,1777586030.0092711,2.648205041885376,4,1,3.1492032574625335,0.7726040432383792,3.4102060388765145,3.6178732879400206,70,255040.0,51,78.5,0,0,0,0,0,0,13.0,-20.0,-1041.0
1777586032.708766,response,right,x,1,1777586030.0092711,2.6994948387145996,4,1,3.21289174016435,0.7377051576233488,3.379848938514144,3.6067339788262047,70,255040.0,51,78.5,0,0,0,0,0,0,13.0,-20.0,-1041.0
1777586032.759569,response,right,x,1,1777586030.0092711,2.750297784805298,4,1,3.147453123281996,0.7701653103813908,3.4121510331131484,3.618901172996367,70,255041.0,51,78.5,0,0,0,0,0,0,14.0,6.0,-988.0
1777586032.8112981,response,right,x,1,1777586030.0092711,2.8020269870758057,4,1,3.2515700823406846,0.7619294654772121,3.3455419828385344,3.5902746089855135,70,255041.0,51,78.5,0,0,0,0,0,0,14.0,6.0,-988.0
1777586032.863373,response,right,x,1,1777586030.0092711,2.8541018962860107,4,1,3.1031862605353617,0.7493919130514404,3.4458891669841027,3.6350029966257433,70,255037.0,51,78.5,0,0,0,0,0,0,15.0,1.0,-977.0
1777586032.915072,response,right,x,1,1777586030.0092711,2.9058008193969727,4,1,3.152291534824621,0.7782708821703928,3.4244628107501454,3.632879048872565,70,255037.0,51,78.5,0,0,0,0,0,0,15.0,1.0,-977.0
1777586032.9667819,response,right,x,1,1777586030.0092711,2.9575107097625732,4,1,3.1521575716630585,0.7798886412314414,3.4234119499876923,3.632014844269737,70,255046.0,51,78.5,0,0,0,0,0,0,2.0,34.0,-1012.0
1777586033.0190551,response,right,x,1,1777586030.0092711,3.009783983230591,4,1,3.105844488305834,0.7545627761514723,3.459396355161625,3.649113582317515,70,255046.0,51,78.5,0,0,0,0,0,0,2.0,34.0,-1012.0
1777586033.0703628,response,right,x,1,1777586030.0092711,3.061091661453247,4,1,3.077751337130217,0.8077929196625196,3.455644725245146,3.6427082613252812,70,255042.0,51,78.5,0,0,0,0,0,0,17.0,-18.0,-1041.0
1777586033.12099,response,right,x,1,1777586030.0092711,3.1117188930511475,4,1,3.077751337130217,0.8077929196625196,3.455644725245146,3.6427082613252812,70,255042.0,51,78.5,0,0,0,0,0,0,17.0,-18.0,-1041.0
