timestamp,phase,command,axis,repeat,t_send,t_since_cmd,marker_id,n_markers,pos_x,pos_y,pos_z,marker_dist,tello_height_cm,tello_baro_cm,tello_battery,tello_temp_c,tello_pitch,tello_roll,tello_yaw,tello_vgx,tello_vgy,tello_vgz,tello_agx,tello_agy,tello_agz
1777583678.6135821,init_hover,none,-,0,,,4,2,1.6186356821497774,0.7695364036370247,2.426968718898478,2.5190112418220325,60,254689.0,71,69.5,0,0,-1,0,0,0,7.0,-20.0,-1002.0
1777583678.8015401,init_hover,none,-,0,,,4,2,1.6829377592652,0.7621006600965587,2.42358320492794,2.5176711593065155,60,254686.0,71,69.5,0,0,-1,0,0,0,11.0,-22.0,-993.0
1777583678.850456,init_hover,none,-,0,,,4,2,1.7368323462355404,0.7727278299543247,2.4201306589809763,2.5182880888684798,60,254686.0,71,69.5,0,0,-1,0,0,0,11.0,-22.0,-993.0
1777583678.901228,init_hover,none,-,0,,,4,2,1.743034593579012,0.7754339619934283,2.4188950907598548,2.5189513952294935,60,254685.0,71,69.5,0,0,-1,0,0,0,-6.0,-5.0,-1003.0
1777583678.951457,init_hover,none,-,0,,,4,2,1.7732154361383148,0.7898163981256203,2.4215093091601303,2.5226057018551526,60,254685.0,71,69.5,0,0,-1,0,0,0,-6.0,-5.0,-1003.0
1777583679.000458,init_hover,none,-,0,,,4,2,1.7638061817291555,0.7572372760467923,2.420135422941953,2.524084727485943,60,254691.0,71,69.5,0,0,-1,0,0,0,15.0,-21.0,-985.0
1777583679.050955,init_hover,none,-,0,,,4,2,1.8098705582924473,0.7457757921824495,2.4272100578547358,2.528091353565782,60,254691.0,71,69.5,0,0,-1,0,0,0,15.0,-21.0,-985.0
1777583679.100957,init_hover,none,-,0,,,4,2,1.8098705582924473,0.7457757921824495,2.4272100578547358,2.528091353565782,60,254694.0,71,69.5,0,0,-1,0,0,0,-1.0,3.0,-1003.0
1777583679.159482,init_hover,none,-,0,,,4,2,1.7809229870163268,0.7394460279685675,2.428294631846847,2.5315918788847735,60,254694.0,71,69.5,0,0,-1,0,0,0,-1.0,3.0,-1003.0
1777583679.209149,init_hover,none,-,0,,,4,2,1.8669088504216855,0.7832558130584323,2.4194532406684823,2.5327719434261895,60,254692.99999999997,71,69.5,0,0,-1,0,0,0,-1.0,-8.0,-987.0
1777583679.2580962,init_hover,none,-,0,,,4,2,1.889756600419352,0.7512426327533775,2.421829836122631,2.5342909925977732,60,254692.99999999997,71,69.5,0,0,-1,0,0,0,-1.0,-8.0,-987.0
1777583679.305351,init_hover,none,-,0,,,4,2,1.8886953805887214,0.753801526395895,2.423415859672641,2.536857150801832,60,254684.0,71,69.5,0,0,-1,0,0,0,8.0,-17.0,-994.0
1777583679.352772,init_hover,none,-,0,,,4,2,1.9009021869341878,0.7298796868906479,2.4340908230017884,2.544525203494122,60,254684.0,71,69.5,0,0,-1,0,0,0,8.0,-17.0,-994.0
1777583679.399824,init_hover,none,-,0,,,4,2,1.8975502127132173,0.7216312765586141,2.434868565079526,2.5478654774035694,60,254692.0,71,69.5,0,0,-1,0,0,0,-1.0,2.0,-1003.0
1777583679.4489028,init_hover,none,-,0,,,4,2,1.9814555351965688,0.7860474394081557,2.4269382105130504,2.5526174210011474,60,254692.0,71,69.5,0,0,-1,0,0,0,-1.0,2.0,-1003.0
1777583679.497644,init_hover,none,-,0,,,4,2,1.9298169326713288,0.6887508791381031,2.440249716477999,2.5560166515456135,60,254685.0,71,69.5,0,0,-1,0,0,0,-10.0,-6.0,-1001.0
1777583679.547169,init_hover,none,-,0,,,4,2,1.997396284495752,0.7864215433955553,2.414876178159618,2.5493833566047286,60,254685.0,71,69.5,0,0,-1,0,0,0,-10.0,-6.0,-1001.0
1777583679.596585,init_hover,none,-,0,,,4,1,2.0730428945554022,0.6955081128975455,2.440015714710016,2.4589300513160457,60,254686.0,71,69.5,0,0,-1,0,0,0,20.0,-14.0,-994.0
1777583679.648363,init_hover,none,-,0,,,4,1,2.132785744048071,0.6580733405484385,2.4524811825213337,2.469594673938513,60,254686.0,71,69.5,0,0,-1,0,0,0,20.0,-14.0,-994.0
1777583679.699605,init_hover,none,-,0,,,4,1,2.095228009348361,0.7554909170098595,2.4371341558070343,2.4647647066692246,60,254692.0,71,69.5,0,0,-1,0,0,0,-1.0,-13.0,-988.0
1777583679.750756,init_hover,none,-,0,,,4,1,2.1191315186410016,0.6487426382976921,2.4554877697252104,2.4709280455147002,60,254692.0,71,69.5,0,0,-1,0,0,0,-1.0,-13.0,-988.0
1777583679.802402,init_hover,none,-,0,,,4,1,2.041994041278641,0.6893939734518009,2.4565952274693914,2.4739386578891813,60,254692.0,71,69.5,0,0,-1,0,0,0,-1.0,-13.0,-988.0
1777583679.854283,init_hover,none,-,0,,,4,1,2.207440581126717,0.6914937936451204,2.448351816009179,2.474353822998493,60,254689.0,71,69.5,0,0,-1,0,0,0,5.0,-4.0,-1007.0
1777583679.904613,init_hover,none,-,0,,,4,1,2.1602530056963754,0.7631370554657504,2.439925856115115,2.4720007544954625,60,254696.99999999997,71,70.5,0,0,-1,0,0,0,2.0,-9.0,-998.0
1777583679.9558358,init_hover,none,-,0,,,4,1,2.220431708691032,0.7380839345281694,2.4438436175613583,2.476946206940692,60,254696.99999999997,71,70.5,0,0,-1,0,0,0,2.0,-9.0,-998.0
1777583680.0062668,init_hover,none,-,0,,,4,1,2.275806732072546,0.719937315632123,2.4434955760345973,2.479737863059536,60,254689.0,71,70.5,0,0,-1,0,0,0,-6.0,6.0,-981.0
1777583680.057697,init_hover,none,-,0,,,4,1,2.3383575603885927,0.7035863022186548,2.4500153480268736,2.491831793507371,60,254689.0,71,70.5,0,0,-1,0,0,0,-6.0,6.0,-981.0
1777583680.1077492,init_hover,none,-,0,,,4,1,2.3383575603885927,0.7035863022186548,2.4500153480268736,2.491831793507371,60,254689.0,71,70.5,0,0,-1,0,0,0,-6.0,6.0,-981.0
1777583680.158921,init_hover,none,-,0,,,4,1,2.3418748311099513,0.7425790190180099,2.4415979319894667,2.4891041050773746,60,254686.0,71,70.5,0,0,-1,0,0,0,13.0,-12.0,-998.0
1777583680.2094889,init_hover,none,-,0,,,4,1,2.3928035283551563,0.7374535075926659,2.43664698370695,2.491067643578358,60,254686.0,71,70.5,0,0,-1,0,0,0,13.0,-12.0,-998.0
1777583680.260587,init_hover,none,-,0,,,4,1,2.3509668521976685,0.7707807067788622,2.4429393240991484,2.495718054005896,60,254692.99999999997,71,70.5,0,0,-1,0,0,0,0.0,-11.0,-995.0
1777583680.311124,init_hover,none,-,0,,,4,1,2.3560782465242793,0.7673789718072538,2.452729053288241,2.5055216693172286,60,254692.99999999997,71,70.5,0,0,-1,0,0,0,0.0,-11.0,-995.0
1777583680.362626,init_hover,none,-,0,,,4,1,2.3651930696083086,0.800252597795734,2.4516754915028245,2.510832697685728,60,254696.0,71,70.5,0,0,-1,0,0,0,-10.0,2.0,-999.0
1777583680.41393,init_hover,none,-,0,,,4,1,2.463283777166485,0.7433222725616313,2.4490097074945973,2.515979051666627,60,254696.0,71,70.5,0,0,-1,0,0,0,-10.0,2.0,-999.0
1777583680.464919,init_hover,none,-,0,,,4,1,2.423500005049573,0.7776274273362139,2.455137945045035,2.519852586433086,60,254686.0,71,70.5,0,0,-1,0,0,0,13.0,-31.0,-1001.0
1777583680.515808,init_hover,none,-,0,,,4,1,2.5121628533364753,0.7681315581546758,2.437759104973354,2.5180351638385905,60,254686.0,71,70.5,0,0,-1,0,0,0,13.0,-31.0,-1001.0
1777583680.566432,init_hover,none,-,0,,,4,1,2.5176538971961655,0.7620236003672755,2.440604494401069,2.5210269618938947,60,254691.0,71,70.5,0,0,-1,0,0,0,3.0,5.0,-987.0
1777583680.617538,init_hover,none,-,0,,,4,1,2.4876827598519924,0.7838305727267206,2.4594362887473435,2.536530551998908,60,254691.0,71,70.5,0,0,-1,0,0,0,3.0,5.0,-987.0
1777583680.6683168,init_hover,none,-,0,,,4,1,2.5406603021154903,0.7446295621500005,2.4552011624088914,2.5375373584018988,60,254696.0,71,70.5,0,0,-1,0,0,0,6.0,-4.0,-995.0
1777583680.718925,init_hover,none,-,0,,,4,1,2.6244058625469617,0.7465228906404922,2.4397615138635516,2.542124512971508,60,254696.0,71,70.5,0,0,-1,0,0,0,6.0,-4.0,-995.0
1777583680.770005,init_hover,none,-,0,,,4,1,2.6220814004208117,0.7728465176616446,2.434922025971667,2.5406387124193595,60,254692.0,71,70.5,0,0,-1,0,0,0,16.0,-12.0,-1001.0
1777583680.821163,init_hover,none,-,0,,,4,1,2.5900462553061696,0.8247350207985894,2.446141413097982,2.5518938524489228,60,254692.0,71,70.5,0,0,-1,0,0,0,16.0,-12.0,-1001.0
1777583680.871548,init_hover,none,-,0,,,4,1,2.6358666076138935,0.7891069213951833,2.4423448265187195,2.5535815613719475,60,254705.00000000003,71,70.5,0,0,-1,0,0,0,7.0,20.0,-1000.0
1777583680.922941,init_hover,none,-,0,,,4,1,2.6522181434622794,0.7743043108971388,2.448240383680862,2.561127329927854,60,254705.00000000003,71,70.5,0,0,-1,0,0,0,7.0,20.0,-1000.0
1777583680.972693,init_hover,none,-,0,,,4,1,2.6922249845674653,0.7783411340811724,2.4394934802583346,2.5638732190223794,60,254698.0,71,70.5,0,0,-1,0,0,0,5.0,0.0,-1008.0
1777583681.0222888,init_hover,none,-,0,,,4,1,2.6413014497986453,0.7876810370300333,2.472976326906672,2.584023229273944,60,254698.0,71,70.5,0,0,-1,0,0,0,5.0,0.0,-1008.0
1777583681.0695019,init_hover,none,-,0,,,4,1,2.7483140556784553,0.793482805815121,2.4386850371682547,2.5810825935847945,60,254692.99999999997,71,70.5,0,0,-1,0,0,0,3.0,-7.0,-970.0
1777583681.1172612,init_hover,none,-,0,,,4,1,2.6913086383278992,0.8059043902307242,2.463400141801226,2.5905609944685053,60,254692.99999999997,71,70.5,0,0,-1,0,0,0,3.0,-7.0,-970.0
1777583681.16504,init_hover,none,-,0,,,4,1,2.7406000864764994,0.7772450533134658,2.462391493298541,2.5988794094008085,60,254696.0,71,70.5,0,-1,-1,0,3,0,0.0,-8.0,-1011.0
1777583681.214154,init_hover,none,-,0,,,4,1,2.8123138850754232,0.7828947672759607,2.4355057518988668,2.5957947758299587,60,254696.0,71,70.5,0,-1,-1,0,3,0,0.0,-8.0,-1011.0
1777583681.2628531,init_hover,none,-,0,,,4,1,2.824277877549746,0.7787628159559488,2.4433175546312693,2.6062801006296543,60,254692.0,71,70.5,0,-4,-1,0,2,0,5.0,-10.0,-1023.0
1777583681.313511,init_hover,none,-,0,,,4,1,2.82037425076153,0.7998826050858225,2.4409502140334767,2.6059850261566817,60,254692.0,71,70.5,0,-4,-1,0,2,0,5.0,-10.0,-1023.0
1777583681.364852,init_hover,none,-,0,,,4,1,2.8569506705768255,0.7981457907197564,2.4342206805895756,2.6111903117696933,60,254696.0,71,70.5,0,-4,-1,0,1,0,6.0,7.0,-1012.0
1777583681.415387,init_hover,none,-,0,,,4,1,2.811669272719328,0.8116883561082628,2.4671142174286405,2.6296286568012563,60,254698.99999999997,71,70.5,0,-3,-1,0,1,0,10.0,7.0,-1000.0
1777583681.466475,init_hover,none,-,0,,,4,1,2.8734551831015347,0.793849836754088,2.444375692239566,2.625455041627987,60,254698.99999999997,71,70.5,0,-3,-1,0,1,0,10.0,7.0,-1000.0
1777583681.516937,init_hover,none,-,0,,,4,1,2.8409244917787824,0.837542577395018,2.4526384708702196,2.6294548820429466,60,254696.0,71,70.5,0,-2,-1,0,0,0,12.0,11.0,-1014.0
1777583681.568001,init_hover,none,-,0,,,4,1,2.85415518303515,0.8057660139920493,2.460847232582068,2.6362845515846027,60,254696.0,71,70.5,0,-2,-1,0,0,0,12.0,11.0,-1014.0
1777583681.619026,init_hover,none,-,0,,,4,1,2.9168901973634567,0.7927606441609942,2.4370703101599194,2.6332983602861875,60,254689.0,71,70.5,0,-1,-1,0,0,0,16.0,-3.0,-994.0
1777583681.6695192,init_hover,none,-,0,,,4,1,2.890583425037289,0.813375928584498,2.4500251703199303,2.6394396811606526,60,254689.0,71,70.5,0,-1,-1,0,0,0,16.0,-3.0,-994.0
1777583681.720662,init_hover,none,-,0,,,4,1,2.86827299688383,0.8329585358740865,2.470527738807751,2.6542152134147674,60,254701.00000000003,71,70.5,0,-1,-1,0,0,0,21.0,-9.0,-1002.0
1777583681.771588,init_hover,none,-,0,,,4,1,2.9226683447954587,0.817583089892673,2.439894771956149,2.6417378767907413,60,254701.00000000003,71,70.5,0,-1,-1,0,0,0,21.0,-9.0,-1002.0
1777583681.822748,init_hover,none,-,0,,,4,1,2.9319394946785797,0.8164225761698177,2.4471453703994706,2.6514975858094303,60,254689.0,71,70.5,0,-1,-1,0,0,0,1.0,3.0,-992.0
1777583681.872962,init_hover,none,-,0,,,4,1,2.9032167004795992,0.8357625594132744,2.4605062272596254,2.6570247101965494,60,254689.0,71,70.5,0,-1,-1,0,0,0,1.0,3.0,-992.0
1777583681.924264,init_hover,none,-,0,,,4,1,2.936461016649532,0.8166559474409165,2.449380897466848,2.6551889189128643,60,254694.0,71,70.5,0,-1,-1,0,0,0,6.0,10.0,-988.0
1777583681.974659,init_hover,none,-,0,,,4,1,2.918548964953434,0.8094966429913333,2.4671471377103495,2.6642512458006973,60,254694.0,71,70.5,0,-1,-1,0,0,0,6.0,10.0,-988.0
1777583682.026162,init_hover,none,-,0,,,4,1,2.8826404217759394,0.8527353742678305,2.4833210051360264,2.6741179195794724,60,254698.0,71,70.5,0,-1,-1,0,0,0,18.0,-14.0,-993.0
1777583682.076807,init_hover,none,-,0,,,4,1,2.9173105928324223,0.8349941935317564,2.4701989931960697,2.6706856307165374,60,254698.0,71,70.5,0,-1,-1,0,0,0,18.0,-14.0,-993.0
1777583682.127491,init_hover,none,-,0,,,4,1,2.9161293724189052,0.8319837583940518,2.4717806415328076,2.671254861367826,60,254694.99999999997,71,70.5,0,-1,-1,0,0,0,18.0,-14.0,-993.0
1777583682.1790888,init_hover,none,-,0,,,4,1,2.9350157660421687,0.8653550292333225,2.4619296220067586,2.674305003116606,60,254694.99999999997,71,70.5,0,-1,-1,0,0,0,18.0,-14.0,-993.0
1777583682.229613,init_hover,none,-,0,,,4,1,2.920996939692537,0.8308319404038689,2.4800346208761677,2.6803774444170316,60,254700.0,71,70.5,0,-1,-1,0,0,0,3.0,10.0,-975.0
1777583682.279546,init_hover,none,-,0,,,4,1,2.920996939692537,0.8308319404038689,2.4800346208761677,2.6803774444170316,60,254700.0,71,70.5,0,-1,-1,0,0,0,3.0,10.0,-975.0
1777583682.330065,init_hover,none,-,0,,,4,1,2.944670976576252,0.8373020061277339,2.4686446732350737,2.6791496451748964,60,254698.99999999997,71,70.5,0,-1,-1,0,0,0,-3.0,24.0,-985.0
1777583682.380397,init_hover,none,-,0,,,4,1,2.9682425631633746,0.8454849157396248,2.4554524415143364,2.6767885915423797,60,254698.99999999997,71,70.5,0,-1,-1,0,0,0,-3.0,24.0,-985.0
1777583682.430997,init_hover,none,-,0,,,4,1,2.9186228544633166,0.8619580293881164,2.485721910991978,2.689997507144587,60,254694.0,71,70.5,0,-1,-1,0,0,0,0.0,11.0,-982.0
1777583682.481477,init_hover,none,-,0,,,4,1,2.9486926036168972,0.8462376735548037,2.4719179380818432,2.6850556809995214,60,254694.0,71,70.5,0,-1,-1,0,0,0,0.0,11.0,-982.0
1777583682.531153,init_hover,none,-,0,,,4,1,2.9486926036168972,0.8462376735548037,2.4719179380818432,2.6850556809995214,60,254698.99999999997,71,70.5,0,-1,-1,0,0,0,0.0,39.0,-982.0
1777583682.5818748,init_hover,none,-,0,,,4,1,2.926784803909907,0.8412599800976192,2.4895499423256364,2.6928608129882345,60,254698.99999999997,71,70.5,0,-1,-1,0,0,0,0.0,39.0,-982.0
1777583682.632756,init_hover,none,-,0,,,4,1,2.947663740229003,0.8488096800316183,2.4701579182420645,2.683500854199394,70,254685.0,71,70.5,0,-1,-1,0,0,0,6.0,14.0,-984.0
1777583682.683249,init_hover,none,-,0,,,4,1,2.915192954740491,0.8712224648815696,2.4817358486684733,2.686752980529085,70,254685.0,71,70.5,0,-1,-1,0,0,0,6.0,14.0,-984.0
1777583682.733239,init_hover,none,-,0,,,4,1,2.945732023825083,0.8498124281814838,2.4695789176741836,2.6824541584257506,70,254692.0,71,70.5,0,-1,-1,0,0,0,6.0,15.0,-999.0
1777583682.783657,init_hover,none,-,0,,,4,1,2.940767191924357,0.8509704499631715,2.461337175880419,2.6733121683619783,70,254692.0,71,70.5,0,-1,-1,0,0,0,6.0,15.0,-999.0
1777583682.8344991,init_hover,none,-,0,,,4,1,2.9218491533391067,0.8460116230056518,2.486578208239891,2.689201259679474,70,254688.0,71,70.5,0,-1,-1,0,0,0,-2.0,29.0,-998.0
1777583682.8848152,init_hover,none,-,0,,,4,1,2.9408848643569385,0.8543589534910675,2.466659673673675,2.6788274174200533,70,254688.0,71,70.5,0,-1,-1,0,0,0,-2.0,29.0,-998.0
1777583682.934525,init_hover,none,-,0,,,4,1,2.968802589527336,0.833969200132838,2.453393851156162,2.6732095153634465,70,254694.0,71,70.5,0,0,-1,0,0,0,19.0,-9.0,-981.0
1777583682.985874,init_hover,none,-,0,,,4,1,2.912085256757048,0.8475375725567189,2.478299236658986,2.678461592195797,70,254694.0,71,70.5,0,0,-1,0,0,0,19.0,-9.0,-981.0
1777583683.035696,init_hover,none,-,0,,,4,1,2.9017113223252355,0.8727418444345036,2.472035904674129,2.673486426800574,70,254694.99999999997,71,70.5,0,0,-1,0,0,0,22.0,-7.0,-1001.0
1777583683.086764,init_hover,none,-,0,,,4,1,2.899815727312265,0.8738088600993494,2.4713829811569528,2.6724327902829237,70,254694.99999999997,71,70.5,0,0,-1,0,0,0,22.0,-7.0,-1001.0
1777583683.137092,init_hover,none,-,0,,,4,1,2.918053852129882,0.8785984442742638,2.4532261722681232,2.662742570841869,70,254700.0,71,70.5,0,0,-1,0,0,0,-1.0,0.0,-1003.0
1777583683.187988,init_hover,none,-,0,,,4,1,2.8912381205865536,0.8728709394902262,2.464827439822107,2.663322477865011,70,254700.0,71,70.5,0,0,-1,0,0,0,-1.0,0.0,-1003.0
1777583683.2383978,init_hover,none,-,0,,,4,1,2.952906655385029,0.8329051011421569,2.447689209516177,2.6620706953148163,70,254705.00000000003,71,70.5,0,0,-1,0,0,0,-6.0,19.0,-981.0
1777583683.289472,init_hover,none,-,0,,,4,1,2.910623634349771,0.8787896676790005,2.45367954304142,2.660642450471785,70,254705.00000000003,71,70.5,0,0,-1,0,0,0,-6.0,19.0,-981.0
1777583683.339262,init_hover,none,-,0,,,4,1,2.9169797434263782,0.8524982752859573,2.4523270665514256,2.656974704496035,70,254702.0,71,70.5,0,0,-1,0,0,0,15.0,0.0,-1003.0
1777583683.389339,init_hover,none,-,0,,,4,1,2.8586139241275186,0.8678193544436249,2.4762268362625695,2.6622870175329783,70,254702.0,71,70.5,0,0,-1,0,0,0,15.0,0.0,-1003.0
1777583683.4393,init_hover,none,-,0,,,4,1,2.931848928557253,0.8567305186304259,2.4356785560097483,2.647541353880512,70,254698.99999999997,71,70.5,0,0,-1,0,0,0,-3.0,30.0,-998.0
1777583683.491694,init_hover,none,-,0,,,4,1,2.875294615981424,0.8718493842416815,2.459378878768642,2.6527960674557374,70,254698.99999999997,71,70.5,0,0,-1,0,0,0,-3.0,30.0,-998.0
1777583683.542243,init_hover,none,-,0,,,4,1,2.912029633363395,0.8275500215752996,2.4451099147219106,2.644458274988168,70,254688.0,71,70.5,0,0,-1,0,0,0,16.0,-5.0,-996.0
1777583683.593055,init_hover,none,-,0,,,4,1,2.815060798947377,0.8882891751928156,2.480782770157142,2.6565077785129407,70,254688.0,71,70.5,0,0,-1,0,0,0,16.0,-5.0,-996.0
1777583683.6628249,recenter,right,-,1,,,4,,2.8771831953541858,0.844710369406976,2.459088770549153,2.64845903353456,60,254696.99999999997,71,70.5,0,0,-1,0,0,0,-8.0,36.0,-1015.0
1777583683.713251,recenter,right,-,1,,,4,,2.865661999488024,0.8679152601184453,2.4534331450279745,2.6434162716324447,60,254696.99999999997,71,70.5,0,0,-1,0,0,0,-8.0,36.0,-1015.0
1777583683.7638242,recenter,right,-,1,,,4,,2.891739095168036,0.847077847006487,2.4341056328538464,2.630579298752632,60,254690.0,71,70.5,0,0,-1,0,0,0,24.0,-11.0,-996.0
1777583683.814564,recenter,right,-,1,,,4,,2.876853771222948,0.8176330007498562,2.450508501878408,2.6359593656203417,60,254690.0,71,70.5,0,0,-1,0,0,0,24.0,-11.0,-996.0
1777583683.8647099,recenter,right,-,1,,,4,,2.8658406674384436,0.8422552259696947,2.444424915920217,2.6306810745241083,60,254698.0,71,70.5,0,0,-1,0,0,0,-10.0,24.0,-1005.0
1777583683.914098,recenter,right,-,1,,,4,,2.8860899596475384,0.8446721896966318,2.4272565873929053,2.6219197764081237,60,254698.0,71,70.5,0,0,-1,0,0,0,-10.0,24.0,-1005.0
1777583683.963706,recenter,right,-,1,,,4,,2.8381804593979805,0.8354723335846534,2.4566041317832013,2.6319358837419595,60,254687.0,71,71.0,0,0,-1,0,0,0,21.0,-1.0,-1003.0
1777583684.014221,recenter,right,-,1,,,4,,2.8828250300947644,0.8493394948873212,2.426464554184555,2.62088081532554,60,254687.0,71,71.0,0,0,-1,0,0,0,21.0,-1.0,-1003.0
1777583684.065879,recenter,right,-,1,,,4,,2.8588779446244246,0.8436892313912061,2.437218361972858,2.6219391300624153,60,254700.0,71,71.0,0,0,-1,0,0,0,-5.0,24.0,-995.0
1777583684.1172101,recenter,right,-,1,,,4,,3.176851446052941,0.8932873996556299,2.193072665270846,2.5372976766422344,60,254700.0,71,71.0,0,0,-1,0,0,0,-5.0,24.0,-995.0
1777583684.167299,recenter,right,-,1,,,4,,2.8242695243592166,0.862796209540484,2.4487931511384065,2.62491685152402,60,254698.99999999997,71,71.0,0,0,-1,0,0,0,-2.0,33.0,-997.0
1777583684.21985,recenter,right,-,1,,,4,,2.846884475907868,0.8686255229125585,2.430414525765665,2.616053891515149,60,254698.99999999997,71,71.0,0,0,-1,0,0,0,-2.0,33.0,-997.0
1777583684.2709062,recenter,right,-,1,,,4,,2.8755473859890843,0.8498609004250777,2.418996417088806,2.611609029072319,60,254694.99999999997,71,71.0,0,0,-1,0,0,0,-15.0,22.0,-1007.0
1777583684.32203,recenter,right,-,1,,,4,,2.874454894338994,0.8455824366408535,2.420385764314873,2.6117967605030667,60,254694.99999999997,71,71.0,0,0,-1,0,0,0,-15.0,22.0,-1007.0
1777583684.3731468,recenter,right,-,1,,,4,,2.8512214269134986,0.8416144582604165,2.429374061656766,2.6117924073003933,60,254702.0,71,71.0,0,0,-1,0,0,0,1.0,28.0,-984.0
1777583684.42498,recenter,right,-,1,,,4,,2.872356772489142,0.8456391049794296,2.4194322323539397,2.6102208483857656,60,254702.0,71,71.0,0,0,-1,0,0,0,1.0,28.0,-984.0
1777583684.476228,recenter,right,-,1,,,4,,2.8494241650568464,0.8426854954101282,2.4287554623728296,2.610813083320001,60,254692.0,71,71.0,0,0,-1,0,0,0,3.0,18.0,-993.0
1777583684.526734,recenter,right,-,1,,,4,,2.8786133603809665,0.8239818955262217,2.417284740814477,2.6067197016458166,60,254692.0,71,71.0,0,0,-1,0,0,0,3.0,18.0,-993.0
1777583684.578068,recenter,right,-,1,,,4,,2.8441224604540087,0.841674288805189,2.422624954379927,2.6032154300439374,70,254701.00000000003,71,71.0,0,0,-1,0,0,0,4.0,7.0,-993.0
1777583684.628361,recenter,right,-,1,,,4,,2.822839244739806,0.8376509628299972,2.4395600087907936,2.6115236595599387,70,254701.00000000003,71,71.0,0,0,-1,0,0,0,4.0,7.0,-993.0
1777583684.62895,pre_hover,right,x,1,,,4,1,2.8768263375056984,0.8249845930049362,2.4167291685340624,2.605765953511284,70,254701.00000000003,71,71.0,0,0,-1,0,0,0,4.0,7.0,-993.0
1777583684.678978,pre_hover,right,x,1,,,4,1,2.842334778727627,0.8427414553138546,2.4220073605098675,2.6022427884560515,70,254696.99999999997,71,71.0,0,0,-1,0,0,0,3.0,9.0,-982.0
1777583684.728501,pre_hover,right,x,1,,,4,1,2.8210154214725307,0.8387703432051887,2.4389238305010683,2.610543082838918,70,254696.99999999997,71,71.0,0,0,-1,0,0,0,3.0,9.0,-982.0
1777583684.777259,pre_hover,right,x,1,,,4,1,2.8405549904062046,0.8438082059361047,2.421387804976155,2.601272249811665,70,254698.99999999997,71,71.0,0,0,-1,0,0,0,2.0,7.0,-989.0
1777583684.829052,pre_hover,right,x,1,,,4,1,2.8405549904062046,0.8438082059361047,2.421387804976155,2.601272249811665,70,254698.99999999997,71,71.0,0,0,-1,0,0,0,2.0,7.0,-989.0
1777583684.881588,pre_hover,right,x,1,,,4,1,2.841795768724314,0.8465785797728995,2.419853890785361,2.6007201688961437,70,254700.0,71,71.0,0,0,-1,0,0,0,-6.0,22.0,-1002.0
1777583684.9321191,pre_hover,right,x,1,,,4,1,2.8174922877664654,0.8405894588024998,2.4383004072379673,2.6091610888755734,70,254700.0,71,71.0,0,0,-1,0,0,0,-6.0,22.0,-1002.0
1777583684.993828,pre_hover,right,x,1,,,4,1,2.8173909743060284,0.8410080330130147,2.4376455457852306,2.6085881041179233,70,254698.0,71,70.5,0,0,-1,0,0,0,31.0,-9.0,-995.0
1777583685.044501,pre_hover,right,x,1,,,4,1,2.806469732687018,0.8646036348493804,2.4320199010058046,2.6040297168319357,70,254698.0,71,70.5,0,0,-1,0,0,0,31.0,-9.0,-995.0
1777583685.0956311,pre_hover,right,x,1,,,4,1,2.846336062424155,0.8176277383434924,2.4271812800470665,2.604209404906687,70,254696.0,71,70.5,0,0,-1,0,0,0,-1.0,12.0,-1016.0
1777583685.145844,pre_hover,right,x,1,,,4,1,2.8145265075716894,0.8406872895593953,2.4381662827449775,2.6081245255989214,70,254696.0,71,70.5,0,0,-1,0,0,0,-1.0,12.0,-1016.0
1777583685.1961222,pre_hover,right,x,1,,,4,1,2.837265884646417,0.8473038706701395,2.419756910298204,2.5992919072788165,70,254703.00000000003,71,70.5,0,0,-1,0,0,0,0.0,9.0,-1012.0
1777583685.246704,pre_hover,right,x,1,,,4,1,2.8676518091117296,0.8252427347933908,2.4081913469608636,2.5948095515714824,70,254696.99999999997,71,70.5,0,0,-1,0,0,0,-4.0,34.0,-1001.0
1777583685.29698,pre_hover,right,x,1,,,4,1,2.81981162432231,0.8144277720881994,2.4379677640811055,2.6052885245881305,70,254696.99999999997,71,70.5,0,0,-1,0,0,0,-4.0,34.0,-1001.0
1777583685.347849,pre_hover,right,x,1,,,4,1,2.809365926858022,0.8397938370139701,2.4318824962013634,2.6004892420398114,70,254694.99999999997,71,70.5,0,0,-1,0,0,0,7.0,7.0,-989.0
1777583685.397846,pre_hover,right,x,1,,,4,1,2.8651481408449517,0.8245364031142788,2.4093818609211732,2.5949630854624233,70,254694.99999999997,71,70.5,0,0,-1,0,0,0,7.0,7.0,-989.0
1777583685.447975,pre_hover,right,x,1,,,4,1,2.834505141021626,0.846984504294602,2.4202810054163746,2.598837071201331,70,254689.0,71,70.5,0,0,-1,0,0,0,0.0,17.0,-997.0
1777583685.498697,pre_hover,right,x,1,,,4,1,2.834505141021626,0.846984504294602,2.4202810054163746,2.598837071201331,70,254689.0,71,70.5,0,0,-1,0,0,0,0.0,17.0,-997.0
1777583685.549448,pre_hover,right,x,1,,,4,1,2.8733392054875644,0.8005307054464663,2.4147968214058775,2.5989209111704463,70,254696.0,71,70.5,0,0,-1,0,0,0,24.0,0.0,-1009.0
1777583685.600162,pre_hover,right,x,1,,,4,1,2.8340958474355444,0.8456968466802165,2.4285126928313705,2.6061533840303768,70,254696.0,71,70.5,0,0,-1,0,0,0,24.0,0.0,-1009.0
1777583685.650663,pre_hover,right,x,1,,,4,1,2.8373221584013115,0.8164427586177323,2.4218727156397937,2.5961510778295334,70,254700.0,71,70.5,0,0,-1,0,0,0,16.0,18.0,-1006.0
1777583685.70137,pre_hover,right,x,1,,,4,1,2.8077047885153865,0.8386712431030308,2.440384086112955,2.607737328158188,70,254700.0,71,70.5,0,0,-1,0,0,0,16.0,18.0,-1006.0
1777583685.752523,pre_hover,right,x,1,,,4,1,2.8697562717537455,0.7986492998626511,2.4164840464439172,2.5989983422953395,70,254700.0,71,70.5,0,0,-1,0,0,0,-5.0,22.0,-997.0
1777583685.803027,pre_hover,right,x,1,,,4,1,2.8119967587014107,0.8106560281889934,2.4413816512743036,2.605440745211528,70,254700.0,71,70.5,0,0,-1,0,0,0,-5.0,22.0,-997.0
1777583685.8530428,pre_hover,right,x,1,,,4,1,2.8122714390385664,0.8121334980693931,2.440989655057573,2.6053923710272104,70,254700.0,71,70.5,0,0,-1,0,0,0,15.0,3.0,-1005.0
1777583685.903928,pre_hover,right,x,1,,,4,1,2.777331070765963,0.8307789076325363,2.4534528436179417,2.6094529918540794,70,254700.0,71,70.5,0,0,-1,0,0,0,15.0,3.0,-1005.0
1777583685.954751,pre_hover,right,x,1,,,4,1,2.8094203444286387,0.8054432549453565,2.4432918366197045,2.605613272503837,70,254690.0,71,71.0,0,0,-1,0,0,0,10.0,-4.0,-988.0
1777583686.0053031,pre_hover,right,x,1,,,4,1,2.802610451431055,0.8355778837702599,2.4432876535290147,2.608364657685627,70,254690.0,71,71.0,0,0,-1,0,0,0,10.0,-4.0,-988.0
1777583686.0567548,pre_hover,right,x,1,,,4,1,2.8014905954518516,0.8341621325155006,2.4444861266777864,2.6089071189730646,70,254696.99999999997,71,71.0,0,0,-1,0,0,0,0.0,15.0,-1003.0
1777583686.107672,pre_hover,right,x,1,,,4,1,2.8014905954518516,0.8341621325155006,2.4444861266777864,2.6089071189730646,70,254696.99999999997,71,71.0,0,0,-1,0,0,0,0.0,15.0,-1003.0
1777583686.158646,pre_hover,right,x,1,,,4,1,2.8325482802749793,0.8142067435464018,2.4333092941047108,2.6049372326727007,70,254698.99999999997,71,71.0,0,0,-1,0,0,0,-4.0,22.0,-1015.0
1777583686.210447,pre_hover,right,x,1,,,4,1,2.823772427956412,0.8395356772583362,2.427212043047629,2.6006058768217053,70,254698.99999999997,71,71.0,0,0,-1,0,0,0,-4.0,22.0,-1015.0
1777583686.261121,pre_hover,right,x,1,,,4,1,2.823772427956412,0.8395356772583362,2.427212043047629,2.6006058768217053,70,254696.99999999997,71,71.0,0,0,-1,0,0,0,-5.0,20.0,-996.0
1777583686.3104389,pre_hover,right,x,1,,,4,1,2.8390906919209233,0.7847437301800304,2.4331811393498244,2.6023972379459837,70,254696.99999999997,71,71.0,0,0,-1,0,0,0,-5.0,20.0,-996.0
1777583686.359628,pre_hover,right,x,1,,,4,1,2.8294682638801234,0.8089287353086612,2.428213465366728,2.5983573550868133,70,254704.0,71,71.0,0,0,-1,0,0,0,-4.0,14.0,-992.0
1777583686.408961,pre_hover,right,x,1,,,4,1,2.853870953110304,0.8158391606793748,2.4167140924982835,2.596637213204769,70,254704.0,71,71.0,0,0,-1,0,0,0,-4.0,14.0,-992.0
1777583686.4591548,pre_hover,right,x,1,,,4,1,2.799226376939977,0.8313309303614022,2.446901376944799,2.6100068048910114,70,254702.0,71,71.0,0,0,-1,0,0,0,4.0,15.0,-1001.0
1777583686.508785,pre_hover,right,x,1,,,4,1,2.8437194767230696,0.8421338390932798,2.4116304966099498,2.592933963534815,70,254702.0,71,71.0,0,0,-1,0,0,0,4.0,15.0,-1001.0
1777583686.558391,pre_hover,right,x,1,,,4,1,2.8213974229388445,0.8353852072793135,2.4299683046492566,2.6017301871501215,70,254698.0,71,71.0,0,0,-1,0,0,0,7.0,7.0,-998.0
1777583686.608775,pre_hover,right,x,1,,,4,1,2.795896130005426,0.8292276256345293,2.441254394688357,2.603345928598557,70,254698.0,71,71.0,0,0,-1,0,0,0,7.0,7.0,-998.0
1777583686.659965,pre_hover,right,x,1,,,4,1,2.795896130005426,0.8292276256345293,2.441254394688357,2.603345928598557,60,254700.0,71,71.0,0,0,-1,0,0,0,1.0,12.0,-999.0
1777583686.7105439,pre_hover,right,x,1,,,4,1,2.861735428513043,0.7907911021349978,2.4163329791575814,2.5949895376334364,60,254700.0,71,71.0,0,0,-1,0,0,0,1.0,12.0,-999.0
1777583686.760563,pre_hover,right,x,1,,,4,1,2.861735428513043,0.7907911021349978,2.4163329791575814,2.5949895376334364,60,254692.99999999997,71,71.0,0,0,-1,0,0,0,7.0,18.0,-1004.0
1777583686.810287,pre_hover,right,x,1,,,4,1,2.875779133477212,0.8204568683434681,2.4008184991268537,2.589923268075912,60,254692.99999999997,71,71.0,0,0,-1,0,0,0,7.0,18.0,-1004.0
1777583686.86056,pre_hover,right,x,1,,,4,1,2.875779133477212,0.8204568683434681,2.4008184991268537,2.589923268075912,60,254706.0,71,71.0,0,0,-1,0,0,0,-4.0,14.0,-1001.0
1777583686.9110231,pre_hover,right,x,1,,,4,1,2.854760139308382,0.8130132521833774,2.419119077018349,2.598717366514428,60,254706.0,71,71.0,0,0,-1,0,0,0,-4.0,14.0,-1001.0
1777583686.9621198,pre_hover,right,x,1,,,4,1,2.854760139308382,0.8130132521833774,2.419119077018349,2.598717366514428,60,254692.99999999997,71,71.0,0,0,-1,0,0,0,8.0,5.0,-1001.0
1777583687.013356,pre_hover,right,x,1,,,4,1,2.854760139308382,0.8130132521833774,2.419119077018349,2.598717366514428,60,254692.99999999997,71,71.0,0,0,-1,0,0,0,8.0,5.0,-1001.0
1777583687.062319,pre_hover,right,x,1,,,4,1,2.854760139308382,0.8130132521833774,2.419119077018349,2.598717366514428,60,254700.0,71,71.0,0,0,-1,0,0,0,-2.0,12.0,-1004.0
1777583687.113201,pre_hover,right,x,1,,,4,1,2.8100601480311695,0.8001393194400772,2.4476695032695712,2.609098487145734,60,254700.0,71,71.0,0,0,-1,0,0,0,-2.0,12.0,-1004.0
1777583687.163918,pre_hover,right,x,1,,,4,1,2.8100601480311695,0.8001393194400772,2.4476695032695712,2.609098487145734,60,254698.0,71,71.0,0,0,-1,0,0,0,-1.0,27.0,-1000.0
1777583687.214359,pre_hover,right,x,1,,,4,1,2.832006682336047,0.8052398297461778,2.4305713029823988,2.6007943590268923,60,254698.0,71,71.0,0,0,-1,0,0,0,-1.0,27.0,-1000.0
1777583687.264919,pre_hover,right,x,1,,,4,1,2.832006682336047,0.8052398297461778,2.4305713029823988,2.6007943590268923,60,254696.0,71,71.0,0,0,-1,0,0,0,11.0,8.0,-1000.0
1777583687.314605,pre_hover,right,x,1,,,4,1,2.832006682336047,0.8052398297461778,2.4305713029823988,2.6007943590268923,60,254696.0,71,71.0,0,0,-1,0,0,0,11.0,8.0,-1000.0
1777583687.364916,pre_hover,right,x,1,,,4,1,2.832006682336047,0.8052398297461778,2.4305713029823988,2.6007943590268923,60,254698.0,71,71.0,0,0,-1,0,0,0,12.0,9.0,-1006.0
1777583687.4154649,pre_hover,right,x,1,,,4,1,2.832006682336047,0.8052398297461778,2.4305713029823988,2.6007943590268923,60,254698.0,71,71.0,0,0,-1,0,0,0,12.0,9.0,-1006.0
1777583687.4659462,pre_hover,right,x,1,,,4,1,2.832006682336047,0.8052398297461778,2.4305713029823988,2.6007943590268923,60,254696.0,71,71.0,0,0,-1,0,0,0,0.0,10.0,-1001.0
1777583687.51684,pre_hover,right,x,1,,,4,1,2.79835241509067,0.8253872186201789,2.443796550447445,2.605851577589435,60,254696.0,71,71.0,0,0,-1,0,0,0,0.0,10.0,-1001.0
1777583687.567059,pre_hover,right,x,1,,,4,1,2.8310801720158794,0.8033561558609731,2.4323910340222574,2.6019063363581623,60,254701.00000000003,71,71.0,0,0,-1,0,0,0,2.0,22.0,-1007.0
1777583687.617196,pre_hover,right,x,1,,,4,1,2.7768271214968494,0.8201640398228631,2.4608449382211854,2.614527874592692,60,254701.00000000003,71,71.0,0,0,-1,0,0,0,2.0,22.0,-1007.0
1777583687.668733,response,right,x,1,1777583687.668465,0.00026798248291015625,4,1,2.8034709298152483,0.8262762301629383,2.4501225518122296,2.6134990871165376,60,254701.00000000003,71,71.0,0,0,-1,0,0,0,0.0,15.0,-993.0
1777583687.719275,response,right,x,1,1777583687.668465,0.05081009864807129,4,1,2.836214447259694,0.8041564033057785,2.4386405165105245,2.6095142400273694,60,254701.00000000003,71,71.0,0,0,-1,0,0,0,0.0,15.0,-993.0
1777583687.769143,response,right,x,1,1777583687.668465,0.1006782054901123,4,1,2.8327651216508922,0.802655001324279,2.432344733886153,2.602293162269267,60,254705.00000000003,71,71.0,0,0,-1,0,0,0,15.0,4.0,-994.0
1777583687.819335,response,right,x,1,1777583687.668465,0.15087008476257324,4,1,2.836214447259694,0.8041564033057785,2.4386405165105245,2.6095142400273694,60,254705.00000000003,71,71.0,0,0,-1,0,0,0,15.0,4.0,-994.0
1777583687.869324,response,right,x,1,1777583687.668465,0.20085906982421875,4,1,2.836214447259694,0.8041564033057785,2.4386405165105245,2.6095142400273694,60,254703.00000000003,71,71.0,0,1,-1,0,0,0,16.0,14.0,-1017.0
1777583687.920091,response,right,x,1,1777583687.668465,0.25162601470947266,4,1,2.837146713719685,0.8069839300624284,2.445525543269052,2.6166860190710923,60,254703.00000000003,71,71.0,0,1,-1,0,0,0,16.0,14.0,-1017.0
1777583687.9693708,response,right,x,1,1777583687.668465,0.3009059429168701,4,1,2.8892769114347256,0.7926906812683885,2.414969020463166,2.6032853793164397,60,254694.0,71,71.5,0,3,-1,0,0,0,-1.0,20.0,-994.0
1777583688.019546,response,right,x,1,1777583687.668465,0.35108113288879395,4,1,2.801165532623279,0.8233904424035988,2.4525852055883965,2.6146318800269643,60,254694.0,71,71.5,0,3,-1,0,0,0,-1.0,20.0,-994.0
1777583688.070188,response,right,x,1,1777583687.668465,0.40172314643859863,4,1,2.870286549687055,0.7802790193714669,2.429358167878536,2.6084079280240045,60,254694.99999999997,71,71.5,0,3,-1,0,1,0,4.0,12.0,-998.0
1777583688.119753,response,right,x,1,1777583687.668465,0.45128798484802246,4,1,2.8774098297361066,0.7802642007743991,2.435921662541126,2.616899542921978,60,254694.99999999997,71,71.5,0,3,-1,0,1,0,4.0,12.0,-998.0
1777583688.169448,response,right,x,1,1777583687.668465,0.5009829998016357,4,1,2.8487569007511384,0.797929170914241,2.4501267331137213,2.6233293559817628,60,254696.99999999997,71,71.5,0,1,-1,0,2,0,11.0,-1.0,-1008.0
1777583688.220067,response,right,x,1,1777583687.668465,0.5516021251678467,4,1,2.8771967829975873,0.798603806618819,2.435776304100368,2.619420812769338,60,254696.99999999997,71,71.5,0,1,-1,0,2,0,11.0,-1.0,-1008.0
1777583688.270571,response,right,x,1,1777583687.668465,0.6021060943603516,4,1,2.862141351851002,0.7894541473207143,2.4548705849929964,2.630846219850304,60,254694.99999999997,71,71.5,0,0,-1,0,2,0,0.0,0.0,-999.0
1777583688.320965,response,right,x,1,1777583687.668465,0.6525001525878906,4,1,2.8717920093158154,0.7837613443706155,2.457660457137138,2.6357900143060666,60,254694.99999999997,71,71.5,0,0,-1,0,2,0,0.0,0.0,-999.0
1777583688.3711202,response,right,x,1,1777583687.668465,0.7026553153991699,4,1,2.889869438626365,0.812234793514752,2.4432706521912393,2.632750771084182,60,254694.99999999997,71,71.5,0,0,-1,0,2,0,0.0,0.0,-999.0
1777583688.4220202,response,right,x,1,1777583687.668465,0.7535552978515625,4,1,2.887595971090443,0.7747213499121579,2.461989983844173,2.6437922343718694,60,254691.0,71,71.5,0,0,-1,0,2,0,-8.0,12.0,-1003.0
1777583688.472196,response,right,x,1,1777583687.668465,0.8037312030792236,4,1,2.8816382473982975,0.795534210757938,2.459717314916273,2.64271500174619,60,254691.0,71,71.5,0,0,-1,0,2,0,-8.0,12.0,-1003.0
1777583688.5227242,response,right,x,1,1777583687.668465,0.8542592525482178,4,1,2.9169758314057606,0.7966034850662739,2.451355282013878,2.647127068806169,60,254702.0,71,71.5,0,0,-1,0,2,0,5.0,9.0,-1006.0
1777583688.572974,response,right,x,1,1777583687.668465,0.9045090675354004,4,1,2.922953081692315,0.7932845293311153,2.4530233222228706,2.650252541058279,60,254702.0,71,71.5,0,0,-1,0,2,0,5.0,9.0,-1006.0
1777583688.6243598,response,right,x,1,1777583687.668465,0.955894947052002,4,1,2.955533807168958,0.795281262790495,2.4446253731189915,2.654333315213676,60,254696.0,71,71.5,0,0,-1,0,2,0,-2.0,21.0,-1006.0
1777583688.6750238,response,right,x,1,1777583687.668465,1.006558895111084,4,1,2.96927959213061,0.7653969568519277,2.442974874171234,2.653515422911555,60,254696.0,71,71.5,0,0,-1,0,2,0,-2.0,21.0,-1006.0
1777583688.727252,response,right,x,1,1777583687.668465,1.0587871074676514,4,1,2.9637535008287728,0.8072157451868847,2.4459665732533167,2.6603379392401254,60,254698.99999999997,71,71.5,0,0,-1,0,2,0,6.0,7.0,-984.0
1777583688.7775302,response,right,x,1,1777583687.668465,1.109065294265747,4,1,2.9735777507455543,0.8051204633921947,2.4541007392064644,2.6710647062135346,60,254698.99999999997,71,71.5,0,0,-1,0,2,0,6.0,7.0,-984.0
1777583688.827533,response,right,x,1,1777583687.668465,1.1590681076049805,4,1,3.002985699081697,0.803664684671817,2.439408298033913,2.6682650420695295,60,254691.0,71,71.5,0,0,-1,0,2,0,3.0,6.0,-997.0
1777583688.878137,response,right,x,1,1777583687.668465,1.209672212600708,4,1,3.037405188944565,0.7836546435136615,2.426851241044495,2.66702218920239,60,254691.0,71,71.5,0,0,-1,0,2,0,3.0,6.0,-997.0
1777583688.92788,response,right,x,1,1777583687.668465,1.2594151496887207,4,1,2.994999521732707,0.8101931164519447,2.458952472289483,2.684162756244754,60,254701.00000000003,71,71.5,0,0,-1,0,2,0,18.0,-8.0,-1011.0
1777583688.9784691,response,right,x,1,1777583687.668465,1.3100042343139648,4,1,3.0367821796800634,0.788294981005228,2.448169919251234,2.6868617816892972,60,254701.00000000003,71,71.5,0,0,-1,0,2,0,18.0,-8.0,-1011.0
1777583689.028352,response,right,x,1,1777583687.668465,1.3598871231079102,4,1,3.043169242352431,0.7852560806387034,2.4496638339230463,2.690255975755801,60,254700.0,71,72.0,0,0,-1,0,2,0,3.0,0.0,-1003.0
1777583689.0784461,response,right,x,1,1777583687.668465,1.4099812507629395,4,1,3.0485698283208675,0.7976247512254814,2.4574972298624687,2.7012768763001116,60,254700.0,71,72.0,0,0,-1,0,2,0,3.0,0.0,-1003.0
1777583689.1286132,response,right,x,1,1777583687.668465,1.4601483345031738,4,1,3.0485698283208675,0.7976247512254814,2.4574972298624687,2.7012768763001116,60,254701.00000000003,71,72.0,0,0,-1,0,2,0,2.0,6.0,-976.0
1777583689.1797252,response,right,x,1,1777583687.668465,1.5112602710723877,4,1,3.0788133918552107,0.8002490048463291,2.442214855931075,2.699713133437896,60,254701.00000000003,71,72.0,0,0,-1,0,2,0,2.0,6.0,-976.0
1777583689.230082,response,right,x,1,1777583687.668465,1.561617136001587,4,1,3.1051058512044225,0.8000187758418622,2.432382537963805,2.701436427973739,60,254701.00000000003,71,72.0,0,-3,-1,0,2,0,17.0,4.0,-979.0
1777583689.281218,response,right,x,1,1777583687.668465,1.61275315284729,,,,,,,60,254701.00000000003,71,72.0,0,-3,-1,0,2,0,17.0,4.0,-979.0
1777583689.331243,response,right,x,1,1777583687.668465,1.6627781391143799,,,,,,,60,254698.0,71,72.0,0,-5,-1,0,1,0,-3.0,15.0,-1017.0
1777583689.3807411,response,right,x,1,1777583687.668465,1.7122762203216553,,,,,,,60,254700.0,71,72.0,0,-3,-1,0,0,0,14.0,8.0,-991.0
1777583689.4307961,response,right,x,1,1777583687.668465,1.762331247329712,,,,,,,60,254700.0,71,72.0,0,-3,-1,0,0,0,14.0,8.0,-991.0
1777583689.480031,response,right,x,1,1777583687.668465,1.8115661144256592,,,,,,,60,254692.99999999997,71,72.0,0,-2,-1,0,0,0,17.0,9.0,-1010.0
1777583689.5302138,response,right,x,1,1777583687.668465,1.8617489337921143,,,,,,,60,254692.99999999997,71,72.0,0,-2,-1,0,0,0,17.0,9.0,-1010.0
1777583689.579753,response,right,x,1,1777583687.668465,1.9112880229949951,,,,,,,60,254690.0,71,72.0,0,-1,-1,0,0,0,3.0,33.0,-1000.0
1777583689.630785,response,right,x,1,1777583687.668465,1.96232008934021,,,,,,,60,254690.0,71,72.0,0,-1,-1,0,0,0,3.0,33.0,-1000.0
1777583689.680667,response,right,x,1,1777583687.668465,2.012202024459839,,,,,,,60,254692.0,71,72.0,0,-1,-1,0,0,0,-10.0,45.0,-990.0
1777583689.729653,response,right,x,1,1777583687.668465,2.061187982559204,,,,,,,60,254692.0,71,72.0,0,-1,-1,0,0,0,-10.0,45.0,-990.0
1777583689.778099,response,right,x,1,1777583687.668465,2.1096341609954834,,,,,,,60,254696.0,71,72.0,0,-1,-1,0,0,0,-14.0,38.0,-989.0
1777583689.82705,response,right,x,1,1777583687.668465,2.1585850715637207,,,,,,,60,254696.0,71,72.0,0,-1,-1,0,0,0,-14.0,38.0,-989.0
1777583689.876367,response,right,x,1,1777583687.668465,2.207902193069458,,,,,,,60,254690.0,71,72.0,0,-1,-1,0,0,0,9.0,0.0,-1012.0
1777583689.927071,response,right,x,1,1777583687.668465,2.258606195449829,,,,,,,60,254690.0,71,72.0,0,-1,-1,0,0,0,9.0,0.0,-1012.0
1777583689.9776561,response,right,x,1,1777583687.668465,2.3091912269592285,,,,,,,60,254694.99999999997,71,71.5,0,-1,-1,0,0,0,9.0,15.0,-975.0
1777583690.027968,response,right,x,1,1777583687.668465,2.3595030307769775,,,,,,,60,254694.99999999997,71,71.5,0,-1,-1,0,0,0,9.0,15.0,-975.0
1777583690.0780559,response,right,x,1,1777583687.668465,2.40959095954895,,,,,,,60,254694.99999999997,71,71.5,0,-1,-1,0,0,0,9.0,15.0,-975.0
1777583690.128385,response,right,x,1,1777583687.668465,2.4599201679229736,,,,,,,60,254694.0,71,71.5,0,-1,-1,0,0,0,20.0,22.0,-1004.0
1777583690.178539,response,right,x,1,1777583687.668465,2.5100741386413574,,,,,,,60,254689.0,71,71.5,0,-1,-1,0,0,0,25.0,1.0,-1004.0
1777583690.2281759,response,right,x,1,1777583687.668465,2.55971097946167,,,,,,,60,254689.0,71,71.5,0,-1,-1,0,0,0,25.0,1.0,-1004.0
1777583690.278642,response,right,x,1,1777583687.668465,2.6101770401000977,,,,,,,60,254689.0,71,71.5,0,-1,-1,0,0,0,25.0,1.0,-1004.0
1777583690.330153,response,right,x,1,1777583687.668465,2.6616880893707275,,,,,,,60,254692.99999999997,71,71.5,0,-1,-1,0,0,0,3.0,25.0,-1013.0
1777583690.3802419,response,right,x,1,1777583687.668465,2.7117769718170166,,,,,,,60,254692.99999999997,71,71.5,0,-1,-1,0,0,0,3.0,25.0,-1013.0
1777583690.4304981,response,right,x,1,1777583687.668465,2.762033224105835,,,,,,,60,254692.99999999997,71,71.5,0,-1,-1,0,0,0,25.0,-4.0,-1008.0
1777583690.481492,response,right,x,1,1777583687.668465,2.8130271434783936,,,,,,,60,254692.99999999997,71,71.5,0,-1,-1,0,0,0,25.0,-4.0,-1008.0
1777583690.531996,response,right,x,1,1777583687.668465,2.8635311126708984,,,,,,,60,254692.99999999997,71,71.5,0,0,-1,0,0,0,-4.0,10.0,-1010.0
1777583690.581994,response,right,x,1,1777583687.668465,2.91352915763855,,,,,,,60,254692.99999999997,71,71.5,0,0,-1,0,0,0,-4.0,10.0,-1010.0
1777583690.6312919,response,right,x,1,1777583687.668465,2.96282696723938,,,,,,,60,254692.99999999997,71,71.5,0,0,-1,0,0,0,-4.0,10.0,-1010.0
1777583690.680741,response,right,x,1,1777583687.668465,3.0122761726379395,,,,,,,60,254692.99999999997,71,71.5,0,0,-1,0,0,0,7.0,34.0,-1014.0
1777583690.730442,response,right,x,1,1777583687.668465,3.0619771480560303,,,,,,,60,254692.99999999997,71,71.5,0,0,-1,0,0,0,7.0,34.0,-1014.0
1777583690.7803478,response,right,x,1,1777583687.668465,3.1118829250335693,,,,,,,60,254694.0,71,71.5,0,0,-1,0,0,0,14.0,31.0,-997.0
1777583690.83087,response,right,x,1,1777583687.668465,3.162405014038086,,,,,,,60,254694.99999999997,71,71.5,0,0,-1,0,0,0,15.0,25.0,-991.0
1777583690.880362,response,right,x,1,1777583687.668465,3.211897134780884,,,,,,,60,254694.99999999997,71,71.5,0,0,-1,0,0,0,15.0,25.0,-991.0
1777583690.929921,response,right,x,1,1777583687.668465,3.26145601272583,,,,,,,60,254692.0,70,71.5,0,0,-1,0,0,0,14.0,12.0,-1001.0
1777583690.9799051,response,right,x,1,1777583687.668465,3.3114402294158936,,,,,,,60,254692.0,70,71.5,0,0,-1,0,0,0,14.0,12.0,-1001.0
1777583691.03038,response,right,x,1,1777583687.668465,3.361915111541748,,,,,,,60,254696.99999999997,70,71.0,0,0,-1,0,0,0,9.0,10.0,-1008.0
1777583691.080944,response,right,x,1,1777583687.668465,3.4124791622161865,,,,,,,60,254696.99999999997,70,71.0,0,0,-1,0,0,0,9.0,10.0,-1008.0
1777583691.131275,response,right,x,1,1777583687.668465,3.4628100395202637,,,,,,,60,254700.0,70,71.0,0,0,-1,0,0,0,18.0,-4.0,-1014.0
1777583691.1794639,response,right,x,1,1777583687.668465,3.5109989643096924,,,,,,,60,254700.0,70,71.0,0,0,-1,0,0,0,18.0,-4.0,-1014.0
1777583691.2282891,response,right,x,1,1777583687.668465,3.559824228286743,,,,,,,60,254694.99999999997,70,71.0,0,0,-1,0,0,0,7.0,9.0,-998.0
1777583691.277371,response,right,x,1,1777583687.668465,3.6089060306549072,,,,,,,60,254694.99999999997,70,71.0,0,0,-1,0,0,0,7.0,9.0,-998.0
1777583691.32653,response,right,x,1,1777583687.668465,3.6580650806427,,,,,,,60,254696.99999999997,70,71.0,0,0,-1,0,0,0,6.0,21.0,-1018.0
1777583691.3760262,response,right,x,1,1777583687.668465,3.7075612545013428,,,,,,,60,254696.99999999997,70,71.0,0,0,-1,0,0,0,6.0,21.0,-1018.0
1777583691.425823,response,right,x,1,1777583687.668465,3.7573580741882324,,,,,,,60,254692.0,70,71.0,0,0,-1,0,0,0,19.0,-6.0,-1000.0
1777583691.4754171,response,right,x,1,1777583687.668465,3.8069522380828857,,,,,,,60,254701.00000000003,70,71.0,0,0,-1,0,0,0,-1.0,28.0,-994.0
1777583691.5250208,response,right,x,1,1777583687.668465,3.856555938720703,,,,,,,60,254701.00000000003,70,71.0,0,0,-1,0,0,0,-1.0,28.0,-994.0
1777583691.5742238,response,right,x,1,1777583687.668465,3.905758857727051,,,,,,,60,254704.0,70,71.0,0,0,-1,0,0,0,3.0,29.0,-1016.0
1777583691.6250129,response,right,x,1,1777583687.668465,3.956547975540161,,,,,,,60,254704.0,70,71.0,0,0,-1,0,0,0,3.0,29.0,-1016.0
1777583691.675831,response,right,x,1,1777583687.668465,4.007366180419922,,,,,,,60,254703.00000000003,70,71.0,0,0,-1,0,0,0,22.0,-7.0,-993.0
1777583691.72619,response,right,x,1,1777583687.668465,4.057725191116333,,,,,,,60,254703.00000000003,70,71.0,0,0,-1,0,0,0,22.0,-7.0,-993.0
1777583691.776843,response,right,x,1,1777583687.668465,4.108378171920776,,,,,,,60,254698.99999999997,70,71.0,0,0,-1,0,0,0,6.0,22.0,-973.0
1777583691.826668,response,right,x,1,1777583687.668465,4.158203125,,,,,,,60,254698.99999999997,70,71.0,0,0,-1,0,0,0,6.0,22.0,-973.0
1777583691.876788,response,right,x,1,1777583687.668465,4.208323001861572,,,,,,,60,254696.99999999997,70,71.0,0,-1,-1,0,0,0,-4.0,33.0,-989.0
1777583691.926454,response,right,x,1,1777583687.668465,4.257989168167114,,,,,,,60,254696.99999999997,70,71.0,0,-1,-1,0,0,0,-4.0,33.0,-989.0
1777583691.9765298,response,right,x,1,1777583687.668465,4.308064937591553,,,,,,,60,254700.0,70,70.5,0,-1,-1,0,0,0,8.0,16.0,-1004.0
1777583692.028058,response,right,x,1,1777583687.668465,4.359593152999878,,,,,,,60,254700.0,70,70.5,0,-1,-1,0,0,0,8.0,16.0,-1004.0
1777583692.078629,response,right,x,1,1777583687.668465,4.41016411781311,,,,,,,60,254710.0,70,70.5,0,0,-1,0,0,0,-2.0,21.0,-999.0
1777583692.129642,response,right,x,1,1777583687.668465,4.461177110671997,,,,,,,60,254710.0,70,70.5,0,0,-1,0,0,0,-2.0,21.0,-999.0
1777583692.179594,response,right,x,1,1777583687.668465,4.511129140853882,,,,,,,60,254701.00000000003,70,70.5,0,0,-1,0,0,0,-3.0,35.0,-1009.0
1777583692.2281852,response,right,x,1,1777583687.668465,4.559720277786255,,,,,,,60,254701.00000000003,70,70.5,0,0,-1,0,0,0,-3.0,35.0,-1009.0
1777583692.2783418,response,right,x,1,1777583687.668465,4.609876871109009,,,,,,,60,254703.00000000003,70,70.5,0,0,-1,0,0,0,15.0,14.0,-1010.0
1777583692.3284721,response,right,x,1,1777583687.668465,4.6600072383880615,,,,,,,60,254703.00000000003,70,70.5,0,0,-1,0,0,0,15.0,14.0,-1010.0
1777583692.378593,response,right,x,1,1777583687.668465,4.71012806892395,,,,,,,60,254705.00000000003,70,70.5,0,0,-1,0,0,0,8.0,25.0,-999.0
