timestamp,phase,command,axis,repeat,t_send,t_since_cmd,marker_id,pos_x,pos_y,pos_z,marker_dist,tello_height_cm,tello_baro_cm,tello_battery,tello_temp_c,tello_pitch,tello_roll,tello_yaw,tello_vgx,tello_vgy,tello_vgz,tello_agx,tello_agy,tello_agz
1777581321.1664598,init_hover,none,-,0,,,,,,,,0,254260.0,85,85.0,0,0,4,0,0,0,-5.0,-6.0,-1000.0
1777581321.328624,init_hover,none,-,0,,,,,,,,0,254252.0,85,85.0,0,0,4,0,0,0,-9.0,-4.0,-998.0
1777581321.378792,init_hover,none,-,0,,,,,,,,0,254252.0,85,85.0,0,0,4,0,0,0,-9.0,-4.0,-998.0
1777581321.426774,init_hover,none,-,0,,,,,,,,0,254252.0,85,85.0,0,0,4,0,0,0,-8.0,0.0,-1003.0
1777581321.475199,init_hover,none,-,0,,,,,,,,0,254252.0,85,85.0,0,0,4,0,0,0,-8.0,0.0,-1003.0
1777581321.522728,init_hover,none,-,0,,,,,,,,0,254252.0,85,85.0,0,0,4,0,0,0,-12.0,0.0,-999.0
1777581321.570915,init_hover,none,-,0,,,,,,,,0,254252.0,85,85.0,0,0,4,0,0,0,-12.0,0.0,-999.0
1777581321.619115,init_hover,none,-,0,,,,,,,,0,254252.0,85,85.0,0,0,4,0,0,0,-12.0,0.0,-999.0
1777581321.67552,init_hover,none,-,0,,,,,,,,0,254252.0,85,85.0,0,0,4,0,0,0,-5.0,-5.0,-1002.0
1777581321.723995,init_hover,none,-,0,,,,,,,,0,254252.0,85,85.0,0,0,4,0,0,0,-5.0,-5.0,-1002.0
1777581321.774008,init_hover,none,-,0,,,,,,,,0,254252.0,85,85.0,0,0,4,0,0,0,-46.0,14.0,-1006.0
1777581321.8242822,init_hover,none,-,0,,,,,,,,0,254252.0,85,85.0,0,0,4,0,0,0,-46.0,14.0,-1006.0
1777581321.874115,init_hover,none,-,0,,,,,,,,0,254252.0,85,85.0,0,0,4,0,0,0,5.0,-2.0,-1012.0
1777581321.9229782,init_hover,none,-,0,,,,,,,,0,254252.0,85,85.0,0,0,4,0,0,0,5.0,-2.0,-1012.0
1777581321.972405,init_hover,none,-,0,,,,,,,,0,254252.0,85,85.0,0,0,5,0,0,0,17.0,7.0,-1086.0
1777581322.021239,init_hover,none,-,0,,,,,,,,0,254252.0,85,85.0,0,0,5,0,0,0,17.0,7.0,-1086.0
1777581322.0707672,init_hover,none,-,0,,,,,,,,0,254252.0,85,85.0,0,0,6,0,0,-1,8.0,7.0,-1180.0
1777581322.1206,init_hover,none,-,0,,,,,,,,0,254252.0,85,85.0,0,0,6,0,0,-1,8.0,7.0,-1180.0
1777581322.1696372,init_hover,none,-,0,,,,,,,,0,254252.0,85,85.0,0,0,6,0,0,-4,1.0,-5.0,-1275.0
1777581322.2198532,init_hover,none,-,0,,,,,,,,0,254252.0,85,85.0,0,0,6,0,0,-4,1.0,-5.0,-1275.0
1777581322.269374,init_hover,none,-,0,,,,,,,,0,254264.0,85,85.0,0,0,6,0,0,-6,-14.0,8.0,-1179.0
1777581322.3194501,init_hover,none,-,0,,,,,,,,0,254264.0,85,85.0,0,0,6,0,0,-6,-14.0,8.0,-1179.0
1777581322.3694232,init_hover,none,-,0,,,,,,,,10,254298.99999999997,85,85.0,0,0,6,0,0,-7,12.0,17.0,-1060.0
1777581322.419404,init_hover,none,-,0,,,2,0.5781449694143109,0.3259883454994541,2.835402378667772,2.867567966201886,10,254298.99999999997,85,85.0,0,0,6,0,0,-7,12.0,17.0,-1060.0
1777581322.470001,init_hover,none,-,0,,,2,0.5477484791509968,0.4084730189988567,2.8209687626513094,2.8570033234169774,20,254298.99999999997,85,85.0,0,-1,6,0,0,-7,-7.0,7.0,-1040.0
1777581322.5199769,init_hover,none,-,0,,,,,,,,20,254298.99999999997,85,85.0,0,-1,6,0,0,-7,-7.0,7.0,-1040.0
1777581322.5697012,init_hover,none,-,0,,,2,0.4256376205381651,0.34257918868550186,2.780933064145351,2.840207386753637,20,254304.0,85,85.0,0,0,6,0,0,-7,-29.0,30.0,-1008.0
1777581322.619777,init_hover,none,-,0,,,2,0.3716239944869817,0.36291031634990756,2.762871284314066,2.833670725865131,20,254304.0,85,85.0,0,0,6,0,0,-7,-29.0,30.0,-1008.0
1777581322.669306,init_hover,none,-,0,,,2,0.5997637265928395,0.2214966971088092,2.818409471767212,2.8522770647749227,30,254314.0,85,85.0,0,0,6,0,0,-7,28.0,0.0,-955.0
1777581322.719249,init_hover,none,-,0,,,,,,,,30,254314.0,85,85.0,0,0,6,0,0,-7,28.0,0.0,-955.0
1777581322.769685,init_hover,none,-,0,,,,,,,,40,254317.0,85,85.0,0,0,6,0,0,-6,0.0,7.0,-919.0
1777581322.820823,init_hover,none,-,0,,,2,0.5369309639681312,0.3362938671717143,2.8085142486482386,2.847146587085322,40,254319.99999999997,85,85.0,0,-1,6,0,0,-5,0.0,11.0,-892.0
1777581322.87084,init_hover,none,-,0,,,2,0.4690279154349477,0.4007287080683881,2.800304729667597,2.8501997236336822,40,254319.99999999997,85,85.0,0,-1,6,0,0,-5,0.0,11.0,-892.0
1777581322.9201422,init_hover,none,-,0,,,2,0.4386926407873446,0.40701254925286406,2.791634581116185,2.8475144884332106,50,254335.0,85,85.0,0,0,6,0,0,-4,7.0,7.0,-889.0
1777581322.9702778,init_hover,none,-,0,,,,,,,,50,254335.0,85,85.0,0,0,6,0,0,-4,7.0,7.0,-889.0
1777581323.020649,init_hover,none,-,0,,,,,,,,50,254335.0,85,85.0,0,0,6,0,0,-4,7.0,7.0,-889.0
1777581323.0710049,init_hover,none,-,0,,,,,,,,50,254341.0,85,85.0,0,0,6,0,0,-3,12.0,11.0,-885.0
1777581323.120693,init_hover,none,-,0,,,,,,,,60,254342.0,85,85.5,0,0,6,0,0,-2,-11.0,16.0,-919.0
1777581323.170756,init_hover,none,-,0,,,2,0.6321533419807845,0.3779566559738436,2.852412314968791,2.87611771098079,60,254342.0,85,85.5,0,0,6,0,0,-2,-11.0,16.0,-919.0
1777581323.221447,init_hover,none,-,0,,,2,0.8058693397846302,0.3731797010749067,2.8846973696113136,2.8913465644769256,60,254350.0,85,85.5,0,0,6,0,0,-1,-19.0,21.0,-928.0
1777581323.2711282,init_hover,none,-,0,,,2,1.1643896988000622,0.588706670019017,2.8811182221050373,2.891967563809617,60,254350.0,85,85.5,0,0,6,0,0,-1,-19.0,21.0,-928.0
1777581323.320866,init_hover,none,-,0,,,2,1.1643896988000622,0.588706670019017,2.8811182221050373,2.891967563809617,60,254350.0,85,85.5,0,0,6,0,0,-1,-19.0,21.0,-928.0
1777581323.3716748,init_hover,none,-,0,,,2,1.1713876639663117,0.5673403915300879,2.8798339558498283,2.889778564399519,60,254350.0,85,85.5,0,0,6,0,0,-1,-9.0,23.0,-944.0
1777581323.421248,init_hover,none,-,0,,,2,1.1834977100675161,0.6904224253986914,2.8684043363947516,2.8889029114566473,60,254350.0,85,85.5,0,0,6,0,0,-1,-9.0,23.0,-944.0
1777581323.470934,init_hover,none,-,0,,,2,1.0712843001057522,0.7261784667813405,2.8739099659607117,2.8932390734403013,60,254351.00000000003,85,85.5,0,0,6,0,0,0,-6.0,20.0,-964.0
1777581323.520979,init_hover,none,-,0,,,2,1.184212510804088,0.6812162039392158,2.8682227537983778,2.8878570892448048,60,254351.00000000003,85,85.5,0,0,6,0,0,0,-6.0,20.0,-964.0
1777581323.570594,init_hover,none,-,0,,,2,1.184212510804088,0.6812162039392158,2.8682227537983778,2.8878570892448048,60,254351.00000000003,85,85.5,0,0,6,0,0,0,-6.0,20.0,-964.0
1777581323.621024,init_hover,none,-,0,,,2,1.184212510804088,0.6812162039392158,2.8682227537983778,2.8878570892448048,60,254351.00000000003,85,85.5,0,0,6,0,0,0,-6.0,20.0,-964.0
1777581323.6728902,init_hover,none,-,0,,,2,1.1719837703275289,0.5423329588745176,2.889132092631183,2.8977441807567295,60,254352.0,85,85.5,0,0,6,0,0,0,5.0,0.0,-950.0
1777581323.723926,init_hover,none,-,0,,,2,1.0527789576840616,0.8573090041148754,2.8468514765884225,2.8838308676779985,60,254352.0,85,85.5,0,0,6,0,0,0,5.0,0.0,-950.0
1777581323.7746172,init_hover,none,-,0,,,2,1.0527789576840616,0.8573090041148754,2.8468514765884225,2.8838308676779985,60,254352.0,85,85.5,0,0,6,0,0,0,5.0,0.0,-950.0
1777581323.8251169,init_hover,none,-,0,,,2,0.985315164872453,0.6149810182388509,2.8938208783871917,2.9018324828934134,60,254367.99999999997,85,85.5,0,0,6,0,0,0,-6.0,31.0,-997.0
1777581323.87458,init_hover,none,-,0,,,2,1.0471381812187346,0.8559661270221638,2.8460827519584595,2.882761548951914,60,254367.99999999997,85,85.5,0,0,6,0,0,0,-6.0,31.0,-997.0
1777581323.924402,init_hover,none,-,0,,,2,1.0471381812187346,0.8559661270221638,2.8460827519584595,2.882761548951914,60,254367.99999999997,85,85.5,0,0,6,0,0,0,-6.0,31.0,-997.0
1777581323.9749749,init_hover,none,-,0,,,2,1.040495685469942,0.8560492532513886,2.8552580371580993,2.8917329200133186,60,254356.0,85,85.5,0,0,6,0,0,0,12.0,-6.0,-1010.0
1777581324.025138,init_hover,none,-,0,,,2,1.1147690665911891,0.806538161368838,2.858360857034367,2.889406860295311,60,254356.0,85,85.5,0,0,6,0,0,0,12.0,-6.0,-1010.0
1777581324.0749362,init_hover,none,-,0,,,2,1.1147690665911891,0.806538161368838,2.858360857034367,2.889406860295311,60,254356.0,85,85.5,0,0,6,0,0,0,12.0,-6.0,-1010.0
1777581324.1254342,init_hover,none,-,0,,,2,1.1958214792833592,0.7684266747172033,2.853181257264659,2.88352692950807,60,254360.0,85,86.0,0,-1,6,0,0,0,-19.0,19.0,-1018.0
1777581324.1748888,init_hover,none,-,0,,,2,1.1968702822674684,0.7726381337054014,2.851976471541229,2.8829476028808214,60,254360.0,85,86.0,0,-1,6,0,0,0,-19.0,19.0,-1018.0
1777581324.224621,init_hover,none,-,0,,,2,1.2949122543243923,0.5482111422874748,2.8645328990847796,2.883485479482757,60,254373.0,85,86.0,0,0,6,0,0,0,8.0,13.0,-1010.0
1777581324.27534,init_hover,none,-,0,,,2,1.1869411092720643,0.7569722034634423,2.8451232440911465,2.8735174275527102,60,254373.0,85,86.0,0,0,6,0,0,0,8.0,13.0,-1010.0
1777581324.3256981,init_hover,none,-,0,,,2,1.1566203449718735,0.6562361115805713,2.8686784884740373,2.88435489279158,60,254373.0,85,86.0,0,0,6,0,0,0,8.0,13.0,-1010.0
1777581324.3758268,init_hover,none,-,0,,,2,1.2145235296238044,0.838175698885841,2.829517245463509,2.871269080081446,70,254354.0,85,86.0,0,0,5,0,0,0,-16.0,12.0,-1010.0
1777581324.425906,init_hover,none,-,0,,,2,1.0450511196728238,0.7074485253170184,2.8522495199202553,2.8691255676579774,70,254354.0,85,86.0,0,0,5,0,0,0,-16.0,12.0,-1010.0
1777581324.4767842,init_hover,none,-,0,,,2,1.0294761054991413,0.8456524572239777,2.8342983352071394,2.869272034224557,70,254363.0,85,86.0,0,-1,5,0,0,0,-12.0,19.0,-988.0
1777581324.52747,init_hover,none,-,0,,,2,1.1515277485557136,0.6471179244886063,2.868875376314303,2.883482937700248,70,254363.0,85,86.0,0,-1,5,0,0,0,-12.0,19.0,-988.0
1777581324.5785239,init_hover,none,-,0,,,2,1.017810843821233,0.8437876767440005,2.8342023364216358,2.868792012671069,70,254359.0,85,86.0,0,-1,5,0,0,0,-5.0,16.0,-995.0
1777581324.628555,init_hover,none,-,0,,,2,1.2681269149489511,0.6336648377582037,2.8617071978555804,2.88372318109472,70,254359.0,85,86.0,0,-1,5,0,0,0,-5.0,16.0,-995.0
1777581324.678184,init_hover,none,-,0,,,2,1.1378465818780272,0.8629252070494682,2.824321875388245,2.865326418273112,70,254365.0,85,86.0,0,-1,5,0,0,0,20.0,-2.0,-987.0
1777581324.728089,init_hover,none,-,0,,,2,1.2700122265576268,0.6362906620883927,2.8515218752277414,2.874007112792714,70,254365.0,85,86.0,0,-1,5,0,0,0,20.0,-2.0,-987.0
1777581324.7780192,init_hover,none,-,0,,,2,1.184457357899614,0.7528812379169098,2.843766856151362,2.871508247785835,70,254362.0,85,86.0,0,-1,5,0,0,0,-1.0,35.0,-988.0
1777581324.828182,init_hover,none,-,0,,,2,1.1756436911040238,0.7490003744636016,2.845216373041106,2.8719171605430347,70,254362.0,85,86.0,0,-1,5,0,0,0,-1.0,35.0,-988.0
1777581324.878519,init_hover,none,-,0,,,2,1.1831503682113156,0.7526394844836942,2.8438578502417826,2.8714850053194914,70,254355.00000000003,85,86.0,0,-1,5,0,0,0,-9.0,38.0,-980.0
1777581324.928591,init_hover,none,-,0,,,2,1.1758342587610695,0.7487387993076688,2.8453436988181666,2.872023189513075,70,254355.00000000003,85,86.0,0,-1,5,0,0,0,-9.0,38.0,-980.0
1777581324.97857,init_hover,none,-,0,,,2,1.1537430416054415,0.6503430663002426,2.867259589221692,2.882271001427597,70,254354.0,85,86.0,0,0,5,0,0,0,0.0,-7.0,-975.0
1777581325.028356,init_hover,none,-,0,,,2,1.1392236479552857,0.46605375799796284,2.8784617366520013,2.882583614132517,70,254354.0,85,86.0,0,0,5,0,0,0,0.0,-7.0,-975.0
1777581325.0789912,init_hover,none,-,0,,,2,1.2058399469053842,0.8323332727220352,2.829926214211573,2.8701506093455103,70,254360.0,85,86.0,0,0,5,0,0,0,-9.0,28.0,-995.0
1777581325.1291552,init_hover,none,-,0,,,2,1.1789419875092897,0.7524719163071534,2.853905985471453,2.881151863506816,70,254360.0,85,86.0,0,0,5,0,0,0,-9.0,28.0,-995.0
1777581325.179796,init_hover,none,-,0,,,2,1.1724319051573835,0.7512272769955834,2.8455190707242046,2.872293881878573,70,254365.0,85,85.0,0,0,5,0,0,0,1.0,5.0,-974.0
1777581325.229663,init_hover,none,-,0,,,2,1.1799742604131482,0.7547551122244998,2.8441865674949143,2.871870323461556,70,254365.0,85,85.0,0,0,5,0,0,0,1.0,5.0,-974.0
1777581325.279924,init_hover,none,-,0,,,2,1.1734461787155779,0.7489113535260207,2.8458455290595444,2.8723961225427446,70,254361.0,85,85.0,0,0,5,0,0,0,0.0,16.0,-1008.0
1777581325.3305159,init_hover,none,-,0,,,2,1.1702815508108801,0.7539301379472019,2.8454948273092002,2.8724733525895934,70,254361.0,85,85.0,0,0,5,0,0,0,0.0,16.0,-1008.0
1777581325.38082,init_hover,none,-,0,,,2,1.1704589037097306,0.7537255917772046,2.845753782453965,2.872715200378051,70,254359.0,85,85.0,0,0,5,0,0,0,2.0,35.0,-999.0
1777581325.431067,init_hover,none,-,0,,,2,1.265597296188744,0.7327431722774604,2.8337719364249554,2.865575566986444,70,254359.0,85,85.0,0,0,5,0,0,0,2.0,35.0,-999.0
1777581325.481098,init_hover,none,-,0,,,2,1.259910787414778,0.6397408490825504,2.853417933617847,2.8752431542437122,70,254365.0,85,85.0,0,0,5,0,0,0,-3.0,31.0,-1023.0
1777581325.5308669,init_hover,none,-,0,,,2,1.2628492492400492,0.7347983173277421,2.834216937169942,2.8660016203855347,70,254361.0,85,85.0,0,0,5,0,0,0,7.0,25.0,-996.0
1777581325.580933,init_hover,none,-,0,,,2,1.1721155098242169,0.7560403610810797,2.836096681741857,2.863535031325436,70,254361.0,85,85.0,0,0,5,0,0,0,7.0,25.0,-996.0
1777581325.63075,init_hover,none,-,0,,,2,1.1631302726409503,0.7518324486781861,2.837721516504967,2.8640986301155986,60,254354.0,85,85.0,0,0,5,0,0,0,-8.0,23.0,-1001.0
1777581325.68107,init_hover,none,-,0,,,2,1.2525755015421272,0.6359792416622485,2.845955920106417,2.866870364293354,60,254354.0,85,85.0,0,0,5,0,0,0,-8.0,23.0,-1001.0
1777581325.7311869,init_hover,none,-,0,,,2,1.1656624741214738,0.7548535318007534,2.8280091529026703,2.85499577114657,60,254367.99999999997,85,85.0,0,0,5,0,0,0,-32.0,19.0,-1023.0
1777581325.780979,init_hover,none,-,0,,,2,1.2600082901284853,0.7372918331619618,2.825298405294233,2.857215632501585,60,254367.99999999997,85,85.0,0,0,5,0,0,0,-32.0,19.0,-1023.0
1777581325.830924,init_hover,none,-,0,,,2,1.1685456707806876,0.7581281564013483,2.836537962709662,2.8640200825831195,60,254362.0,85,85.0,0,0,5,0,0,0,0.0,5.0,-1025.0
1777581325.880508,init_hover,none,-,0,,,2,1.164352210856036,0.7543208480500451,2.8283011672723792,2.8551431497160475,60,254362.0,85,85.0,0,0,5,0,0,0,0.0,5.0,-1025.0
1777581325.9307399,init_hover,none,-,0,,,2,1.138021336432006,0.6580875398862724,2.850461887365858,2.8654479647832303,60,254366.0,85,85.0,0,0,5,0,0,0,-21.0,6.0,-1010.0
1777581325.980972,init_hover,none,-,0,,,2,1.2496254974116092,0.6387588400982457,2.836937285657697,2.8578894022403865,60,254366.0,85,85.0,0,0,5,0,0,0,-21.0,6.0,-1010.0
1777581326.031009,init_hover,none,-,0,,,2,1.160933794765866,0.7551486802395598,2.828536963101556,2.8552848584695387,60,254355.00000000003,85,85.0,0,0,5,0,0,0,2.0,10.0,-1017.0
1777581326.08041,init_hover,none,-,0,,,2,1.1252567527694874,0.8665954639774548,2.806861392927882,2.848134733510292,60,254355.00000000003,85,85.0,0,0,5,0,0,0,2.0,10.0,-1017.0
1777581326.1301382,init_hover,none,-,0,,,2,1.1906298129694084,0.8312160093645536,2.8051058447571844,2.844451752555483,60,254365.0,85,85.5,0,-1,5,0,0,0,-10.0,25.0,-999.0
1777581326.198751,recenter,right,-,1,,,2,1.1669930863079687,0.7578296531816886,2.8274902898063403,2.854930838132498,60,254365.0,85,85.5,0,-1,5,0,0,0,-10.0,25.0,-999.0
1777581326.249119,recenter,right,-,1,,,2,1.2470096056984965,0.636653013827658,2.837463528261907,2.8580093891513987,60,254369.0,84,85.5,0,0,5,0,0,0,20.0,10.0,-993.0
1777581326.298505,recenter,right,-,1,,,2,1.246337493703629,0.7271283852761867,2.8192344392835698,2.848820451502715,60,254369.0,84,85.5,0,0,5,0,0,0,20.0,10.0,-993.0
1777581326.348257,recenter,right,-,1,,,2,1.1973611889409534,0.832479417524343,2.8037697123264373,2.843785238944997,60,254353.00000000003,84,85.5,0,0,5,0,0,0,-3.0,28.0,-1014.0
1777581326.398331,recenter,right,-,1,,,2,1.266031977017223,0.8078329367431725,2.7961073119774738,2.838189003076107,60,254353.00000000003,84,85.5,0,0,5,0,0,0,-3.0,28.0,-1014.0
1777581326.447801,recenter,right,-,1,,,2,1.1623819829798419,0.7522903865501491,2.8192553874904016,2.8458175213364916,60,254366.0,84,85.5,0,0,5,0,0,0,6.0,22.0,-980.0
1777581326.497976,recenter,right,-,1,,,2,1.1623819829798419,0.7522903865501491,2.8192553874904016,2.8458175213364916,60,254366.0,84,85.5,0,0,5,0,0,0,6.0,22.0,-980.0
1777581326.548458,recenter,right,-,1,,,2,1.2467339711365342,0.6364101182071552,2.8280447569405354,2.84861449546308,60,254361.0,84,85.5,0,0,5,0,0,0,13.0,-12.0,-980.0
1777581326.598279,recenter,right,-,1,,,2,1.2530617036867073,0.7312190205681581,2.8082645389088086,2.839030818070077,60,254361.0,84,85.5,0,0,5,0,0,0,13.0,-12.0,-980.0
1777581326.647999,recenter,right,-,1,,,2,1.2412630612012703,0.6251107924056546,2.829676514927264,2.848850981130571,60,254360.0,84,85.5,0,0,5,0,0,0,-6.0,-1.0,-1005.0
1777581326.6978931,recenter,right,-,1,,,2,1.1232951650794578,0.8643832573124606,2.7977347262946273,2.838692147119686,60,254360.0,84,85.5,0,0,5,0,0,0,-6.0,-1.0,-1005.0
1777581326.748628,recenter,right,-,1,,,2,1.2482697277385864,0.6355143806489804,2.827733341069474,2.848364571012601,60,254362.0,84,85.5,0,0,5,0,0,0,-11.0,20.0,-1008.0
1777581326.799051,recenter,right,-,1,,,2,1.166607486895895,0.7562851991660238,2.817994415628229,2.8453101279731214,60,254362.0,84,85.5,0,0,5,0,0,0,-11.0,20.0,-1008.0
1777581326.84915,recenter,right,-,1,,,2,1.245424987689227,0.7228483236970219,2.8105873166573354,2.8396946190129873,60,254367.99999999997,84,85.5,0,0,5,0,0,0,-19.0,29.0,-1022.0
1777581326.899549,recenter,right,-,1,,,2,1.245424987689227,0.7228483236970219,2.8105873166573354,2.8396946190129873,60,254367.99999999997,84,85.5,0,0,5,0,0,0,-19.0,29.0,-1022.0
1777581326.950144,recenter,right,-,1,,,2,1.2606078422683464,0.8081742887166139,2.7874237916435396,2.829179049060261,60,254361.0,84,85.5,0,0,5,0,0,0,2.0,27.0,-1003.0
1777581327.000405,recenter,right,-,1,,,2,1.2396341789621665,0.6286872338557088,2.820498374382774,2.839882650841636,60,254361.0,84,85.5,0,0,5,0,0,0,2.0,27.0,-1003.0
1777581327.050881,recenter,right,-,1,,,2,1.244409239560575,0.7254531899880443,2.8013311180577096,2.8307440167303066,60,254363.0,84,85.5,0,0,5,0,0,0,25.0,9.0,-992.0
1777581327.101491,recenter,right,-,1,,,2,1.3274766897752055,0.7198478113223701,2.7941820670734843,2.8314302090478733,60,254363.0,84,85.5,0,0,5,0,0,0,25.0,9.0,-992.0
1777581327.150155,recenter,right,-,1,,,2,1.1519384882450685,0.7483407137667832,2.811710548519913,2.8372773508657736,70,254366.0,84,84.5,0,0,5,0,0,0,-9.0,26.0,-1011.0
1777581327.200261,recenter,right,-,1,,,2,1.2455812944600124,0.7239591351451533,2.801297360758825,2.8306406689700148,70,254366.0,84,84.5,0,0,5,0,0,0,-9.0,26.0,-1011.0
1777581327.25047,recenter,right,-,1,,,2,1.1544036210588577,0.7473527860208413,2.8023520040274783,2.8280154155572332,70,254373.0,84,84.5,0,0,5,0,0,0,4.0,22.0,-989.0
1777581327.299093,recenter,right,-,1,,,2,1.2371870673302587,0.7206301667598574,2.8029289493752554,2.8311609110029505,70,254373.0,84,84.5,0,0,5,0,0,0,4.0,22.0,-989.0
1777581327.3494809,recenter,right,-,1,,,2,1.358256279273316,0.5469027247181564,2.8007633029383974,2.827402173595893,60,254369.99999999997,84,84.5,0,0,5,0,0,0,5.0,13.0,-994.0
1777581327.399586,recenter,right,-,1,,,2,1.1176529185338238,0.8609183021223507,2.7806732303590564,2.821069212994666,60,254369.99999999997,84,84.5,0,0,5,0,0,0,5.0,13.0,-994.0
1777581327.4494941,recenter,right,-,1,,,2,1.2557262076778701,0.8026873616308324,2.780183024136428,2.820810282916396,60,254362.0,84,84.5,0,0,5,0,0,0,-15.0,31.0,-1013.0
1777581327.500224,recenter,right,-,1,,,2,1.2352023950552913,0.7210438620606179,2.803424385727328,2.8315327323725556,60,254362.0,84,84.5,0,0,5,0,0,0,-15.0,31.0,-1013.0
1777581327.5506592,recenter,right,-,1,,,2,1.187549183597887,0.8274543865708672,2.787552369886868,2.826365185840076,60,254367.0,84,84.5,0,0,5,0,0,0,12.0,9.0,-984.0
1777581327.6003551,recenter,right,-,1,,,2,1.242556190940698,0.7267040846983195,2.792635186869125,2.822123376406811,60,254367.0,84,84.5,0,0,5,0,0,0,12.0,9.0,-984.0
1777581327.6501,recenter,right,-,1,,,2,1.1819716177651074,0.8243651978239452,2.779906466270067,2.8179920958026727,60,254363.0,84,84.5,0,0,5,0,0,0,28.0,-4.0,-982.0
1777581327.700566,recenter,right,-,1,,,2,1.2544430659310553,0.802442893158646,2.7808999589535093,2.8213660056366185,60,254363.0,84,84.5,0,0,5,0,0,0,28.0,-4.0,-982.0
1777581327.748964,recenter,right,-,1,,,2,1.1441037802555694,0.7467385935254,2.7949777198784456,2.820087588416507,60,254362.0,84,84.5,0,0,5,0,0,0,14.0,10.0,-991.0
1777581327.799683,recenter,right,-,1,,,2,1.2293358092134568,0.6243940814985083,2.8049223536482106,2.823213953492467,60,254362.0,84,84.5,0,0,5,0,0,0,14.0,10.0,-991.0
1777581327.849708,recenter,right,-,1,,,2,1.3239510838100899,0.6283522802751107,2.785833448054653,2.813886470508121,60,254361.0,84,84.5,0,0,5,0,0,0,-7.0,27.0,-1019.0
1777581327.899946,recenter,right,-,1,,,2,1.2492043959830554,0.7999384754681863,2.7640188872631004,2.8038997885595416,60,254361.0,84,84.5,0,0,5,0,0,0,-7.0,27.0,-1019.0
1777581327.9487581,recenter,right,-,1,,,2,1.2492043959830554,0.7999384754681863,2.7640188872631004,2.8038997885595416,60,254361.0,84,84.5,0,0,5,0,0,0,-7.0,27.0,-1019.0
1777581327.998629,recenter,right,-,1,,,2,1.2435978209341167,0.794920165571912,2.7655569336301977,2.804212365119528,60,254367.0,84,84.5,0,0,5,0,0,0,5.0,7.0,-996.0
1777581328.0485902,recenter,right,-,1,,,2,1.2435978209341167,0.794920165571912,2.7655569336301977,2.804212365119528,60,254367.0,84,84.5,0,0,5,0,0,0,5.0,7.0,-996.0
1777581328.098864,recenter,right,-,1,,,2,1.3194685857149164,0.715469345573318,2.769453789965921,2.805611409303104,60,254371.0,84,84.5,0,0,5,0,0,0,17.0,14.0,-999.0
1777581328.150319,recenter,right,-,1,,,2,1.2379874792801744,0.7222189983497792,2.7760061910977694,2.8047590798863298,60,254371.0,84,84.5,0,0,5,0,0,0,17.0,14.0,-999.0
1777581328.20007,recenter,right,-,1,,,2,1.2306744708197261,0.7168222120545141,2.777952377787242,2.805460111780752,60,254367.99999999997,84,84.5,0,0,5,0,0,0,16.0,5.0,-985.0
1777581328.25182,recenter,right,-,1,,,2,1.2306744708197261,0.7168222120545141,2.777952377787242,2.805460111780752,60,254367.99999999997,84,84.5,0,0,5,0,0,0,16.0,5.0,-985.0
1777581328.301903,recenter,right,-,1,,,2,1.2286973530937124,0.7197197338731505,2.7781045020453607,2.805777577040755,60,254362.0,83,84.5,0,0,5,0,0,0,1.0,22.0,-997.0
1777581328.3526819,recenter,right,-,1,,,2,1.3178955118759683,0.6256776198662419,2.769542588927471,2.7968471707375175,60,254362.0,83,84.5,0,0,5,0,0,0,1.0,22.0,-997.0
1777581328.4037151,recenter,right,-,1,,,2,1.2214153745418936,0.6229573190080595,2.7885310061696917,2.806178879999018,60,254361.0,83,84.5,0,0,5,0,0,0,-1.0,26.0,-992.0
1777581328.453724,recenter,right,-,1,,,2,1.2155380700815392,0.6193334971768041,2.7809764308258553,2.7979266880043863,60,254361.0,83,84.5,0,0,5,0,0,0,-1.0,26.0,-992.0
1777581328.504029,recenter,right,-,1,,,2,1.2155380700815392,0.6193334971768041,2.7809764308258553,2.7979266880043863,60,254363.0,83,84.5,0,0,5,0,0,0,19.0,11.0,-988.0
1777581328.5547001,recenter,right,-,1,,,2,1.2246302571241972,0.7162518777763288,2.761442023794635,2.7885544738074866,60,254363.0,83,84.5,0,0,5,0,0,0,19.0,11.0,-988.0
1777581328.604852,recenter,right,-,1,,,2,1.2317197057179214,0.7208077220906022,2.759822713680687,2.788051833721675,60,254362.0,83,84.5,0,0,5,0,0,0,-1.0,14.0,-980.0
1777581328.655371,recenter,right,-,1,,,2,1.309610711090668,0.7098069607606838,2.7457756416018846,2.780489708553528,60,254362.0,83,84.5,0,0,5,0,0,0,-1.0,14.0,-980.0
1777581328.7052338,recenter,right,-,1,,,2,1.2277720789968123,0.7167702624196842,2.75208040621372,2.779598906567176,60,254369.0,83,84.5,0,0,5,0,0,0,-2.0,2.0,-994.0
1777581328.755904,recenter,right,-,1,,,2,1.3126448104550135,0.6242565956604182,2.7531749887590258,2.7799299122333845,60,254369.0,83,84.5,0,0,5,0,0,0,-2.0,2.0,-994.0
1777581328.806132,recenter,right,-,1,,,2,1.3119659241900248,0.7820228205957414,2.7273336854693286,2.771572334471423,60,254357.00000000003,83,84.5,0,0,5,0,0,0,-9.0,27.0,-996.0
1777581328.85636,recenter,right,-,1,,,2,1.3055602767567032,0.705319474306189,2.7382098479577452,2.772071470141962,60,254357.00000000003,83,84.5,0,0,5,0,0,0,-9.0,27.0,-996.0
1777581328.906712,recenter,right,-,1,,,2,1.3055602767567032,0.705319474306189,2.7382098479577452,2.772071470141962,60,254364.0,83,84.5,0,0,5,0,0,0,-16.0,11.0,-1008.0
1777581328.957417,recenter,right,-,1,,,2,1.2224482324475445,0.7138144895980598,2.744587439755841,2.7714117277059813,60,254364.0,83,84.5,0,0,5,0,0,0,-16.0,11.0,-1008.0
1777581329.00815,recenter,right,-,1,,,2,1.2224482324475445,0.7138144895980598,2.744587439755841,2.7714117277059813,60,254363.0,83,84.5,0,0,5,0,0,0,-10.0,15.0,-998.0
1777581329.056472,recenter,right,-,1,,,2,1.306656197602177,0.7078983408349494,2.7288951160569885,2.7632784814883253,60,254364.0,83,84.5,0,0,5,0,0,0,8.0,9.0,-977.0
1777581329.1072571,recenter,right,-,1,,,2,1.306656197602177,0.7078983408349494,2.7288951160569885,2.7632784814883253,60,254364.0,83,84.5,0,0,5,0,0,0,8.0,9.0,-977.0
1777581329.1574788,recenter,right,-,1,,,2,1.223343636911721,0.7156189384487446,2.735361725020501,2.7625534313680884,60,254364.0,83,84.5,0,0,5,0,0,0,8.0,9.0,-977.0
1777581329.206078,recenter,right,-,1,,,2,1.2175555936833937,0.7120366950285135,2.7365265247570996,2.762838170448356,60,254357.00000000003,83,85.0,0,0,5,0,0,0,-3.0,26.0,-968.0
1777581329.253262,recenter,right,-,1,,,2,1.3087231737516762,0.708949815391833,2.7195413107685074,2.7543901189589044,60,254357.00000000003,83,85.0,0,0,5,0,0,0,-3.0,26.0,-968.0
1777581329.30462,recenter,right,-,1,,,2,1.2225202730625173,0.7121584809033688,2.718611209635792,2.745506346428851,60,254360.0,83,85.0,1,0,5,0,0,0,-27.0,33.0,-1029.0
1777581329.352718,recenter,right,-,1,,,2,1.1653462092561608,0.8101959747312111,2.7053284676468197,2.7412410007989743,60,254360.0,83,85.0,1,0,5,0,0,0,-27.0,33.0,-1029.0
1777581329.399439,recenter,right,-,1,,,2,1.237149184130206,0.7873136506856807,2.6979287648953703,2.7358858199842606,60,254366.0,83,85.0,0,0,5,0,0,0,-4.0,19.0,-1021.0
1777581329.446532,recenter,right,-,1,,,2,1.2378474225297718,0.7862091391985587,2.697737801440806,2.7356019704860612,60,254364.0,83,85.0,0,0,5,0,0,0,15.0,25.0,-987.0
1777581329.493226,recenter,right,-,1,,,2,1.2378474225297718,0.7862091391985587,2.697737801440806,2.7356019704860612,60,254364.0,83,85.0,0,0,5,0,0,0,15.0,25.0,-987.0
1777581329.542948,recenter,right,-,1,,,2,1.238539362168273,0.7851221108744698,2.697547887009227,2.735321675835586,60,254371.0,83,85.0,0,-1,5,0,0,0,-3.0,10.0,-996.0
1777581329.590307,recenter,right,-,1,,,2,1.2269957795577537,0.7105940970018232,2.708789385946258,2.7359707078922675,60,254371.0,83,85.0,0,-1,5,0,0,0,-3.0,10.0,-996.0
1777581329.642137,recenter,right,-,1,,,2,1.2269957795577537,0.7105940970018232,2.708789385946258,2.7359707078922675,60,254365.0,83,85.0,0,-1,5,0,0,0,2.0,1.0,-984.0
1777581329.693316,recenter,right,-,1,,,2,1.2221812583930578,0.7052771588223333,2.7100444548218614,2.73621994773638,60,254365.0,83,85.0,0,-1,5,0,0,0,2.0,1.0,-984.0
1777581329.743714,recenter,right,-,1,,,2,1.2205220962802543,0.7068256423729888,2.7099400474444475,2.736155520161207,60,254358.0,83,85.0,0,0,5,0,0,0,11.0,21.0,-990.0
1777581329.7939231,recenter,right,-,1,,,2,1.3037222475638965,0.7013040155278736,2.694763908194719,2.7285131178624304,60,254358.0,83,85.0,0,0,5,0,0,0,11.0,21.0,-990.0
1777581329.845321,recenter,right,-,1,,,2,1.305771802853253,0.7033679205364581,2.685352079495595,2.719677238475562,60,254362.0,83,85.0,0,0,5,0,0,0,-18.0,31.0,-1000.0
1777581329.896539,recenter,right,-,1,,,2,1.212842042519566,0.6114076803110774,2.7116495519252504,2.728193218013494,60,254362.0,83,85.0,0,0,5,0,0,0,-18.0,31.0,-1000.0
1777581329.948622,recenter,right,-,1,,,2,1.1400559468886275,0.7308051503814557,2.7009111697671226,2.72469610466022,60,254365.0,83,85.0,0,0,5,0,0,0,19.0,-2.0,-989.0
1777581329.997599,recenter,right,-,1,,,2,1.240489660099619,0.7805877751783818,2.680074844953242,2.717624607222492,60,254365.0,83,85.0,0,0,5,0,0,0,19.0,-2.0,-989.0
1777581330.04915,recenter,right,-,1,,,2,1.2383345486933341,0.782169226048713,2.679925248783431,2.7175091561035196,60,254359.0,83,85.0,0,0,5,0,0,0,17.0,-2.0,-996.0
1777581330.1000068,recenter,right,-,1,,,2,1.3035873735717902,0.6985120610137577,2.677557015107218,2.711196472613664,60,254359.0,83,85.0,0,0,5,0,0,0,17.0,-2.0,-996.0
1777581330.148832,recenter,right,-,1,,,2,1.3036292721611304,0.6995291579537783,2.6772234721078374,2.7109839488611405,60,254361.0,83,84.5,0,0,5,0,0,0,-13.0,40.0,-1019.0
1777581330.198899,recenter,right,-,1,,,2,1.3036292721611304,0.6995291579537783,2.6772234721078374,2.7109839488611405,60,254361.0,83,84.5,0,0,5,0,0,0,-13.0,40.0,-1019.0
1777581330.248599,recenter,right,-,1,,,2,1.2255316480888792,0.7049262348954785,2.683571293458727,2.710239734800773,60,254367.99999999997,82,84.5,0,0,5,0,0,0,35.0,7.0,-994.0
1777581330.298891,recenter,right,-,1,,,2,1.2384801486853434,0.7779725866955982,2.663927510469716,2.7011563891503436,60,254367.99999999997,82,84.5,0,0,5,0,0,0,35.0,7.0,-994.0
1777581330.349195,recenter,right,-,1,,,2,1.1741166865920976,0.8019292345755086,2.6703541312511723,2.7060404498910335,60,254358.0,82,84.5,0,0,5,0,0,0,-25.0,22.0,-1018.0
1777581330.3994062,recenter,right,-,1,,,2,1.1706546604015187,0.7985169034070327,2.6630170397464994,2.6980731067556523,60,254358.0,82,84.5,0,0,5,0,0,0,-25.0,22.0,-1018.0
1777581330.449997,recenter,right,-,1,,,2,1.3087999313159007,0.6202820461444761,2.6751174218184564,2.7018761625860885,60,254364.0,82,84.5,0,0,5,0,0,0,6.0,12.0,-1002.0
1777581330.4998112,recenter,right,-,1,,,2,1.3087999313159007,0.6202820461444761,2.6751174218184564,2.7018761625860885,60,254364.0,82,84.5,0,0,5,0,0,0,6.0,12.0,-1002.0
1777581330.549592,recenter,right,-,1,,,2,1.2392090519822634,0.7792545039310785,2.655102322904617,2.6926981439433115,60,254364.0,82,84.5,0,0,5,0,0,0,6.0,12.0,-1002.0
1777581330.5994291,recenter,right,-,1,,,2,1.235264022194179,0.7753557500696683,2.647998029107777,2.684796949753932,60,254363.0,82,84.5,0,0,5,0,0,0,8.0,-6.0,-1001.0
1777581330.649359,recenter,right,-,1,,,2,1.235264022194179,0.7753557500696683,2.647998029107777,2.684796949753932,60,254363.0,82,84.5,0,0,5,0,0,0,8.0,-6.0,-1001.0
1777581330.698622,recenter,right,-,1,,,2,1.2279324589722451,0.7025760784084423,2.6584570979706625,2.685311831208578,60,254373.99999999997,82,84.5,0,0,5,0,0,0,5.0,6.0,-997.0
1777581330.749098,recenter,right,-,1,,,2,1.2212289081052963,0.6987988043494195,2.651799279317654,2.6777345598568454,60,254373.99999999997,82,84.5,0,0,5,0,0,0,5.0,6.0,-997.0
1777581330.7980611,recenter,right,-,1,,,2,1.2981120315569248,0.6931419842195266,2.645613347705603,2.67844600315728,60,254361.0,82,84.5,0,0,5,0,0,0,-9.0,17.0,-1012.0
1777581330.847834,recenter,right,-,1,,,2,1.2356742902065654,0.7686120685379099,2.6322499552094425,2.6683622420571536,60,254361.0,82,84.5,0,0,5,0,0,0,-9.0,17.0,-1012.0
1777581330.897964,recenter,right,-,1,,,2,1.1669189731096616,0.789796289887095,2.6315330466470286,2.665477305622601,60,254363.0,82,84.5,0,0,5,0,0,0,-3.0,13.0,-978.0
1777581330.9482958,recenter,right,-,1,,,2,1.220949033958301,0.6968123839094956,2.6518654382435414,2.6775560441192923,60,254363.0,82,84.5,0,0,5,0,0,0,-3.0,13.0,-978.0
1777581330.997052,recenter,right,-,1,,,2,1.2946760138650961,0.6897127152307777,2.6298909281007465,2.6621595940552507,60,254362.0,82,84.5,0,0,5,0,0,0,14.0,0.0,-990.0
1777581331.047013,recenter,right,-,1,,,2,1.2996023798233978,0.6083676141552405,2.636264295551544,2.661403405089967,60,254362.0,82,84.5,0,0,5,0,0,0,14.0,0.0,-990.0
1777581331.096782,recenter,right,-,1,,,2,1.1640137178713423,0.7850406085231163,2.616291772845318,2.649554568322745,60,254365.0,82,84.5,0,0,5,0,0,0,-8.0,10.0,-997.0
1777581331.145719,recenter,right,-,1,,,2,1.29287005426096,0.684385771138932,2.614406617184757,2.6460858065241473,60,254365.0,82,84.5,0,0,5,0,0,0,-8.0,10.0,-997.0
1777581331.195235,recenter,right,-,1,,,2,1.1870971181436138,0.842398703577592,2.595938510736303,2.6400035409197073,60,254367.99999999997,82,84.5,0,0,5,0,0,0,18.0,-17.0,-1004.0
1777581331.2427,recenter,right,-,1,,,2,1.2894796620693614,0.6786086895622476,2.6074799647298406,2.638251891521906,60,254367.99999999997,82,84.5,0,0,5,0,0,0,18.0,-17.0,-1004.0
1777581331.289716,recenter,right,-,1,,,2,1.1616990110371155,0.7792246076549134,2.6011363010402753,2.6336036014956554,60,254366.0,82,84.5,0,0,5,0,0,0,-1.0,17.0,-993.0
1777581331.337386,recenter,right,-,1,,,2,1.2895280151117856,0.6800835842537726,2.5993764976817393,2.6304051897765097,60,254366.0,82,84.5,0,0,5,0,0,0,-1.0,17.0,-993.0
1777581331.3843358,recenter,right,-,1,,,2,1.2873377071819037,0.7397833146179832,2.584708776741928,2.622734283038999,60,254373.0,82,84.5,0,0,5,0,0,0,2.0,16.0,-981.0
1777581331.433481,recenter,right,-,1,,,2,1.1817130174328656,0.8327097147395597,2.5743693997134978,2.61679864034583,60,254373.0,82,84.5,0,0,5,0,0,0,2.0,16.0,-981.0
1777581331.4822872,recenter,right,-,1,,,2,1.2864059735184512,0.6768063968655705,2.584189357932495,2.6147054902348583,60,254367.0,82,84.5,0,0,5,0,0,0,-2.0,-4.0,-1007.0
1777581331.5331042,recenter,right,-,1,,,2,1.2229060607023832,0.7505543533399581,2.572190410646536,2.6055208644655763,60,254367.0,82,84.5,0,0,5,0,0,0,-2.0,-4.0,-1007.0
1777581331.5814312,recenter,right,-,1,,,2,1.2832370771043367,0.6711930706499282,2.577351308017061,2.6070114476834196,60,254365.0,82,84.5,0,-1,5,0,0,0,-22.0,13.0,-1027.0
1777581331.63309,recenter,right,-,1,,,2,1.2086542409591854,0.6753355616085843,2.575697698935169,2.5987621861294836,60,254365.0,82,84.5,0,-1,5,0,0,0,-22.0,13.0,-1027.0
1777581331.684989,recenter,right,-,1,,,2,1.2343034046176262,0.8044580931608156,2.538813738075348,2.5814839978544937,60,254363.0,82,84.5,0,-1,5,0,0,0,-3.0,8.0,-1015.0
1777581331.7364302,recenter,right,-,1,,,2,1.2825830246559728,0.6668292797989667,2.5544150978164364,2.5838125942750394,60,254363.0,82,84.5,0,-1,5,0,0,0,-3.0,8.0,-1015.0
1777581331.787151,recenter,right,-,1,,,2,1.2193606357657896,0.7403932762404459,2.542719381228406,2.574763779982126,60,254360.0,82,84.5,0,-1,5,0,0,0,-13.0,36.0,-1022.0
1777581331.837416,recenter,right,-,1,,,2,1.2165800946208973,0.736039526831771,2.5359848537472542,2.5673037762241537,60,254360.0,82,84.5,0,-1,5,0,0,0,-13.0,36.0,-1022.0
1777581331.887351,recenter,right,-,1,,,2,1.2853177981688884,0.7246688135569456,2.5235316853018688,2.5602789401100234,60,254353.00000000003,82,84.5,0,0,5,0,0,0,-3.0,21.0,-998.0
1777581331.9368918,recenter,right,-,1,,,2,1.218769496170795,0.734986315725346,2.527909843421722,2.559375724790422,60,254353.00000000003,82,84.5,0,0,5,0,0,0,-3.0,21.0,-998.0
1777581331.986803,recenter,right,-,1,,,2,1.1780919844101065,0.8083409322590477,2.508371420038722,2.5476236481741945,60,254361.0,82,84.5,0,0,5,0,0,0,-29.0,17.0,-1004.0
1777581332.037428,recenter,right,-,1,,,2,1.2198422187374318,0.7289770775061153,2.5130984924965323,2.5440559254175614,60,254361.0,82,84.5,0,0,5,0,0,0,-29.0,17.0,-1004.0
1777581332.087959,recenter,right,-,1,,,2,1.2284459364286278,0.7830484921486284,2.4962433450236907,2.5357729651495133,60,254359.0,82,84.5,0,0,5,0,0,0,-15.0,16.0,-1014.0
1777581332.138002,recenter,right,-,1,,,2,1.2175290943851111,0.7240336933046588,2.5062920891321263,2.5364969499975634,60,254359.0,82,84.5,0,0,5,0,0,0,-15.0,16.0,-1014.0
1777581332.187544,recenter,right,-,1,,,2,1.2338375414549558,0.7800808785596005,2.4805013696612637,2.520323097329336,60,254361.0,82,84.0,0,0,5,0,0,0,-2.0,10.0,-969.0
1777581332.218982,pre_hover,right,x,1,,,2,1.281358250519559,0.7120793990881863,2.4798341273169124,2.515180573135119,60,254361.0,82,84.0,0,0,5,0,0,0,-2.0,10.0,-969.0
1777581332.2678258,pre_hover,right,x,1,,,2,1.2357513705193963,0.7796752166654002,2.4652375114366047,2.5054197186590987,60,254361.0,82,84.0,0,0,5,0,0,0,-2.0,10.0,-969.0
1777581332.31802,pre_hover,right,x,1,,,2,1.1765830513381657,0.7923459428539554,2.4658733022614308,2.503127654695131,70,254365.0,81,84.0,0,0,5,0,0,0,-7.0,12.0,-1001.0
1777581332.368347,pre_hover,right,x,1,,,2,1.219804925603021,0.7138532105606896,2.4695948585485423,2.4991432148774497,70,254365.0,81,84.0,0,0,5,0,0,0,-7.0,12.0,-1001.0
1777581332.418706,pre_hover,right,x,1,,,2,1.2234452544639947,0.7137497880730096,2.4616640458105317,2.49161726308328,70,254361.0,81,84.0,0,0,5,0,0,0,12.0,28.0,-988.0
1777581332.468839,pre_hover,right,x,1,,,2,1.2295641909170816,0.7673316353654434,2.4388614766932513,2.47702998580761,70,254361.0,81,84.0,0,0,5,0,0,0,12.0,28.0,-988.0
1777581332.5188081,pre_hover,right,x,1,,,2,1.1929099488242527,0.8312489221156707,2.4207500680842964,2.466418612748336,70,254367.0,81,84.0,1,0,5,0,0,0,1.0,4.0,-998.0
1777581332.569067,pre_hover,right,x,1,,,2,1.2281474517485929,0.7632112017767124,2.4254193939526383,2.4630535668955806,70,254367.0,81,84.0,1,0,5,0,0,0,1.0,4.0,-998.0
1777581332.6191812,pre_hover,right,x,1,,,2,1.1931887714152933,0.8251693381142047,2.4075191375909792,2.4523945982121704,70,254358.0,81,84.0,1,-1,5,0,0,0,9.0,-1.0,-959.0
1777581332.6690612,pre_hover,right,x,1,,,2,1.2284238366618345,0.757903123598621,2.4118788610627626,2.4489654418709894,70,254358.0,81,84.0,1,-1,5,0,0,0,9.0,-1.0,-959.0
1777581332.718357,pre_hover,right,x,1,,,2,1.2243449797300683,0.7549387113517902,2.4060189639648826,2.442383961154511,70,254367.0,81,84.0,1,0,5,0,0,0,-10.0,17.0,-992.0
1777581332.767892,pre_hover,right,x,1,,,2,1.1668797342919,0.8787944919710229,2.3735038788487826,2.427058646627506,70,254367.0,81,84.0,1,0,5,0,0,0,-10.0,17.0,-992.0
1777581332.8172648,pre_hover,right,x,1,,,2,1.1914200959711292,0.816265700253521,2.3813079913242885,2.424983821779862,70,254367.0,81,84.0,0,0,5,0,0,0,-12.0,18.0,-988.0
1777581332.867126,pre_hover,right,x,1,,,2,1.1871588469117718,0.8141402951595406,2.3755231570979376,2.4186051533809168,70,254367.0,81,84.0,0,0,5,0,0,0,-12.0,18.0,-988.0
1777581332.916024,pre_hover,right,x,1,,,2,1.2216635251963646,0.7481281971731699,2.3799163534105126,2.4154357390128003,70,254364.0,81,84.0,0,0,5,0,0,0,-11.0,9.0,-993.0
1777581332.965842,pre_hover,right,x,1,,,2,1.190852661752441,0.8122589463370427,2.3616058285021433,2.4049042115120125,70,254364.0,81,84.0,0,0,5,0,0,0,-11.0,9.0,-993.0
1777581333.015517,pre_hover,right,x,1,,,2,1.1607991170133527,0.8681815051810674,2.342451749410183,2.394186808948022,70,254373.99999999997,81,84.0,0,0,5,0,0,0,-11.0,15.0,-1009.0
1777581333.065689,pre_hover,right,x,1,,,2,1.2055539726328668,0.8488005519345927,2.33254028657693,2.3842018705609505,70,254360.0,81,84.0,0,0,5,0,0,0,7.0,-9.0,-993.0
1777581333.115139,pre_hover,right,x,1,,,2,1.2013487846549546,0.8466035048823122,2.327031508505243,2.3780394582999205,70,254360.0,81,84.0,0,0,5,0,0,0,7.0,-9.0,-993.0
1777581333.164524,pre_hover,right,x,1,,,2,1.241957635285181,0.829032133158187,2.3159835860702724,2.3677820929093074,70,254360.0,81,84.0,0,0,5,0,0,0,7.0,-9.0,-993.0
1777581333.213662,pre_hover,right,x,1,,,2,1.1863003175897844,0.801755022617876,2.324522746083702,2.3663306834830284,70,254373.99999999997,81,84.0,0,0,5,0,0,0,2.0,19.0,-983.0
1777581333.2611148,pre_hover,right,x,1,,,2,1.1833864217578267,0.7987955295988991,2.3190189815427296,2.3601943756539807,70,254373.99999999997,81,84.0,0,0,5,0,0,0,2.0,19.0,-983.0
1777581333.309119,pre_hover,right,x,1,,,2,1.2180319568601359,0.7360348501670271,2.3163833390744037,2.350763520280277,70,254380.00000000003,81,84.0,0,0,5,0,0,0,-12.0,23.0,-993.0
1777581333.355523,pre_hover,right,x,1,,,2,1.1387326394700892,0.8134167707582126,2.3036061525244116,2.344517322935962,70,254380.00000000003,81,84.0,0,0,5,0,0,0,-12.0,23.0,-993.0
1777581333.404573,pre_hover,right,x,1,,,2,1.1563339896999605,0.8471987794713667,2.2762817988542907,2.3250561052352077,70,254367.0,81,84.0,2,-1,5,0,0,0,-11.0,22.0,-1017.0
1777581333.4519308,pre_hover,right,x,1,,,2,1.1796002475216085,0.7882729994719693,2.2834041230640905,2.32313291919659,70,254367.0,81,84.0,2,-1,5,0,0,0,-11.0,22.0,-1017.0
1777581333.4986749,pre_hover,right,x,1,,,2,1.2322005219898196,0.8117435380922873,2.2573558292948395,2.3063185303909113,70,254373.0,81,84.0,1,0,5,0,0,0,-12.0,11.0,-1002.0
1777581333.545962,pre_hover,right,x,1,,,2,1.2322005219898196,0.8117435380922873,2.2573558292948395,2.3063185303909113,70,254373.0,81,84.0,1,0,5,0,0,0,-12.0,11.0,-1002.0
1777581333.5945961,pre_hover,right,x,1,,,2,1.1910477885262987,0.8202900593217054,2.2450317959724018,2.292010199888408,70,254366.0,81,84.0,1,0,5,0,0,0,-12.0,33.0,-1038.0
1777581333.643422,pre_hover,right,x,1,,,2,1.2183327418077137,0.7649626140407305,2.255665990872018,2.295407579966869,70,254366.0,81,84.0,1,0,5,0,0,0,-12.0,33.0,-1038.0
1777581333.694718,pre_hover,right,x,1,,,2,1.2189040725600107,0.7657351600205148,2.249293133429513,2.289323218846947,70,254369.99999999997,81,84.0,0,0,5,0,0,0,-4.0,17.0,-1017.0
1777581333.745093,pre_hover,right,x,1,,,2,1.1898021880962693,0.8169015106153517,2.227483516872358,2.274096426736901,70,254369.99999999997,81,84.0,0,0,5,0,0,0,-4.0,17.0,-1017.0
1777581333.796253,pre_hover,right,x,1,,,2,1.1506229250093032,0.8285668933682202,2.2194327717356668,2.2654444764513455,70,254366.0,81,84.0,0,-1,5,0,0,0,12.0,11.0,-1021.0
1777581333.846627,pre_hover,right,x,1,,,2,1.1907037036085986,0.8118011856239568,2.2163945582590534,2.262377721984478,70,254366.0,81,84.0,0,-1,5,0,0,0,12.0,11.0,-1021.0
1777581333.897175,pre_hover,right,x,1,,,2,1.1682235343156007,0.8593813336839375,2.193073453072754,2.2469760875023392,70,254360.0,81,84.0,1,0,5,0,0,0,-1.0,3.0,-1005.0
1777581333.947082,pre_hover,right,x,1,,,2,1.1625871242249266,0.8551074422968441,2.1889614228468575,2.241675593771196,70,254360.0,81,84.0,1,0,5,0,0,0,-1.0,3.0,-1005.0
1777581333.996994,pre_hover,right,x,1,,,2,1.1840964003566694,0.8026310859082111,2.1898473437796695,2.2341518894253323,70,254362.0,81,84.0,1,-1,5,0,0,0,14.0,21.0,-993.0
1777581334.0460649,pre_hover,right,x,1,,,2,1.1840964003566694,0.8026310859082111,2.1898473437796695,2.2341518894253323,70,254362.0,81,84.0,1,-1,5,0,0,0,14.0,21.0,-993.0
1777581334.095262,pre_hover,right,x,1,,,2,1.1840964003566694,0.8026310859082111,2.1898473437796695,2.2341518894253323,70,254362.0,81,84.0,1,-1,5,0,0,0,14.0,21.0,-993.0
1777581334.145376,pre_hover,right,x,1,,,2,1.1868156277737494,0.8012823039388969,2.1838603534482983,2.2282669520500304,70,254369.0,81,84.0,1,-1,5,0,0,0,-8.0,22.0,-995.0
1777581334.1958551,pre_hover,right,x,1,,,2,1.1851364645159959,0.7981642505215925,2.1733040060872657,2.2172191104538723,70,254359.0,81,83.5,1,-1,5,0,0,0,-2.0,18.0,-1016.0
1777581334.245721,pre_hover,right,x,1,,,2,1.1851364645159959,0.7981642505215925,2.1733040060872657,2.2172191104538723,70,254359.0,81,83.5,1,-1,5,0,0,0,-2.0,18.0,-1016.0
1777581334.294791,pre_hover,right,x,1,,,2,1.2502549886019851,0.7351114468195556,2.1705924046858978,2.210519990497662,70,254369.0,80,83.5,0,-1,5,0,0,0,15.0,2.0,-988.0
1777581334.344345,pre_hover,right,x,1,,,2,1.2179402240684432,0.7810865291820073,2.1588677977916806,2.2030513049706517,70,254369.0,80,83.5,0,-1,5,0,0,0,15.0,2.0,-988.0
1777581334.393078,pre_hover,right,x,1,,,2,1.2179181976927416,0.7813723449903104,2.153102664999092,2.1974494971296274,70,254371.0,80,83.5,0,0,5,0,0,0,-10.0,25.0,-1004.0
1777581334.442862,pre_hover,right,x,1,,,2,1.1940074896157777,0.8249970553949237,2.1385143333348853,2.188950652024874,70,254371.0,80,83.5,0,0,5,0,0,0,-10.0,25.0,-1004.0
1777581334.492982,pre_hover,right,x,1,,,2,1.1905205742879363,0.8231663021309462,2.133868824910925,2.1837499789153787,70,254359.0,80,83.5,0,0,5,0,0,0,23.0,5.0,-1002.0
1777581334.543458,pre_hover,right,x,1,,,2,1.1887780649458926,0.8196739976355987,2.1293825269012694,2.1785392739100655,70,254359.0,80,83.5,0,0,5,0,0,0,23.0,5.0,-1002.0
1777581334.593219,pre_hover,right,x,1,,,2,1.2123043213184825,0.7727738494627416,2.1279732665417144,2.170784118886534,70,254359.0,80,83.5,0,0,5,0,0,0,23.0,5.0,-1002.0
1777581334.642546,pre_hover,right,x,1,,,2,1.1891906698925125,0.8197232528151296,2.123703891299633,2.173034499599418,70,254358.0,80,83.5,1,0,5,0,0,0,21.0,0.0,-993.0
1777581334.692218,pre_hover,right,x,1,,,2,1.2131220859539802,0.7718755180014867,2.128018874096447,2.170754880893041,70,254366.0,80,83.5,1,-1,5,0,0,0,9.0,28.0,-997.0
1777581334.740267,pre_hover,right,x,1,,,2,1.2484660124741476,0.7606696181214248,2.116628691341019,2.1614659261248264,70,254366.0,80,83.5,1,-1,5,0,0,0,9.0,28.0,-997.0
1777581334.790337,pre_hover,right,x,1,,,2,1.2123932413491474,0.7684822484278209,2.1176146112513234,2.1599031687004655,70,254366.0,80,83.5,1,-1,5,0,0,0,9.0,28.0,-997.0
1777581334.839891,pre_hover,right,x,1,,,2,1.1880155278670408,0.8116794583201247,2.103563923652748,2.1516995598863744,70,254365.0,80,83.5,1,-1,5,0,0,0,-23.0,20.0,-1032.0
1777581334.890352,pre_hover,right,x,1,,,2,1.1582238423052278,0.8268675224113704,2.105482594911832,2.15413732696876,70,254365.0,80,83.5,1,-1,5,0,0,0,-23.0,20.0,-1032.0
1777581334.9408152,pre_hover,right,x,1,,,2,1.1993057535205374,0.8413159903117348,2.090051909358489,2.1454136129204278,70,254366.0,80,83.5,0,-1,5,0,0,0,-12.0,20.0,-1020.0
1777581334.990528,pre_hover,right,x,1,,,2,1.1860493078473402,0.8092330569563293,2.0988570802632998,2.1464591967302056,70,254366.0,80,83.5,0,-1,5,0,0,0,-12.0,20.0,-1020.0
1777581335.040659,pre_hover,right,x,1,,,2,1.1756485321144003,0.7762811700192442,2.1066298651360267,2.147167742498948,70,254359.0,80,83.5,0,-1,5,0,0,0,13.0,8.0,-1000.0
1777581335.090883,pre_hover,right,x,1,,,2,1.2130061884712047,0.7651192191890284,2.1016543430534878,2.1437431418488138,70,254359.0,80,83.5,0,-1,5,0,0,0,13.0,8.0,-1000.0
1777581335.1411011,pre_hover,right,x,1,,,2,1.221737733189343,0.797709848292016,2.088600209278258,2.1376603050872207,70,254376.00000000003,80,83.5,1,-1,5,0,0,0,0.0,21.0,-1002.0
1777581335.191024,pre_hover,right,x,1,,,2,1.1994312226830948,0.8370916597774885,2.07466187895391,2.1295642379633635,70,254376.00000000003,80,83.5,1,-1,5,0,0,0,0.0,21.0,-1002.0
1777581335.2387042,response,right,x,1,1777581335.238581,0.0001232624053955078,2,1.1782245085180663,0.7761440080204112,2.0953190300213933,2.1362607817810906,70,254359.0,80,83.5,1,-1,5,0,0,0,-12.0,34.0,-1012.0
1777581335.285268,response,right,x,1,1777581335.238581,0.04668712615966797,2,1.1868247738040432,0.8054080066222841,2.083140202046915,2.1304300620589376,70,254359.0,80,83.5,1,-1,5,0,0,0,-12.0,34.0,-1012.0
1777581335.332286,response,right,x,1,1777581335.238581,0.0937049388885498,2,1.1868247738040432,0.8054080066222841,2.083140202046915,2.1304300620589376,70,254364.0,80,83.5,1,-1,5,0,0,0,-4.0,22.0,-999.0
1777581335.3794482,response,right,x,1,1777581335.238581,0.1408672332763672,2,1.1550139587257107,0.8181735968765247,2.080532681896587,2.1277957432432917,70,254364.0,80,83.5,1,-1,5,0,0,0,-4.0,22.0,-999.0
1777581335.428436,response,right,x,1,1777581335.238581,0.18985509872436523,2,1.1882018229476297,0.8050330866597166,2.0776074100861677,2.125070417161479,70,254371.99999999997,80,83.5,0,0,5,0,0,0,-18.0,18.0,-994.0
1777581335.475378,response,right,x,1,1777581335.238581,0.23679709434509277,2,1.137722104666007,0.7858577758912157,2.0888479068964716,2.1286472651604633,70,254371.99999999997,80,83.5,0,0,5,0,0,0,-18.0,18.0,-994.0
1777581335.523459,response,right,x,1,1777581335.238581,0.2848780155181885,2,1.203330654819576,0.7246311421674382,2.093617646663652,2.1283711105152086,70,254366.0,80,83.5,-1,4,5,0,0,0,14.0,14.0,-1003.0
1777581335.574251,response,right,x,1,1777581335.238581,0.33566999435424805,2,1.1532720953108813,0.8157725529075205,2.070660645796171,2.117544488553013,70,254366.0,80,83.5,-1,4,5,0,0,0,14.0,14.0,-1003.0
1777581335.621778,response,right,x,1,1777581335.238581,0.3831970691680908,2,1.1532720953108813,0.8157725529075205,2.070660645796171,2.117544488553013,70,254369.99999999997,80,83.5,0,3,5,0,1,0,5.0,25.0,-1006.0
1777581335.673972,response,right,x,1,1777581335.238581,0.4353909492492676,2,1.1375104697627088,0.7810615372849581,2.0745134238366614,2.113698883514595,70,254369.99999999997,80,83.5,0,3,5,0,1,0,5.0,25.0,-1006.0
1777581335.7249541,response,right,x,1,1777581335.238581,0.4863731861114502,2,1.2085783641841474,0.7562880112947916,2.072360769444874,2.113084295462981,70,254363.0,80,83.5,0,1,5,0,2,0,25.0,1.0,-983.0
1777581335.774654,response,right,x,1,1777581335.238581,0.5360729694366455,2,1.1703249628208394,0.7623074284574749,2.0686327714053934,2.1070165658123687,70,254363.0,80,83.5,0,1,5,0,2,0,25.0,1.0,-983.0
1777581335.825968,response,right,x,1,1777581335.238581,0.5873870849609375,2,1.215833483269339,0.7819771293136784,2.051973672579671,2.0983533002759565,70,254356.0,80,83.5,0,0,5,0,2,0,2.0,16.0,-996.0
1777581335.8761752,response,right,x,1,1777581335.238581,0.6375942230224609,2,1.2139170718314531,0.7767751309854696,2.0492363349494678,2.0945380324613803,70,254356.0,80,83.5,0,0,5,0,2,0,2.0,16.0,-996.0
1777581335.926209,response,right,x,1,1777581335.238581,0.6876280307769775,2,1.2230782718565998,0.804277798388825,2.0376357240090357,2.0892974411037,70,254356.0,80,83.5,0,0,5,0,2,0,-25.0,18.0,-1030.0
1777581335.977582,response,right,x,1,1777581335.238581,0.7390010356903076,2,1.2223164667414295,0.7984416269062522,2.030103850622196,2.080745536039225,70,254356.0,80,83.5,0,0,5,0,2,0,-25.0,18.0,-1030.0
1777581336.028508,response,right,x,1,1777581335.238581,0.7899270057678223,2,1.2160926122757403,0.7663154045001386,2.038327376126223,2.082225128299019,70,254358.0,80,83.5,0,0,5,0,2,0,-3.0,2.0,-992.0
1777581336.0791261,response,right,x,1,1777581335.238581,0.8405451774597168,2,1.253876095533427,0.7819811338047871,2.023638414229186,2.074963876796438,70,254356.0,80,83.5,0,0,5,0,2,0,9.0,-3.0,-1004.0
1777581336.1286888,response,right,x,1,1777581335.238581,0.8901078701019287,2,1.2598088173344042,0.8076096368085042,2.0132546866855847,2.07046870805751,70,254356.0,80,83.5,0,0,5,0,2,0,9.0,-3.0,-1004.0
1777581336.1785831,response,right,x,1,1777581335.238581,0.9400022029876709,2,1.2602288798861476,0.8003944874424903,2.00688240795445,2.062913428832675,70,254356.0,80,83.5,0,0,5,0,2,0,9.0,-3.0,-1004.0
1777581336.2280269,response,right,x,1,1777581335.238581,0.9894459247589111,2,1.2923261369874368,0.7915035628827471,2.001169496256568,2.0599536312411613,70,254361.0,80,83.5,0,0,5,0,2,0,5.0,3.0,-994.0
1777581336.2774599,response,right,x,1,1777581335.238581,1.0388789176940918,2,1.318030718964565,0.7784586750036602,1.9886095577165237,2.049132128471015,70,254361.0,80,83.5,0,0,5,0,2,0,5.0,3.0,-994.0
1777581336.327349,response,right,x,1,1777581335.238581,1.0887680053710938,2,1.3468551665799857,0.774105172265104,1.9812527207428,2.0458801357727388,70,254367.0,79,83.5,0,0,5,0,2,0,0.0,14.0,-999.0
1777581336.377055,response,right,x,1,1777581335.238581,1.1384739875793457,2,1.2974447633378074,0.7968773885921865,1.976729616764835,2.038000251866542,70,254362.0,79,83.5,0,0,5,0,2,0,4.0,-5.0,-999.0
1777581336.426507,response,right,x,1,1777581335.238581,1.1879260540008545,2,1.3272748416964675,0.7896647940182427,1.9707098066734574,2.035348770069558,70,254362.0,79,83.5,0,0,5,0,2,0,4.0,-5.0,-999.0
1777581336.476871,response,right,x,1,1777581335.238581,1.2382900714874268,2,1.3563937498533665,0.7789930579879003,1.9616749732429906,2.0294878525345874,70,254361.0,79,83.5,0,0,5,0,2,0,-22.0,10.0,-1010.0
1777581336.526272,response,right,x,1,1777581335.238581,1.2876911163330078,2,1.3573725550271254,0.7733052025295687,1.9548585087989678,2.0220147642255193,70,254361.0,79,83.5,0,0,5,0,2,0,-22.0,10.0,-1010.0
1777581336.576038,response,right,x,1,1777581335.238581,1.3374569416046143,2,1.3862040025631566,0.7814598234837301,1.9346002443495756,2.0093141202822116,70,254361.0,79,83.5,0,0,5,0,2,0,-22.0,10.0,-1010.0
1777581336.634134,response,right,x,1,1777581335.238581,1.3955531120300293,2,1.41080913897508,0.7985320364362753,1.9184669883457999,2.002025853505417,70,254359.0,79,83.5,0,-1,5,0,2,0,12.0,-6.0,-1013.0
1777581336.683025,response,right,x,1,1777581335.238581,1.444443941116333,2,1.3919964519568717,0.7961112516113842,1.9203778744255995,1.9996040914599311,70,254350.0,79,83.5,0,-3,5,0,2,0,-1.0,0.0,-988.0
1777581336.732316,response,right,x,1,1777581335.238581,1.4937350749969482,2,1.3977175606574757,0.8074203526984732,1.9116748076346048,1.9946606658760495,70,254350.0,79,83.5,0,-3,5,0,2,0,-1.0,0.0,-988.0
1777581336.782269,response,right,x,1,1777581335.238581,1.5436880588531494,2,1.4191450966887569,0.8014130443966065,1.901457117523271,1.9880528700388944,70,254341.0,79,83.5,0,-5,5,0,1,0,-2.0,20.0,-994.0
1777581336.832621,response,right,x,1,1777581335.238581,1.5940401554107666,2,1.442133111733548,0.7962547428443867,1.8899321783587502,1.9809954943193868,70,254341.0,79,83.5,0,-5,5,0,1,0,-2.0,20.0,-994.0
1777581336.882475,response,right,x,1,1777581335.238581,1.6438939571380615,2,1.444816277195102,0.8077790101306285,1.8767230419316485,1.9713534989133747,70,254341.0,79,83.5,0,-5,5,0,1,0,-2.0,20.0,-994.0
1777581336.931478,response,right,x,1,1777581335.238581,1.692897081375122,2,1.4636723019078697,0.8036033224844519,1.8653015202727523,1.9639850831940837,70,254359.0,79,83.5,0,-3,5,0,0,0,-33.0,21.0,-987.0
1777581336.980926,response,right,x,1,1777581335.238581,1.7423450946807861,2,1.4628273844801027,0.8153601745701458,1.8517373365325445,1.9533725773523791,70,254359.0,79,83.5,0,-3,5,0,0,0,-33.0,21.0,-987.0
1777581337.030109,response,right,x,1,1777581335.238581,1.7915279865264893,2,1.425465469082599,0.832076616339064,1.8536959282794852,1.9503588547466424,70,254367.0,79,83.5,0,-2,5,0,0,0,3.0,-1.0,-1018.0
1777581337.08039,response,right,x,1,1777581335.238581,1.8418090343475342,2,1.4793241527177652,0.8068351098712401,1.8296046413549942,1.9346109670086864,70,254367.0,79,83.5,0,-2,5,0,0,0,3.0,-1.0,-1018.0
1777581337.1299598,response,right,x,1,1777581335.238581,1.8913788795471191,2,1.479854965495326,0.8056338123680731,1.821316995648793,1.9266538807699538,70,254359.0,79,83.5,0,-1,5,0,0,0,5.0,9.0,-981.0
1777581337.179839,response,right,x,1,1777581335.238581,1.9412579536437988,2,1.4770663164283278,0.8153339412964948,1.8089580230761484,1.9163568775974222,70,254359.0,79,83.5,0,-1,5,0,0,0,5.0,9.0,-981.0
1777581337.2294881,response,right,x,1,1777581335.238581,1.9909071922302246,2,1.4777167188592564,0.8141264136168669,1.8008028126512787,1.908560902875666,70,254357.00000000003,79,83.5,0,-1,5,0,0,0,-28.0,30.0,-1013.0
1777581337.279468,response,right,x,1,1777581335.238581,2.0408871173858643,2,1.4576920236125201,0.8241322834719549,1.7930815106801394,1.8985551048901976,70,254357.00000000003,79,83.5,0,-1,5,0,0,0,-28.0,30.0,-1013.0
1777581337.328883,response,right,x,1,1777581335.238581,2.090301990509033,2,1.4583230869586463,0.8224465814992807,1.7853239340568614,1.8910057418675386,70,254356.0,79,83.5,0,-1,5,0,0,0,-1.0,19.0,-989.0
1777581337.3789902,response,right,x,1,1777581335.238581,2.140409231185913,2,1.4869334503457892,0.8149188411768808,1.7598571469112727,1.8725274383474078,70,254356.0,79,83.5,0,-1,5,0,0,0,-1.0,19.0,-989.0
1777581337.428119,response,right,x,1,1777581335.238581,2.18953800201416,2,1.4707549797737816,0.8288784776607776,1.7535468731866337,1.8656027540837998,70,254367.99999999997,79,83.5,0,-1,5,0,0,0,-21.0,22.0,-982.0
1777581337.478444,response,right,x,1,1777581335.238581,2.239863157272339,2,1.4684057718335288,0.8364229871964479,1.7376412494184628,1.8518277734500561,70,254367.99999999997,79,83.5,0,-1,5,0,0,0,-21.0,22.0,-982.0
1777581337.5274339,response,right,x,1,1777581335.238581,2.2888529300689697,2,1.4693919966282674,0.8188716817023245,1.7339202644804175,1.8445221104141436,70,254354.0,79,83.5,0,-1,5,0,0,0,-3.0,13.0,-1005.0
1777581337.577066,response,right,x,1,1777581335.238581,2.3384850025177,2,1.4646871907655912,0.8376164607238481,1.705362145902145,1.8209070269055618,70,254354.0,79,83.5,0,-1,5,0,0,0,-3.0,13.0,-1005.0
1777581337.626444,response,right,x,1,1777581335.238581,2.3878631591796875,2,1.4646871907655912,0.8376164607238481,1.705362145902145,1.8209070269055618,70,254360.0,79,83.5,0,-1,5,0,0,0,8.0,28.0,-989.0
1777581337.67639,response,right,x,1,1777581335.238581,2.4378089904785156,2,1.4774292279377328,0.816839407715838,1.6888074942429738,1.8038194233695737,70,254360.0,79,83.5,0,-1,5,0,0,0,8.0,28.0,-989.0
1777581337.726347,response,right,x,1,1777581335.238581,2.4877660274505615,2,1.5019596930261332,0.8133253380852171,1.6713590782344796,1.7933885627278203,70,254362.0,79,83.5,0,-1,5,1,0,0,12.0,9.0,-969.0
1777581337.776352,response,right,x,1,1777581335.238581,2.537770986557007,2,1.4889494136929562,0.809790169282318,1.662543000833202,1.7807438731076926,70,254362.0,79,83.5,0,-1,5,1,0,0,12.0,9.0,-969.0
1777581337.824929,response,right,x,1,1777581335.238581,2.586348056793213,2,1.5390120178205933,0.7689374049806893,1.6353454166703687,1.7609666084209814,70,254357.00000000003,79,83.5,4,-1,5,1,0,0,-17.0,21.0,-1002.0
1777581337.8736498,response,right,x,1,1777581335.238581,2.635068893432617,2,1.5315002324526414,0.773069263434715,1.6139018703670578,1.7396414629432182,70,254357.00000000003,79,83.5,4,-1,5,1,0,0,-17.0,21.0,-1002.0
1777581337.923599,response,right,x,1,1777581335.238581,2.6850180625915527,2,1.4725539970656172,0.8248055442640956,1.618730168205273,1.7389808475190511,70,254360.0,79,83.5,4,-1,5,0,0,0,-33.0,21.0,-988.0
1777581337.9724438,response,right,x,1,1777581335.238581,2.73386287689209,2,1.4891168165347657,0.8269641278556228,1.5972220726031592,1.7241380385292089,70,254360.0,79,83.5,4,-1,5,0,0,0,-33.0,21.0,-988.0
1777581338.020274,response,right,x,1,1777581335.238581,2.7816929817199707,2,1.462403210195859,0.8319891217926811,1.6018263199128742,1.7222888518806212,70,254355.00000000003,79,83.5,2,-1,5,0,0,0,-3.0,11.0,-969.0
1777581338.071126,response,right,x,1,1777581335.238581,2.832545042037964,2,1.484376879502271,0.8269625582594669,1.5833814729494131,1.7099751098864802,70,254355.00000000003,79,83.5,2,-1,5,0,0,0,-3.0,11.0,-969.0
1777581338.1203141,response,right,x,1,1777581335.238581,2.8817331790924072,2,1.4697808075105678,0.8355639712462937,1.579605646863458,1.7045714944689316,70,254353.00000000003,79,83.5,1,-1,5,0,0,0,5.0,7.0,-990.0
1777581338.169121,response,right,x,1,1777581335.238581,2.930540084838867,2,1.4796713146080216,0.8196130109879458,1.570921381508431,1.6952739117701645,70,254353.00000000003,79,83.5,1,-1,5,0,0,0,5.0,7.0,-990.0
1777581338.218407,response,right,x,1,1777581335.238581,2.979825973510742,2,1.4795117305300216,0.8179011939713401,1.5683706954361918,1.6924418884976735,70,254355.00000000003,79,83.0,0,0,5,-1,0,0,-1.0,17.0,-981.0
1777581338.267686,response,right,x,1,1777581335.238581,3.0291049480438232,2,1.4862803709859924,0.8142379239505376,1.5580260804217947,1.6838963519527044,70,254355.00000000003,79,83.0,0,0,5,-1,0,0,-1.0,17.0,-981.0
1777581338.317417,response,right,x,1,1777581335.238581,3.078835964202881,2,1.4842071284662677,0.8112282077391317,1.5531671855015783,1.678062420834452,70,254356.0,78,83.0,0,0,5,-1,0,0,17.0,13.0,-1003.0
1777581338.36707,response,right,x,1,1777581335.238581,3.1284890174865723,2,1.4828524475925278,0.8063196418197696,1.5489327053253248,1.6725533363994916,70,254356.0,78,83.0,0,0,5,-1,0,0,17.0,13.0,-1003.0
1777581338.416605,response,right,x,1,1777581335.238581,3.1780240535736084,2,1.4688010739456423,0.8144058891722438,1.54533237850397,1.6672009021008725,70,254357.00000000003,78,83.0,0,0,5,-1,0,0,10.0,8.0,-1019.0
1777581338.465256,response,right,x,1,1777581335.238581,3.226675033569336,2,1.4688697671189566,0.7998614760050307,1.5431574113230389,1.6616446234476037,70,254357.00000000003,78,83.0,0,0,5,-1,0,0,10.0,8.0,-1019.0
1777581338.514246,response,right,x,1,1777581335.238581,3.275665044784546,2,1.477749733679937,0.7970796128147167,1.5346716368986268,1.6556370556512217,70,254357.00000000003,78,83.0,0,0,5,-1,0,0,10.0,8.0,-1019.0
1777581338.563434,response,right,x,1,1777581335.238581,3.32485294342041,2,1.4862937752411716,0.7943802125734614,1.5265839239691796,1.6499926862955903,70,254359.0,78,83.0,0,0,5,0,0,0,-5.0,23.0,-969.0
1777581338.6125991,response,right,x,1,1777581335.238581,3.3740181922912598,2,1.4839005923274091,0.7907454588699288,1.5194601526989515,1.6418285393189538,70,254359.0,78,83.0,0,0,5,0,0,0,-5.0,23.0,-969.0
1777581338.661449,response,right,x,1,1777581335.238581,3.422868013381958,2,1.4840917856065556,0.7768139664954954,1.5198871061666233,1.639021182818991,70,254361.0,78,83.0,2,0,5,0,0,0,-36.0,22.0,-1029.0
1777581338.710094,response,right,x,1,1777581335.238581,3.471513032913208,2,1.4884086452255094,0.7815790223988703,1.5057748205444565,1.6283437491056936,70,254361.0,78,83.0,2,0,5,0,0,0,-36.0,22.0,-1029.0
