timestamp,elapsed,my_id,peer_age_s,peer_seq,peer_pos_x,peer_pos_y,peer_pos_z,peer_state,pos_x,pos_y,pos_z,marker_id,tx_count,rx_count,crc_errors,target_x,target_z,err_x_cm,err_y_cm,err_z_cm,err_3d_cm,dist_to_peer_cm,dist_to_mid_cm,cmd_lr,cmd_fb,cmd_ud,feedback,tello_height_cm,tello_baro_cm,tello_battery,tello_temp_c,tello_pitch,tello_roll,tello_yaw,tello_vgx,tello_vgy,tello_vgz
1778086121.599477,0.0,1,-0.0018727779388427734,755,1.4797017574310303,1.1125493049621582,3.3966705799102783,5,1.383680551048905,1.5151078016960202,3.4655014681991663,2,251,756,0,1.4316911542399677,3.4310860240547223,4.801060319106276,-1.3169146549449007,-3.4415444144443974,6.052162617833309,11.814297802965722,5.907148901482871,0,0,-7,ok,120,248746.99999999997,80,70.0,0,0,0,0,0,0
1778086121.6702201,0.07074308395385742,1,0.008839130401611328,758,1.4443665742874146,0.8165025115013123,3.4897611141204834,5,1.3876691071523606,1.5231575590974349,3.4791777619263673,2,255,759,0,1.4248516365057915,3.461196804470874,3.7182529353430915,-2.1218903950863677,-1.7980957455493218,4.643379378223351,8.260400281184948,4.130200140592474,0,0,-4,ok,120,248750.0,80,70.0,0,0,0,0,0,0
1778086121.739935,0.1404578685760498,1,-0.001360177993774414,762,1.2944698333740234,0.8975702524185181,3.475937843322754,5,1.3884476589348322,1.5262716592011456,3.478957970160633,2,258,763,0,1.397313523649494,3.466540574639236,0.8865864714661775,-2.433300405457439,-1.241739552139709,2.8720904494695687,3.0515259702221424,1.5257629851110468,0,0,-2,ok,120,248748.0,80,70.0,0,0,0,0,0,0
1778086121.810074,0.21059703826904297,1,0.008754253387451172,765,1.4162081480026245,0.94441819190979,3.4211883544921875,5,1.384513728069802,1.5315643447450258,3.4791568399879753,2,262,766,0,1.3966001531717875,3.4625231564747008,1.2086425101985432,-2.9625689598454574,-1.6633683513274544,3.606164975635009,4.112231019608188,2.0561155098040698,0,0,-4,ok,120,248748.0,80,70.0,0,0,0,0,0,0
1778086121.8814452,0.2819681167602539,1,1.4066696166992188e-05,769,1.453609585762024,0.7487017512321472,3.4558277130126953,5,1.446660297649201,1.5129205368888137,3.488069296561079,2,265,770,0,1.4321657387103122,3.4679732087663795,-1.4494558938888735,-1.098188174224246,-2.0096087794699624,2.710252220893459,4.955582643787487,2.4777913218937435,0,0,5,ok,120,248750.0,80,70.0,0,0,0,0,0,0
1778086121.95425,0.35477304458618164,1,0.012916088104248047,772,1.4597179889678955,0.6422908902168274,3.4487476348876953,5,1.448855562895917,1.516087612350959,3.488113876874521,2,269,773,0,1.4367672721000428,3.4680680417494347,-1.2088290795874146,-1.4148957204387802,-2.0045835125086064,2.7352427135436215,4.681718830633642,2.34085941531684,0,0,-2,ok,120,248748.0,80,70.0,0,0,0,0,0,0
1778086122.026696,0.4272189140319824,1,0.005336761474609375,776,1.6092113256454468,0.5968639254570007,3.4751791954040527,5,1.425935656956328,1.4684656497125723,3.5262814472144304,2,273,777,0,1.438488200868911,3.489091611832226,1.2552543912583092,3.3473005433998892,-3.718983538220444,5.158577621028215,7.8502234730810265,3.9251117365404924,0,0,18,ok,130,248744.99999999997,80,70.0,0,0,0,0,0,0
1778086122.0996668,0.5001897811889648,1,-0.0015711784362792969,780,1.4144320487976074,0.7784590721130371,3.4016237258911133,5,1.3943169197181793,1.550981312969419,3.492912884997294,2,276,781,0,1.4203907887508438,3.4692649525637256,2.607386903266451,-4.904265782284778,-2.3647932433568553,6.036765393026382,7.040089075331801,3.5200445376659153,0,0,-30,ok,130,248744.99999999997,80,70.0,0,0,0,0,0,0
1778086122.171374,0.571897029876709,1,0.009917259216308594,783,1.529154896736145,0.8693093657493591,3.411454200744629,5,1.5151306681512549,1.5022887376461713,3.4942128864111077,2,280,784,0,1.4838884841739512,3.4708389295727793,-3.1242183977303606,-0.035008249960011284,-2.3373956838328436,3.901971906239527,7.8036297143104285,3.901814857155227,0,0,16,ok,130,248753.00000000003,80,70.0,0,0,0,0,0,0
1778086122.24444,0.6449630260467529,1,0.002772092819213867,787,1.457157850265503,0.5578253269195557,3.442589044570923,5,1.4979876166360317,1.4536573146057021,3.5324910752173504,2,284,788,0,1.4761164131649702,3.4870297696290535,-2.187120347106153,4.828134054086908,-4.546130558829686,6.982956173060558,10.089756879261474,5.044878439630717,0,0,19,ok,130,248754.0,80,70.0,0,0,0,0,0,0
1778086122.3168151,0.7173380851745605,1,0.015283346176147461,790,1.4072177410125732,0.701332151889801,3.413987874984741,5,1.3244941104918293,1.6645282238029395,3.4564088327540654,2,287,791,0,1.3964164043202785,3.445116775376285,7.192229382844917,-16.258956865636833,-1.1292057377780385,17.814515077664268,14.560668816189517,7.28033440809477,30,6,-30,ok,130,248754.0,80,70.0,0,0,0,0,0,0
1778086122.389483,0.7900059223175049,1,0.007631063461303711,794,1.3724561929702759,0.6120718121528625,3.4060282707214355,5,1.4685140311650693,1.535009976271612,3.5017072430302285,2,291,795,0,1.4656918674673767,3.4668184752786946,-0.28221636976926145,-3.3071321125040853,-3.4888767751533933,4.815498939998452,7.0005449020974035,3.5002724510487013,0,0,30,ok,130,248761.0,80,69.5,0,0,0,0,0,0
1778086122.460566,0.8610889911651611,1,-0.0006878376007080078,798,1.2591917514801025,0.5722941160202026,3.373321771621704,5,1.470285549051615,1.534815011657141,3.501954107671765,2,294,799,0,1.4544265117680293,3.4617852862625256,-1.585903728358562,-3.287635651056986,-4.0168821409239275,5.427612821839458,8.637229363562138,4.3186146817810895,0,0,-2,ok,130,248763.0,80,69.5,0,0,0,0,0,0
1778086122.531913,0.9324359893798828,1,0.010687112808227539,801,1.3005729913711548,0.655804455280304,3.371795177459717,5,1.4918009769377172,1.5904592742486412,3.4786547394088725,2,298,802,0,1.455237663361284,3.445326073541831,-3.6563313576433165,-8.852061910206999,-3.332866586704153,10.140796750935914,9.894798367153264,4.947399183576641,-14,4,-25,ok,130,248763.0,80,69.5,0,0,0,0,0,0
1778086122.60388,1.0044028759002686,1,4.57763671875e-05,805,1.4760817289352417,0.5774129629135132,3.4258835315704346,5,1.4770946388292379,1.5413858307687835,3.5170607695367977,2,302,806,0,1.4395638945126565,3.4614481096161924,-3.753074431658132,-3.944717562221234,-5.561265992060527,7.7829328514199325,13.418382484340633,6.7091912421703235,0,0,13,ok,130,248760.0,80,69.5,0,0,0,0,0,0
1778086122.6748369,1.07535982131958,1,0.01331186294555664,808,1.298442006111145,0.6605237722396851,3.3823397159576416,5,1.4766113278975235,1.53963707373499,3.502402830051442,2,305,809,0,1.4320728613788956,3.4529138892526725,-4.453846651862792,-3.7698418588418825,-4.948894079876931,7.651144375374624,13.315900662313506,6.657950331156753,0,0,-2,ok,130,248767.0,80,69.5,0,0,0,0,0,0
1778086122.747448,1.1479709148406982,1,0.006233930587768555,812,1.382901906967163,0.6268016695976257,3.403118371963501,5,1.3938419434650986,1.6516975178639433,3.48679920350709,2,309,813,0,1.3815473573021217,3.444591086681676,-1.229458616297685,-14.975886271737204,-4.220811682541381,15.607818213083894,8.792455799983626,4.396227899991813,2,3,-30,ok,130,248762.0,80,69.5,0,0,0,0,0,0
1778086122.819241,1.219763994216919,1,-0.002023935317993164,816,1.6488937139511108,0.6816908717155457,3.459857940673828,5,1.423554287158352,1.579025163209518,3.5220000122870316,2,312,817,0,1.408387020629099,3.4632707970780787,-1.5167266529253043,-7.708650806294681,-5.872921520895291,9.808922682113295,12.13122696684706,6.065613483423507,-1,9,19,ok,130,248762.0,80,69.5,0,0,0,0,0,0
1778086122.891663,1.2921860218048096,1,0.010498046875,819,1.6488937139511108,0.6816908717155457,3.459857940673828,5,1.4496701036867476,1.6250831693012153,3.4837577338639507,2,316,820,0,1.4365496772019553,3.447016536972106,-1.3120426484792391,-12.314451415464411,-3.674119689184474,12.917674909429902,7.802720397882114,3.9013601989410605,0,-5,-25,ok,130,248764.0,80,69.5,0,0,0,0,0,0
1778086122.96303,1.3635530471801758,1,0.0017442703247070312,823,1.3463233709335327,0.5429715514183044,3.392118215560913,5,1.4798838472128422,1.5509803355977327,3.517499232460567,2,320,824,0,1.4500232475877062,3.4630179078228815,-2.9860599625135986,-4.904168045116153,-5.448132463768562,7.9151478607309675,12.425570641623766,6.212785320811883,0,0,21,ok,130,248757.00000000003,80,69.5,0,0,0,0,0,0
1778086123.035115,1.4356379508972168,1,0.013807058334350586,826,1.6429706811904907,0.8203859329223633,3.428990364074707,5,1.3977144504440857,1.6528013275137616,3.48754399465833,2,323,827,0,1.4329247323102272,3.4515195759500754,3.52102818661415,-15.086267236719042,-3.602441870825457,15.905052218125853,10.074765887822425,5.037382943911228,10,2,-30,ok,130,248757.00000000003,80,69.5,0,0,0,0,0,0
1778086123.108478,1.5090010166168213,1,0.007230997085571289,830,1.3876981735229492,0.6347638964653015,3.414797306060791,5,1.4807493221407007,1.5480414237135571,3.5179996430665192,2,327,831,0,1.4798874920430218,3.469435033191737,-0.08618300976788174,-4.610276856698592,-4.856460987478206,6.696812191593929,9.714451262746698,4.857225631373371,0,0,30,ok,130,248771.0,80,69.5,0,0,0,0,0,0
1778086123.182119,1.582641839981079,1,0.0008866786956787109,834,1.3852591514587402,0.640322208404541,3.4134140014648438,5,1.481063699148491,1.5470462003628187,3.5180246788406837,2,330,835,0,1.4743682694546356,3.46866820544722,-0.6695429693855282,-4.510754521624749,-4.93564733934635,6.719807199660449,9.961707172217077,4.980853586108538,0,0,-3,ok,130,248759.0,79,69.5,0,0,0,0,0,0
1778086123.253762,1.654284954071045,1,0.012542009353637695,837,1.3383493423461914,0.5467503666877747,3.4149725437164307,5,1.451932847110487,1.6193508634891125,3.4848905606969716,2,334,838,0,1.462297051950324,3.4541406981102885,1.036420483983691,-11.741220834254129,-3.0749862586683108,12.1813781892421,6.489902282968503,3.244951141484248,-2,1,-30,ok,130,248762.0,79,69.5,0,0,0,0,0,0
1778086123.3266828,1.727205753326416,1,0.005375862121582031,841,1.5069990158081055,0.7172034978866577,3.4336495399475098,5,1.5024452149443515,1.5910449513327678,3.480189383457944,2,338,842,0,1.4953093051698152,3.453698307489775,-0.7135909774536264,-8.910629618619659,-2.6491075968168687,9.323427660621281,5.48706957951731,2.743534789758655,-6,0,2,ok,130,248762.0,79,69.5,0,0,0,0,0,0
1778086123.3996139,1.8001368045806885,1,-0.0013730525970458984,845,1.3350194692611694,0.5601483583450317,3.398231267929077,5,1.4515162774101422,1.6176264298526553,3.4850314287959203,2,341,846,0,1.4502276961095892,3.4522676631122167,-0.12885813005529823,-11.568777470608405,-3.276376568370365,12.024469219050973,6.557819099501865,3.27890954975091,1,4,-18,ok,130,248764.0,79,70.0,0,0,0,0,0,0
1778086123.4732969,1.8738198280334473,1,0.012060880661010742,848,1.5049242973327637,0.7157526612281799,3.4315121173858643,5,1.5100971329374877,1.5958461211317378,3.4928304558052328,2,345,849,0,1.4705200353346153,3.454395562661375,-3.9577097602872424,-9.390746598516664,-3.843489314385762,10.891372656099081,11.033743998565601,5.5168719992827855,-15,4,0,ok,130,248759.0,79,70.0,0,0,0,0,0,0
1778086123.545076,1.945598840713501,1,0.00397491455078125,852,1.4297068119049072,0.3447602689266205,3.4199154376983643,5,1.5840355458075759,1.437234360593885,3.535479182556093,2,349,853,0,1.5127007068303704,3.477457252420396,-7.1334838977205495,6.4704294552686115,-5.802193013569701,11.243597894862795,18.390436241237545,9.19521812061875,-15,10,30,ok,130,248759.0,79,70.0,0,0,0,0,0,0
1778086123.616839,2.017361879348755,1,0.015591859817504883,855,1.584266185760498,0.5644330978393555,3.4747939109802246,5,1.445019925862687,1.6138679065359072,3.4864221700586886,2,352,856,0,1.4395238658935514,3.455791467853288,-0.5496059969135603,-11.192925138933596,-3.063070220540043,11.617488501977277,6.22397491248236,3.1119874562412,22,-7,-30,ok,130,248762.0,79,70.0,0,0,0,0,0,0
1778086123.688693,2.0892159938812256,1,0.0075070858001708984,859,1.408405065536499,0.516719400882721,3.4381039142608643,5,1.4997029540269007,1.5860558156247206,3.48026879835326,2,356,860,0,1.468159560726505,3.4541714450130785,-3.1543393300395683,-8.411716047814943,-2.6097353340181595,9.35508107884292,8.187936277880338,4.093968138940183,-10,0,2,ok,130,248763.0,79,70.0,0,0,0,0,0,0
1778086123.7621272,2.1626501083374023,1,0.0007281303405761719,863,1.365334153175354,0.6595023274421692,3.414036273956299,5,1.5230644329068375,1.4591512505166273,3.5470336727813736,2,360,864,0,1.4785949877737616,3.4875927742578514,-4.4469445133075824,4.27874046299439,-5.944089852352219,8.56826351292597,14.846887845912077,7.423443922956046,-7,15,30,ok,130,248761.0,79,70.0,0,0,0,0,0,0
1778086123.8341901,2.234713077545166,1,0.013138294219970703,866,1.5968481302261353,0.723292350769043,3.4647912979125977,5,1.478875292397893,1.5319377580484126,3.5034310230541976,2,363,867,0,1.472656591761786,3.468905121531524,-0.6218700636106966,-2.999910290184138,-3.4525901522673763,4.615903257727735,7.016295642445189,3.5081478212225945,0,0,-28,ok,130,248761.0,79,70.0,0,0,0,0,0,0
1778086123.9067478,2.3072707653045654,1,0.005543947219848633,870,1.7154713869094849,0.8660987615585327,3.4712305068969727,5,1.4800039637997713,1.5346225236195727,3.5179476940579835,2,367,871,0,1.4862504506565615,3.4785122674677584,0.624648685679019,-3.268386847300153,-3.943542659022503,5.159851477286477,7.985415376560185,3.9927076882800727,0,0,-4,ok,130,248766.0,79,70.0,0,0,0,0,0,0
1778086123.979962,2.3804850578308105,1,-0.0011589527130126953,874,1.4414222240447998,0.640823245048523,3.4548275470733643,5,1.5113729003912,1.4498351004754233,3.5337144356932,2,370,875,0,1.5085850911262526,3.4899329057318846,-0.2787809264947372,5.210355467114791,-4.378152996131535,6.811295512324053,8.7740395400324,4.3870197700161775,0,0,30,ok,130,248753.00000000003,79,70.0,0,0,0,0,0,0
1778086124.052885,2.4534080028533936,1,0.011759281158447266,877,1.4420942068099976,0.6358838677406311,3.4553050994873047,5,1.4746197389805302,1.5288310661234843,3.5030952370793926,2,374,878,0,1.4862816297632448,3.4761103678063208,1.1661890782714623,-2.6892410976913084,-2.6984869273071865,3.9841995864463637,5.879397473594526,2.939698736797263,0,0,-30,ok,130,248753.00000000003,79,70.0,0,0,0,0,0,0
1778086124.125576,2.5260989665985107,1,0.0043370723724365234,881,1.2690685987472534,0.7004075646400452,3.3975322246551514,5,1.4151279934680758,1.557482079542385,3.5086276241403755,2,378,882,0,1.4464958686846643,3.4774776105216114,3.136787521658846,-5.554342439581372,-3.1150013618764127,7.098830141414942,8.841418311679762,4.420709155839881,0,0,-14,ok,130,248762.0,79,70.0,0,0,0,0,0,0
1778086124.1982908,2.598813772201538,1,-0.0027310848236083984,885,1.5827522277832031,0.7259872555732727,3.4739084243774414,5,1.4919570394275774,1.5817882804965513,3.4794725260360315,2,381,886,0,1.4848157692908341,3.4628447185567657,-0.7141270136743261,-7.984962534998008,-1.6627807479265844,8.187456497145893,3.6192912053797364,1.8096456026898478,1,0,-15,ok,130,248757.00000000003,79,70.0,0,0,0,0,0,0
1778086124.271478,2.6720008850097656,1,0.010237932205200195,888,1.5771961212158203,0.731133759021759,3.485696315765381,5,1.408057185579491,1.5585571854180529,3.5086932456181508,2,385,889,0,1.4534152833467484,3.4804296034418574,4.535809776725741,-5.661853027148167,-2.82636421762934,7.785787354042184,10.688667834924319,5.34433391746215,0,0,2,ok,130,248766.0,79,70.0,0,0,0,0,0,0
1778086124.344626,2.7451488971710205,1,0.003593921661376953,892,1.4743640422821045,0.8505449295043945,3.443727493286133,5,1.5055119473108185,1.448427801459438,3.5332407631123988,2,389,893,0,1.5089570322815842,3.494559063397096,0.3445084970765677,5.351085368713315,-3.8681699715302553,6.611772807384117,7.76696209163055,3.8834810458152527,0,0,30,ok,130,248766.0,79,70.0,0,0,0,0,0,0
1778086124.4174578,2.8179807662963867,1,0.016440629959106445,895,1.5710612535476685,0.7331339716911316,3.483461380004883,5,1.4303869390368515,1.602863654915685,3.4703616122998784,2,392,896,0,1.4697828483521964,3.464286368121604,3.939590931534487,-10.092499976911373,-0.6075244178274541,10.851175899875617,7.972317762378885,3.9861588811894286,7,0,-30,ok,130,248760.0,79,69.5,0,0,0,0,0,0
1778086124.489225,2.8897478580474854,1,0.008183002471923828,899,1.5332220792770386,0.6075749397277832,3.4961647987365723,5,1.4371112530952093,1.4690613238789023,3.5276478627021133,2,396,900,0,1.4617544236543476,3.494487886562696,2.464317055913834,3.2877331267668897,-3.3159976139417235,5.279951499831738,8.262856340935615,4.131428170467815,0,0,30,ok,130,248758.0,79,69.5,0,0,0,0,0,0
1778086124.560745,2.9612679481506348,1,-0.00027489662170410156,903,1.3278436660766602,0.6859282851219177,3.4364800453186035,5,1.466652680580833,1.5244645714458223,3.502339505972833,2,399,904,0,1.4694264775241508,3.480686989338383,0.2773796943317697,-2.2525916299251048,-2.165251663444989,3.1367855062288714,4.365892468157582,2.1829462340788144,0,0,-22,ok,130,248758.0,79,69.5,0,0,0,0,0,0
1778086124.633604,3.0341269969940186,1,0.012615203857421875,906,1.562166452407837,0.7362625598907471,3.480158805847168,5,1.4603977654382951,1.5264579817492803,3.5021854518084243,2,403,907,0,1.4738035353027468,3.4821633189036705,1.3405769864451633,-2.4519326602709057,-2.0022132904753853,3.4377286815055412,4.819130509601348,2.40956525480068,0,0,-3,ok,130,248763.0,79,69.5,0,0,0,0,0,0
1778086124.703994,3.1045169830322266,1,0.0030031204223632812,910,1.4479525089263916,0.7530783414840698,3.446122646331787,5,1.3996615653855846,1.5527782189352446,3.507779303057028,2,407,911,0,1.4546156796625875,3.487997145882762,5.495411427700292,-5.083956378867338,-1.9782157174266235,7.743351770815956,11.681247225253406,5.840623612626711,0,0,-14,ok,130,248756.0,79,69.5,0,0,0,0,0,0
1778086124.7776499,3.1781728267669678,1,-0.003203153610229492,914,1.5296815633773804,0.6037966012954712,3.482039213180542,5,1.4786362630320957,1.5704832366517176,3.4643109579459965,2,410,915,0,1.490786111960479,3.46677114762744,1.2149848928383333,-6.854458150514642,0.24601896814435698,6.965652170448133,2.479285076397805,1.2396425381988918,0,0,-12,ok,130,248756.0,79,69.5,0,0,0,0,0,0
1778086124.849643,3.2501659393310547,1,0.008877038955688477,917,1.4163326025009155,0.6479001045227051,3.4584970474243164,5,1.4580566749684092,1.518658283123508,3.502820258406243,2,414,918,0,1.4704423480089543,3.4843258435862468,1.2385673040545164,-1.6719627976936824,-1.8494414819996141,2.7838718287459803,4.451733487985911,2.2258667439929556,0,0,15,ok,130,248755.00000000003,79,69.5,0,0,0,0,0,0
1778086124.922244,3.3227670192718506,1,0.0012562274932861328,921,1.5475293397903442,0.7351365685462952,3.476886749267578,5,1.4603067733321944,1.518283505472295,3.5019910185013967,2,417,922,0,1.476140228285112,3.4859836771326638,1.5833454952917547,-1.6344850325723748,-1.6007341368732941,2.7822426307055426,4.503035746876593,2.2515178734383126,0,0,-2,ok,130,248755.00000000003,79,69.5,0,0,0,0,0,0
1778086124.994974,3.3954968452453613,1,0.014120817184448242,924,1.545385718345642,0.7363196015357971,3.4764246940612793,5,1.4540697277315386,1.5157958776711378,3.503499849031789,2,421,925,0,1.4714169845346574,3.4862982995263847,1.7347256803118771,-1.385722252456656,-1.7201549505404312,2.808635327121662,4.88598249681768,2.4429912484088554,0,0,-1,ok,130,248764.0,79,69.5,0,0,0,0,0,0
1778086125.0679739,3.468496799468994,1,0.0070667266845703125,928,1.3191229104995728,0.6871320009231567,3.4189023971557617,5,1.4583375777361465,1.5168189818702258,3.5018420849624547,2,425,929,0,1.4601697114883696,3.480640517392917,0.18321337522231307,-1.488032672365458,-2.1201567569537616,2.5967042667473956,4.25611645278512,2.1280582263925587,0,0,-2,ok,130,248761.0,78,69.5,0,0,0,0,0,0
1778086125.140295,3.540817975997925,1,-0.0025539398193359375,932,1.4263395071029663,0.7567867636680603,3.45276141166687,5,1.391365874768525,1.5377101063184888,3.4937830262402447,2,428,933,0,1.432839850068703,3.4776285734285786,4.1473975300178045,-3.57714511719176,-1.6154452811666165,5.710213386370961,8.901813237412094,4.450906618706044,0,0,-11,ok,130,248763.0,78,69.5,0,0,0,0,0,0
1778086125.213821,3.6143438816070557,1,0.012809991836547852,935,1.6591522693634033,0.7310119867324829,3.5025041103363037,5,1.494228385601682,1.4357743352674093,3.531220516985661,2,432,936,0,1.4903327190450044,3.497743900331858,-0.3895666556677613,6.616431987916194,-3.3476616653803415,7.425346662330713,6.740504671036164,3.3702523355181055,0,0,30,ok,130,248763.0,78,69.5,0,0,0,0,0,0
1778086125.287723,3.688246011734009,1,0.006955146789550781,939,1.5190929174423218,0.7428123354911804,3.468583822250366,5,1.4161510638302017,1.5902848845146869,3.469086842601545,2,436,940,0,1.45574033369151,3.468080886634711,3.9589269861308285,-8.834622936811565,-0.1005955966833838,9.681620979527345,7.920409675158732,3.960204837579366,2,0,-30,ok,130,248753.00000000003,78,69.5,0,0,0,0,0,0
1778086125.359916,3.760438919067383,1,-0.0008342266082763672,943,1.5142613649368286,0.7455873489379883,3.4665682315826416,5,1.4858844836983627,1.4279462705193757,3.517733337692056,2,439,944,0,1.489643281223056,3.4914371978300975,0.3758797524693325,7.399238462719548,-2.6296139861958334,7.861608304469353,5.312684935025992,2.6563424675130176,0,0,30,ok,130,248755.00000000003,78,69.5,0,0,0,0,0,0
1778086125.432035,3.8325579166412354,1,0.011221885681152344,946,1.5135064125061035,0.8579083681106567,3.4540300369262695,5,1.3915783988712602,1.536389104215964,3.4920147487076076,2,443,947,0,1.4485636019348291,3.4782987151817455,5.698520306356891,-3.4450449069392874,-1.3716033525862148,6.798732517875365,11.722530347802456,5.861265173901244,0,0,-30,ok,130,248755.00000000003,78,69.5,0,0,0,0,0,0
1778086125.504895,3.9054179191589355,1,0.003952980041503906,950,1.625189185142517,0.8593790531158447,3.46734356880188,5,1.4439416621725332,1.5065552241855587,3.488204839913683,2,447,951,0,1.4795989739199764,3.4757973120056773,3.5657311747443243,-0.4616569038987439,-1.240752790800581,3.803555362465537,7.550869168095257,3.7754345840476393,0,0,8,ok,130,248759.0,78,69.5,0,0,0,0,0,0
1778086125.577933,3.9784560203552246,1,-0.002820730209350586,954,1.509068250656128,0.8598815202713013,3.4521541595458984,5,1.4420748477874565,1.5051282236726955,3.488067337915828,2,450,955,0,1.4763957249968434,3.4742116525995383,3.4320877209386813,-0.3189568526124287,-1.3855685316289446,3.714937382229597,7.402439133166435,3.7012195665832177,0,0,-1,ok,130,248756.0,78,69.5,0,0,0,0,0,0
1778086125.649703,4.0502259731292725,1,0.009042978286743164,957,1.5090467929840088,0.8576638698577881,3.45217227935791,5,1.4760288518668987,1.4250570070688018,3.5192649748383005,2,454,958,0,1.5052429696918417,3.491889838698409,2.9214117824942987,7.688164807776943,-2.737513613989151,8.668131615360505,8.007153698955069,4.003576849477534,1,4,30,ok,130,248756.0,78,69.5,0,0,0,0,0,0
1778086125.721885,4.122407913208008,1,0.0009417533874511719,961,1.6118669509887695,0.7465493083000183,3.4916646480560303,5,1.37944149017694,1.5306653175445852,3.478359403015448,2,457,962,0,1.468544754089725,3.473868505061305,8.910326391278488,-2.8726662398014025,-0.4490897954142703,9.37271622149918,17.843273023014515,8.921636511507245,26,-7,-30,ok,130,248750.0,78,69.5,0,0,0,0,0,0
1778086125.793195,4.193717956542969,1,0.012359857559204102,964,1.4907593727111816,0.7591094374656677,3.4732513427734375,5,1.4947452648902293,1.4770884135730538,3.481641700835004,2,461,965,0,1.5156720854056058,3.473681355998404,2.092682051537653,2.485024157351745,-0.7960344836599909,3.3448967294410483,4.4779410750940745,2.2389705375470372,0,0,18,ok,130,248758.0,78,69.5,0,0,0,0,0,0
1778086125.8668659,4.267388820648193,1,0.005455732345581055,968,1.4925867319107056,0.7548866271972656,3.473717212677002,5,1.3780667055951108,1.5302316694745821,3.477823896115633,2,465,969,0,1.4556761691623206,3.4720932905403834,7.760946356720977,-2.82930143280109,-0.5730605575249736,8.28043678510631,15.564149415177361,7.782074707588681,3,1,-21,ok,130,248746.0,78,69.5,0,0,0,0,0,0
1778086125.939284,4.339807033538818,1,-0.002421855926513672,972,1.6064636707305908,0.8688305020332336,3.4753921031951904,5,1.37755782999394,1.5293099864868935,3.478171191665032,2,468,973,0,1.4611843754738452,3.472818430290867,8.362654547990523,-2.7371331340322325,-0.5352761374164849,8.815464220659692,16.75953598788633,8.379767993943155,7,0,-3,ok,130,248746.0,78,69.5,0,0,0,0,0,0
1778086126.012827,4.413349866867065,1,0.009576082229614258,975,1.6064636707305908,0.8688305020332336,3.4753921031951904,5,1.413124440999226,1.4537823381321053,3.5257768745803317,2,472,976,0,1.484777509615519,3.497956400890325,7.165306861629284,4.815631701446588,-2.7820473690006953,9.070375883537173,15.372886519411422,7.6864432597057135,0,9,27,ok,130,248755.00000000003,78,69.5,0,0,0,0,0,0
1778086126.0866618,4.487184762954712,1,0.005953788757324219,979,1.4958208799362183,0.8687113523483276,3.4606809616088867,5,1.3792662546207817,1.5346444279659899,3.4919215408569753,2,476,980,0,1.459762897350903,3.480612321079084,8.049664273012125,-3.2705772819418666,-1.1309219777891233,8.762006344736834,16.25743884233359,8.128719421166798,8,-4,-30,ok,130,248752.0,78,69.5,0,0,0,0,0,0
1778086126.160141,4.560663938522339,1,-0.002213001251220703,983,1.3945629596710205,0.7730203866958618,3.4527792930603027,5,1.4373499751777807,1.5056245224254985,3.4874303609414232,2,479,984,0,1.4816481769428331,3.4784058019659585,4.429820176505239,-0.36858672789272795,-0.9024558975464725,4.535811902974812,9.0416222976166,4.5208111488082885,0,0,8,ok,130,248746.0,78,69.5,0,0,0,0,0,0
1778086126.232909,4.633431911468506,1,0.012046098709106445,986,1.6036511659622192,0.8756168484687805,3.4869766235351562,5,1.4344160557419792,1.501144467120437,3.473028869606061,2,483,987,0,1.4860939905360706,3.4733803278093554,5.167793479409144,0.07941880261341794,0.0351458203294186,5.1685231953352835,10.335825980444968,5.167912990222484,0,0,0,ok,130,248746.0,78,69.5,0,0,0,0,0,0
1778086126.306528,4.707051038742065,1,0.005742073059082031,990,1.4975013732910156,0.966225802898407,3.444995641708374,5,1.323767094137041,1.562546786550321,3.477960109026136,2,487,991,0,1.4236216611274919,3.4729291346226643,9.985456699045091,-6.060813140374988,-0.5030974403471777,11.69170254691465,19.9962448997794,9.9981224498897,8,0,-26,ok,130,248750.0,78,69.5,-1,0,0,0,0,0
1778086126.379791,4.780313968658447,1,-0.0007441043853759766,994,1.4105533361434937,0.8771349191665649,3.443859338760376,5,1.3760105831216616,1.5295233519808726,3.4778929412466115,2,490,995,0,1.4447305283343217,3.471058550482086,6.871994521266012,-2.7584696834301425,-0.6834390764525633,7.436434136461884,13.811791726134947,6.905895863067471,0,0,7,ok,130,248754.0,78,69.5,0,0,0,0,0,0
1778086126.451293,4.851815938949585,1,0.010343074798583984,997,1.6114567518234253,0.8809263706207275,3.470249891281128,5,1.414372793887051,1.4472199254539682,3.511024317007848,2,494,998,0,1.4713410099615614,3.487407530775462,5.696821607451041,5.471872969260305,-2.3616786232385945,8.244555545225273,12.333904871788711,6.166952435894347,-3,5,30,ok,130,248754.0,78,69.5,0,0,0,0,0,0
1778086126.523251,4.923774003982544,1,0.002429962158203125,1001,1.616710901260376,0.7648911476135254,3.499063730239868,5,1.3749820945183788,1.5306621597476928,3.4772627306994153,2,497,1002,0,1.452286112185337,3.4720062143115378,7.730401766695816,-2.8723504601121608,-0.5256516387877497,8.263523357842015,15.496505557046577,7.7482527785233,12,-5,-30,ok,130,248748.99999999997,78,69.5,0,0,0,0,0,0
1778086126.595606,4.996129035949707,1,0.015106201171875,1004,1.6123769283294678,0.8832824230194092,3.4692306518554688,5,1.3744677708448674,1.5297302543557074,3.477623043111661,2,501,1005,0,1.4523985289485108,3.471801279808928,7.793075810364347,-2.779159920913621,-0.5821763302732652,8.29425643030338,15.629582190911767,7.814791095455871,5,1,-3,ok,130,248744.99999999997,78,69.5,0,0,0,0,0,0
1778086126.66662,5.067142963409424,1,0.005991935729980469,1008,1.6004503965377808,0.9858185052871704,3.4500958919525146,5,1.4050133959322688,1.4419111689404511,3.497250451603401,2,505,1009,0,1.4742106862798092,3.480953417201275,6.919729034754041,6.002748620612008,-1.6297034402126265,9.304384677114244,14.218098778311974,7.1090493891559765,1,5,30,ok,130,248744.99999999997,78,69.5,0,0,0,0,0,0
1778086126.739073,5.139595985412598,1,-0.001893758773803711,1012,1.5033525228500366,0.7761673927307129,3.467733144760132,5,1.4044084469761764,1.4409716996855786,3.4975475205924753,2,508,1013,0,1.4807075595004515,3.482036567427051,7.629911252427513,6.096695546099262,-1.551095316542428,9.8889402355736,15.571954585204764,7.785977292602377,7,1,3,ok,130,248748.99999999997,78,69.5,0,0,0,0,0,0
1778086126.811832,5.212354898452759,1,0.007197856903076172,1015,1.622841477394104,0.7689976692199707,3.498708724975586,5,1.4059726923692017,1.4454403326595755,3.5116493509009477,2,512,1016,0,1.482689076661457,3.4898207389213143,7.671638429225536,5.649832248699571,-2.182861197963337,9.774432138840067,15.952293778431237,7.976146889215618,5,4,0,ok,130,248748.99999999997,78,69.5,0,0,0,0,0,0
1778086126.8825111,5.283034086227417,1,0.0019540786743164062,1019,1.6189619302749634,0.8866323828697205,3.468762159347534,5,1.4059726923692017,1.4454403326595755,3.5116493509009477,2,515,1020,0,1.4902803614729538,3.491306146273762,8.430766910375208,5.649832248699571,-2.0343204627185862,10.350695381497745,17.345465164372285,8.672732582186143,8,1,2,ok,130,248748.99999999997,78,69.5,0,0,0,0,0,0
1778086126.956224,5.3567469120025635,1,0.015547752380371094,1022,1.6189619302749634,0.8866323828697205,3.468762159347534,5,1.4025369129274718,1.439462981986356,3.4974389293628367,2,519,1023,0,1.5015880088853057,3.4857573617914035,9.90510959578339,6.247567316021518,-1.1681567571433238,11.768937236724483,19.94750975071723,9.973754875358617,12,-1,5,ok,130,248756.0,78,69.5,0,0,0,0,0,0
1778086127.0285618,5.429084777832031,1,0.007985830307006836,1026,1.513621211051941,0.9732626676559448,3.4281952381134033,5,1.4025369129274718,1.439462981986356,3.4974389293628367,2,523,1027,0,1.495473287587088,3.4831289459684207,9.293637465961613,6.247567316021518,-1.4309983394416026,11.289444227437873,18.806323787089273,9.403161893544638,4,2,3,ok,130,248756.0,78,69.5,0,0,0,0,0,0
1778086127.099843,5.500365972518921,1,-0.0005290508270263672,1030,1.6218066215515137,0.8915696144104004,3.467714786529541,5,1.289018577236606,1.62890918247294,3.42649445599472,2,526,1031,0,1.4390326022598512,3.445697400302467,15.001402502324513,-12.697052732636882,1.920294430774705,19.74701891002726,30.247618599659216,15.123809299829608,30,-12,-30,ok,120,248754.0,77,69.5,0,0,0,0,0,0
1778086127.170788,5.571310997009277,1,0.01021718978881836,1033,1.5086174011230469,0.7812180519104004,3.48073148727417,5,1.289018577236606,1.62890918247294,3.42649445599472,2,530,1034,0,1.4325476318094499,3.446416202516136,14.352905457284383,-12.697052732636882,1.9921746521415873,19.26628669478737,28.98100446225971,14.490502231129854,7,0,-10,ok,120,248754.0,77,69.5,0,0,0,0,0,0
1778086127.24289,5.643412828445435,1,0.002351045608520508,1037,1.626116394996643,0.7769775390625,3.4956111907958984,5,1.427998439602282,1.5000823905042884,3.4724038515593842,2,533,1038,0,1.5036416878959669,3.4722156064761798,7.564324829368485,0.18562646422828344,-0.018824508320447464,7.566625514093846,15.128696505160502,7.564348252580262,0,0,30,ok,120,248763.0,77,69.5,0,0,0,0,0,0
1778086127.3144069,5.714929819107056,1,0.013931989669799805,1040,1.6099010705947876,0.9029338955879211,3.475316047668457,5,1.427998439602282,1.5000823905042884,3.4724038515593842,2,537,1041,0,1.5103009721300138,3.47268953790795,8.230253252773178,0.18562646422828344,0.028568634856585007,8.232395881874423,16.460605671928462,8.230302835964242,-4,4,-1,ok,120,248763.0,77,69.5,0,0,0,0,0,0
1778086127.3885891,5.789112091064453,1,0.008244037628173828,1044,1.506454348564148,0.8944500684738159,3.4633185863494873,5,1.3396413023347913,1.5996955502528394,3.4273869748987864,2,541,1045,0,1.458848207944396,3.4479692159135196,11.920690560960479,-9.775689510626817,2.058224101473316,15.553239383171505,24.19414391145576,12.097071955727879,21,-7,-30,ok,120,248754.0,77,69.5,0,0,0,0,0,0
1778086127.459983,5.860506057739258,1,-0.0005068778991699219,1048,1.474534273147583,0.6853182315826416,3.4906980991363525,5,1.3624921228515405,1.524401072476612,3.4633230316900483,2,544,1049,0,1.4612468896323094,3.467308240545952,9.87547667807689,-2.246241733004073,0.398520885590381,10.13555427387084,19.76702896395837,9.883514481979185,0,6,22,ok,120,248754.0,77,70.0,0,0,0,0,0,0
1778086127.53359,5.934113025665283,1,0.012840032577514648,1051,1.474534273147583,0.6853182315826416,3.4906980991363525,5,1.3624921228515405,1.524401072476612,3.4633230316900483,2,548,1052,0,1.4522201610618481,3.4686792367827533,8.972803821030762,-2.246241733004073,0.5356205092704958,9.265187513685008,17.97755241857527,8.988776209287638,3,0,-3,ok,120,248752.0,77,70.0,0,0,0,0,0,0
1778086127.606624,6.007146835327148,1,0.006086826324462891,1055,1.4850882291793823,0.8074389696121216,3.4955341815948486,5,1.3624921228515405,1.524401072476612,3.4633230316900483,2,552,1056,0,1.4504368496948132,3.4728879207503436,8.794472684327271,-2.246241733004073,0.956488906029529,9.12705991794867,17.69266750071747,8.846333750358735,6,-1,-3,ok,120,248760.0,77,70.0,0,0,0,0,0,0
1778086127.680522,6.081044912338257,1,2.5033950805664062e-05,1059,1.595213770866394,0.8090618848800659,3.508556842803955,5,1.3624921228515405,1.524401072476612,3.4633230316900483,2,555,1060,0,1.4487747965269933,3.4754405492674945,8.628267367545273,-2.246241733004073,1.2117517577446169,8.99782985009902,17.425881910335985,8.712940955167998,6,0,-3,ok,120,248760.0,77,70.0,0,0,0,0,0,0
1778086127.755769,6.156291961669922,1,-0.004792928695678711,1063,1.5836042165756226,0.9280280470848083,3.4894158840179443,5,1.3624921228515405,1.524401072476612,3.4633230316900483,2,559,1064,0,1.4534614724927792,3.4759833240639804,9.096934964123871,-2.246241733004073,1.266029237393207,9.455297863870971,18.3692194468283,9.184609723414153,8,0,-3,ok,120,248742.99999999997,77,70.0,0,0,0,0,0,0
1778086127.832024,6.232547044754028,1,0.011567115783691406,1066,1.4799225330352783,0.9240728616714478,3.475454330444336,5,1.3624921228515405,1.524401072476612,3.4633230316900483,2,563,1067,0,1.444324356120194,3.4747235202920077,8.183223326865342,-2.246241733004073,1.1400488601959413,8.562152611585258,16.524509725978202,8.262254862989106,3,0,-3,ok,120,248744.0,77,70.0,0,0,0,0,0,0
1778086127.9064162,6.306939125061035,1,0.005986213684082031,1070,1.5808064937591553,0.9314392805099487,3.48594069480896,5,1.3624921228515405,1.524401072476612,3.4633230316900483,2,567,1071,0,1.442505945067967,3.475387560738289,8.00138222164264,-2.246241733004073,1.2064529048240846,8.39781209550836,16.183651759522917,8.091825879761462,6,0,-3,ok,120,248752.0,77,70.0,0,0,0,0,0,0
1778086127.981028,6.381551027297974,1,0.0005841255187988281,1074,1.5796312093734741,0.8343414664268494,3.5269393920898438,5,1.3624921228515405,1.524401072476612,3.4633230316900483,2,570,1075,0,1.4470794988685498,3.4793638610970614,8.458737601700928,-2.246241733004073,1.6040829407013124,8.8976921624749,17.21898067773793,8.60949033886897,8,-1,-3,ok,120,248752.0,77,70.0,0,0,0,0,0,0
1778086128.055839,6.456362009048462,1,-0.004773139953613281,1078,1.5658870935440063,0.9511526226997375,3.50657320022583,5,1.3624921228515405,1.524401072476612,3.4633230316900483,2,574,1079,0,1.4527890501433263,3.4803560549151538,9.029692729178574,-2.246241733004073,1.703302322510547,9.459502709357366,18.377876872506263,9.188938436253135,9,0,-3,ok,120,248758.0,77,70.0,0,0,0,0,0,0
1778086128.130411,6.530933856964111,1,0.010010957717895508,1081,1.6705963611602783,0.9743651747703552,3.5103037357330322,5,1.3624921228515405,1.524401072476612,3.4633230316900483,2,578,1082,0,1.4650429306441197,3.4815814072024462,10.25508077925792,-2.246241733004073,1.825837551239795,10.655794971550067,20.832701654141978,10.416350827070993,12,0,-3,ok,120,248756.0,77,70.0,0,0,0,0,0,0
1778086128.204533,6.605056047439575,1,0.003665924072265625,1085,1.6697967052459717,0.9780518412590027,3.5232930183410645,5,1.3624921228515405,1.524401072476612,3.4633230316900483,2,582,1086,0,1.4765872103982816,3.4833163344990847,11.409508754674103,-2.246241733004073,1.999330280903644,11.79914460959829,23.16671850695503,11.583359253477518,12,-1,-3,ok,120,248748.99999999997,77,70.0,0,0,0,0,0,0
1778086128.278985,6.6795079708099365,1,-0.002897024154663086,1089,1.5650615692138672,0.9599030613899231,3.5017216205596924,5,1.3624921228515405,1.524401072476612,3.4633230316900483,2,585,1090,0,1.4747026977949986,3.4828891331088183,11.22105749434581,-2.246241733004073,1.956610141877002,11.609739724119542,22.780733485883207,11.390366742941607,8,0,-3,ok,120,248748.99999999997,77,70.0,0,0,0,0,0,0
1778086128.3538759,6.754398822784424,1,0.013416767120361328,1092,1.7277727127075195,1.1136332750320435,3.4915106296539307,5,1.3624921228515405,1.524401072476612,3.4633230316900483,2,589,1093,0,1.4837132288032422,3.4830200547110675,12.122110595170167,-2.246241733004073,1.9697023021019167,12.484826565216336,24.562189840520514,12.28109492026026,12,0,-3,ok,120,248754.0,77,70.0,0,0,0,0,0,0
1778086128.429738,6.830260992050171,1,0.009244918823242188,1096,1.8628907203674316,1.0793997049331665,3.513047456741333,5,1.3954651009351675,1.4351357752782503,3.49697083057737,2,593,1097,0,1.5241352295533153,3.5021935245482902,12.867012861814775,6.68028798683209,0.5222693970920123,14.507206240219336,25.755215806453318,12.877607903226659,12,5,30,ok,120,248754.0,77,70.0,0,0,0,0,0,0
1778086128.503842,6.904365062713623,1,0.003414154052734375,1100,1.865588903427124,1.0808606147766113,3.512895107269287,5,1.305311388056017,1.5504169982621123,3.4630197745477656,2,597,1101,0,1.4968572737179882,3.4869026473122586,19.154588566197116,-4.847834311554111,2.388287276449308,19.90235354844799,38.605811959089195,19.302905979544608,30,-7,-30,ok,120,248757.00000000003,77,70.0,0,0,0,0,0,0
1778086128.579021,6.979543924331665,1,-0.0012440681457519531,1104,1.6739839315414429,0.9873590469360352,3.51898455619812,5,1.3049776510271898,1.5489708161625266,3.4631007655114807,2,600,1105,0,1.5025874503390724,3.4864459655508835,19.76097993118826,-4.703216101595542,2.334520003940277,20.446675846893307,39.796799443654905,19.898399721827445,16,0,-4,ok,120,248757.00000000003,77,70.0,0,0,0,0,0,0
1778086128.651565,7.052088022232056,1,0.011333227157592773,1107,1.7043347358703613,0.879089891910553,3.555102586746216,5,1.3059679303946528,1.5477544620452361,3.463684431882788,2,604,1108,0,1.5117355676682012,3.489770885394061,20.57676372735484,-4.5815806898664935,2.6086453511273255,21.2414481068759,41.48292352567953,20.741461762839766,17,-1,-4,ok,120,248748.99999999997,77,70.0,0,0,0,0,0,0
1778086128.722634,7.123157024383545,1,0.0024940967559814453,1111,1.5833441019058228,0.8563782572746277,3.5334761142730713,5,1.3991195506119265,1.434516689176287,3.49611547293881,2,607,1112,0,1.5528581115734346,3.5074346795808244,15.373856096150806,6.742196597028416,1.1319206642014468,16.82539481284707,30.830938724287947,15.415469362143973,-6,5,30,ok,120,248755.00000000003,77,70.0,0,0,0,0,0,0
1778086128.794591,7.195113897323608,1,0.014445066452026367,1114,1.7302510738372803,1.1162532567977905,3.489922046661377,5,1.3650096103041407,1.5165669857765947,3.4626265875031943,2,611,1115,0,1.5395815394564984,3.4886045511330366,17.457192915235776,-1.4628330630023445,2.5977963629842282,17.70994102173988,35.29884589746764,17.649422948733825,20,-6,-30,ok,120,248755.00000000003,77,70.0,0,0,0,0,0,0
1778086128.865535,7.266057968139648,1,0.005177021026611328,1118,1.813744306564331,1.1601895093917847,3.4922666549682617,5,1.3340778027063194,1.4589919688982294,3.4869045189171985,2,615,1119,0,1.5396583067419918,3.500152581490574,20.55805040356724,4.294668624834186,1.3248062573375297,21.043591105422742,41.201385802668916,20.600692901334458,26,4,21,ok,120,248754.0,77,70.0,0,0,0,0,0,0
1778086128.9374158,7.3379387855529785,1,-0.002743244171142578,1122,1.773989200592041,1.0239386558532715,3.5143258571624756,5,1.4590149134367882,1.4012191578702935,3.4912120740866293,2,618,1123,0,1.6050153926000088,3.5037323107945735,14.600047916322056,10.071949727627771,1.2520236707944221,17.781257934887247,29.307266159171487,14.653633079585743,-8,0,25,ok,120,248752.0,77,70.0,0,1,0,0,0,0
1778086129.012053,7.412575960159302,1,0.011394977569580078,1125,1.5649333000183105,0.9646807312965393,3.515678882598877,5,1.3705836395035909,1.5142999040499516,3.4637461861714987,2,622,1126,0,1.54217741686159,3.4901638309531045,17.159377735799918,-1.2361248903380417,2.64176447816058,17.405492483191914,34.72308533744875,17.361542668724372,22,-5,-30,ok,120,248752.0,77,70.0,0,1,0,0,0,0
1778086129.0847979,7.485320806503296,1,0.004644870758056641,1129,1.8150748014450073,0.9177651405334473,3.5523626804351807,5,1.4123891377049547,1.4357294935266793,3.5116283828636665,2,626,1130,0,1.5599230345883897,3.5165716526220567,14.7533896883435,6.620916161989188,0.4943269758390212,16.178485629973284,29.523337647031877,14.761668823515938,3,7,29,ok,120,248748.0,77,70.0,0,0,0,0,1,0
1778086129.156432,7.556954860687256,1,-0.0036411285400390625,1133,1.762913465499878,1.0207319259643555,3.515515089035034,5,1.407957772190935,1.429910289365179,3.49848083553894,2,629,1134,0,1.563265447703782,3.509781037262001,15.530767551284686,7.202836578139227,1.1300201723060788,17.156996855313473,31.143646949055682,15.571823474527829,15,-2,5,ok,120,248755.00000000003,76,70.0,0,0,0,0,1,0
1778086129.229322,7.629844903945923,1,0.009155988693237305,1136,1.5669188499450684,0.8555169105529785,3.533160924911499,5,1.378167380895761,1.518102968568681,3.4795055985379917,2,633,1137,0,1.5397817591858642,3.498922064896857,16.161437829010318,-1.6164313422109888,1.9416466358865403,16.357717280956326,32.55531074092921,16.277655370464604,15,-3,-30,ok,120,248759.0,76,70.0,0,0,0,0,1,0
1778086129.302927,7.703449964523315,1,0.002492189407348633,1140,1.6556828022003174,0.9846491813659668,3.519481658935547,5,1.4213409450570036,1.4341361540752602,3.5125098205979635,2,637,1141,0,1.5658897100348914,3.5145495224682475,14.454876497788781,6.780250107131103,0.20397018702840164,15.967368284059031,28.912631039289582,14.456315519644791,6,6,30,ok,120,248765.0,76,70.0,0,0,0,0,1,0
1778086129.3769999,7.777522802352905,1,-0.0029680728912353516,1144,1.6535615921020508,0.986475944519043,3.519010543823242,5,1.4661224003119169,1.3451730379138467,3.5434617343866686,2,640,1145,0,1.5834873450538962,3.5318435104352166,11.736494474197933,15.676561723272453,-1.1618223951451956,19.617587040314376,23.58772001027141,11.793860005135706,1,5,30,ok,120,248765.0,76,70.0,0,0,0,0,1,0
1778086129.4496279,7.85015082359314,1,0.009618997573852539,1147,1.671245813369751,0.8774805665016174,3.5543437004089355,5,1.5471326138284174,1.5654185352775745,3.421075910833507,2,644,1148,0,1.6150862959874852,3.4745304139986777,6.795368215906783,-6.347988013100325,5.345450316517075,10.726034686247012,17.291716892906713,8.645858446453344,-9,-25,-30,ok,120,248758.0,76,69.0,0,0,0,0,1,0
1778086129.52197,7.922492980957031,1,0.0018231868743896484,1151,1.6474344730377197,0.9876534342765808,3.518357276916504,5,1.5879890466738389,1.4983044416932882,3.446648145280131,2,647,1152,0,1.6276048419380509,3.4875684949566166,3.9615795264211995,0.3634213453282964,4.092034967648539,5.707095372854585,11.391024979450828,5.695512489725398,0,0,21,ok,120,248757.00000000003,76,69.0,-1,0,0,0,1,0
1778086129.595547,7.99606990814209,1,0.015393972396850586,1154,1.7409695386886597,1.025337815284729,3.5289385318756104,5,1.5355817967416145,1.5134923742563355,3.4443972846701203,2,651,1155,0,1.6124034818888355,3.4872717927314074,7.682168514722099,-1.1553719109764327,4.287450806128712,8.873152300971432,17.595220658299354,8.797610329149688,9,0,-7,ok,120,248762.0,76,69.0,-1,0,0,0,1,0
1778086129.668093,8.068615913391113,1,0.008046865463256836,1158,1.6366013288497925,0.9913575649261475,3.5321877002716064,5,1.3941891107948632,1.5105506368153967,3.4688056861210104,2,655,1159,0,1.5305525468782588,3.498215057196629,13.636343608339562,-0.8611981668825486,2.9409371075618473,13.976431603166073,27.899747531139973,13.949873765569976,30,3,-1,ok,120,248762.0,76,69.0,-1,0,0,0,1,0
1778086129.7409549,8.141477823257446,1,0.0002429485321044922,1162,1.633742094039917,0.9908139705657959,3.532515048980713,5,1.3986636745267074,1.5104785300314654,3.4694147512286357,2,658,1163,0,1.5247166180279335,3.4995820872470462,12.605294350122609,-0.8539874884894161,3.0167336018410484,12.989358025253066,25.922509699310364,12.961254849655177,7,-1,-2,ok,120,248762.0,76,69.0,0,0,0,0,1,0
1778086129.814168,8.214690923690796,1,0.01408696174621582,1165,1.632548213005066,0.9892196655273438,3.5333542823791504,5,1.536614533799788,1.5095799266657983,3.4329980949978434,2,662,1166,0,1.5977938828557237,3.4813858439733787,6.117934905593558,-0.7641271519227111,4.838774897553533,7.837522588329795,15.60036794672152,7.800183973360773,0,0,-1,ok,120,248758.0,76,69.0,0,0,0,0,0,0
1778086129.888067,8.28858995437622,1,0.007970094680786133,1169,1.6323037147521973,0.9847922921180725,3.5357396602630615,5,1.5000785365572358,1.5829718175337582,3.4042336161643045,2,666,1170,0,1.57806469126894,3.468019729639579,7.7986154711704225,-8.103316238718694,6.378611347527441,12.929378177416986,20.14994650017555,10.074973250087789,0,-9,-30,ok,120,248762.0,76,69.0,0,0,0,0,0,0
1778086129.96068,8.361202955245972,1,0.0006070137023925781,1173,1.5291050672531128,0.965226411819458,3.5150344371795654,5,1.4509946981298594,1.609228544626141,3.410324685439145,2,669,1174,0,1.5457442392521932,3.470816757611769,9.47495411223338,-10.728988947956974,6.049207217262387,15.539590317369711,22.482674519398966,11.24133725969947,15,-2,-18,ok,120,248762.0,76,69.0,0,0,0,0,0,0
1778086130.030996,8.431519031524658,1,0.01091909408569336,1176,1.6297497749328613,0.9815069437026978,3.53745174407959,5,1.548409883560542,1.518298189007416,3.4462507400539364,2,673,1177,0,1.5918583295652289,3.4877240376485807,4.344844600468689,-1.6359533860844877,4.147329759464435,6.22530017086747,12.0129960852339,6.00649804261695,0,0,28,ok,120,248762.0,76,69.0,0,0,0,0,0,0
1778086130.1043892,8.50491213798523,1,0.004180192947387695,1180,1.6284453868865967,0.9798403382301331,3.538316011428833,5,1.5438572045439292,1.5133377860943678,3.4337297641621407,2,677,1181,0,1.5883951721724774,3.4827109706097037,4.4537967628548225,-1.1399130947796543,4.898120644756299,6.717685116098707,13.24052739967765,6.620263699838848,0,0,0,ok,120,248761.0,76,69.0,0,0,0,0,0,0
1778086130.176791,8.577313899993896,1,-0.0031719207763671875,1184,1.6284453868865967,0.9798403382301331,3.538316011428833,5,1.5120813347794395,1.5915743332872814,3.41843212097739,2,680,1185,0,1.5654744778026035,3.4756482414894045,5.3393143023164,-8.963567814071016,5.721612051201452,11.899187772315555,15.651852501652852,7.825926250826426,2,-2,-30,ok,120,248761.0,76,69.0,0,0,0,0,0,0
1778086130.2495449,8.650067806243896,1,0.009353876113891602,1187,1.6232019662857056,0.9804909825325012,3.537954568862915,5,1.4578004768818813,1.610923954266294,3.4117728140971333,2,684,1188,0,1.537496588693569,3.472679017336233,7.9696111811687675,-10.898529911972288,6.09062032390999,14.811762641603138,20.06094297973407,10.030471489867047,17,-4,-16,ok,120,248766.0,76,69.0,0,0,0,0,0,0
1778086130.3231292,8.723652124404907,1,0.002979278564453125,1191,1.629172444343567,0.9783818125724792,3.5545828342437744,5,1.5718231033107632,1.5637617994609037,3.4107345528048363,2,687,1192,0,1.594222298801988,3.473539123269026,2.239919549122482,-6.1823144314332446,6.280457046418952,9.092985869754902,13.335873469473913,6.667936734736957,-13,-4,9,ok,120,248765.0,76,69.0,0,0,0,0,0,0
1778086130.3962119,8.796734809875488,1,0.01622605323791504,1194,1.5279382467269897,0.954942524433136,3.5346992015838623,5,1.5675648176097918,1.5676693662815975,3.410867994465259,2,691,1195,0,1.5855550330591226,3.4736899015495317,1.799021544933077,-6.5730711135026265,6.28219070842726,9.26863865297088,13.06941446525944,6.53470723262972,3,-3,-7,ok,120,248767.99999999997,76,69.5,0,0,0,0,0,0
1778086130.467937,8.868459939956665,1,0.007963180541992188,1198,1.6357513666152954,0.9676204919815063,3.544400215148926,5,1.517544399327392,1.412689260251644,3.5095066322457424,2,695,1199,0,1.5607603021593663,3.5235505051201397,4.3215902831974295,8.924939489492711,1.4043872874397234,10.015138097902355,9.088112285606687,4.544056142803337,15,16,30,ok,120,248767.99999999997,76,69.5,0,0,0,0,0,0
1778086130.540641,8.941164016723633,1,0.0006809234619140625,1202,1.5347163677215576,0.9415286183357239,3.5259790420532227,5,1.454181653160553,1.4378406696070227,3.520075869469587,2,698,1203,0,1.5294296353552246,3.5295191615366655,7.524798219467166,6.4097985539548485,0.9443292067078612,9.929746391354586,15.167642650634642,7.5838213253173175,19,1,-5,ok,120,248764.0,76,69.5,0,0,0,0,0,0
1778086130.61268,9.013202905654907,1,0.012650012969970703,1205,1.5347163677215576,0.9415286183357239,3.5259790420532227,5,1.5430163976225946,1.4711362514693955,3.4851239456984646,2,702,1206,0,1.567907419635539,3.511326155774457,2.4891022012944353,3.0802403677175683,2.6202210075992216,4.748585960059051,7.228053098076402,3.614026549038217,0,0,-11,ok,120,248763.0,76,69.5,0,0,0,0,0,0
1778086130.685629,9.086151838302612,1,0.005722761154174805,1209,1.542721152305603,0.9310696721076965,3.5322041511535645,5,1.4838486147953973,1.4954503072366667,3.495399643310663,2,706,1210,0,1.5329657635606282,3.5160820133133512,4.911714876523088,0.648834790990449,2.0682370002688355,5.368755340257075,10.658808060480183,5.329404030240084,0,0,-9,ok,120,248763.0,76,69.5,0,0,0,0,0,0
1778086130.759138,9.159661054611206,1,-0.0007727146148681641,1213,1.7238086462020874,1.0741795301437378,3.5174171924591064,5,1.5592238930819788,1.5275884618954039,3.461971784593679,2,709,1214,0,1.5766136064111371,3.4980619077692516,1.7389713329158285,-2.564980674883266,3.6090123175572586,4.756902045187359,8.012238440032366,4.006119220016183,0,0,-14,ok,120,248763.0,76,69.5,-1,0,0,0,0,0
1778086130.831533,9.232055902481079,1,0.011591911315917969,1216,1.5428307056427002,1.0105969905853271,3.491527557373047,5,1.4486115457143085,1.5760959152853626,3.4628333940153233,2,713,1217,0,1.5162842289371141,3.495591024261957,6.767268322280562,-7.4157260138791425,3.2757630246633695,10.560281068817131,15.03682731689018,7.51841365844509,7,-4,-23,ok,120,248771.0,76,69.5,0,0,0,0,0,0
1778086130.904756,9.305279016494751,1,0.0046999454498291016,1220,1.4607362747192383,0.9041122198104858,3.50059175491333,5,1.4848355063067091,1.4988324144456033,3.4950425960575173,2,717,1221,0,1.5238689486317938,3.5083211828249015,3.9033442325084655,0.3106240700967877,1.3278586767384137,4.134705814900268,8.24604265398782,4.123021326993906,0,0,24,ok,120,248766.0,76,69.5,0,0,0,0,0,0
1778086130.976945,9.37746787071228,1,-0.0029680728912353516,1224,1.677567720413208,0.9242028594017029,3.5374934673309326,5,1.4447853875210825,1.5754255774500407,3.4642831077688943,2,720,1225,0,1.5131957313443691,3.4931160802897816,6.841034382328659,-7.348692230346954,2.8832972520887346,10.445881100245542,14.847646879435874,7.423823439717927,8,-1,-30,ok,120,248766.0,76,69.5,0,0,0,0,0,0
1778086131.0490382,9.44956111907959,1,0.00927734375,1227,1.4721051454544067,0.8940461277961731,3.507206916809082,5,1.5948654393276875,1.4047609358857978,3.522218416387692,2,724,1228,0,1.5780078684251162,3.51975915345294,-1.685757090257134,9.717771926077345,-0.2459262934751738,9.865969182823937,3.407202200735751,1.7036011003678755,-26,10,30,ok,120,248762.0,76,69.5,0,0,0,0,0,0
1778086131.121629,9.522151947021484,1,0.001817941665649414,1231,1.6720715761184692,1.01779043674469,3.508110761642456,5,1.5438983016282797,1.4833477980155894,3.4992656712286214,2,727,1232,0,1.5611090001002192,3.507166013347732,1.7210698471939567,1.8590857130981853,0.7900342119110615,2.653758686006689,3.7874717028171503,1.8937358514085751,0,0,-27,ok,120,248764.0,75,69.5,0,0,0,0,0,0
1778086131.193919,9.594441890716553,1,0.01397705078125,1234,1.4873000383377075,0.8788649439811707,3.5011849403381348,5,1.463028465282473,1.4513582601921464,3.5326382196896233,2,731,1235,0,1.5177105613408253,3.52230265622104,5.468209605835228,5.058039495442479,-1.033556346858333,7.520194050218107,11.130059301815027,5.565029650907514,0,0,12,ok,120,248764.0,75,69.5,0,0,0,0,0,0
1778086131.2656698,9.666192770004272,1,0.005627870559692383,1238,1.498161792755127,0.8713340163230896,3.5059127807617188,5,1.484568686661969,1.51092266460702,3.5084139245744432,2,735,1239,0,1.5256957120586685,3.5085472980139594,4.112702539669955,-0.898400946044875,0.01333734395161379,4.2097059665023755,8.225448331744934,4.112724165872467,0,0,-23,ok,120,248776.00000000003,75,69.5,0,0,0,0,0,0
1778086131.3388171,9.73934006690979,1,-0.0013129711151123047,1242,1.6990543603897095,1.0068604946136475,3.503138303756714,5,1.5428764537342532,1.4870947088752695,3.4986548227752077,2,738,1243,0,1.553302452731537,3.5027753165704425,1.0425998997283914,1.48439462713017,0.41204937952348253,1.8601684469779223,2.242141157090068,1.1210705785450523,0,0,7,ok,120,248771.99999999997,75,69.5,0,0,0,0,0,0
1778086131.413552,9.814074993133545,1,0.013758182525634766,1245,1.512393593788147,0.8612136840820312,3.497748613357544,5,1.5501975288818102,1.4935757764978814,3.5116478510392852,2,742,1246,0,1.555060670814406,3.509660646701512,0.4863141932595738,0.8362878648689787,-0.19872043377731075,0.9876075628980713,1.0506974928424502,0.5253487464212251,0,0,-3,ok,120,248761.0,75,70.0,0,0,0,0,0,0
1778086131.487272,9.887794971466064,1,0.007400989532470703,1249,1.5275911092758179,0.8558735847473145,3.4894468784332275,5,1.5239157499781313,1.4360088179422212,3.5363595129578798,2,746,1250,0,1.5460982085223527,3.521319922880803,2.2182458544221406,6.592983720434997,-1.503959007707678,7.116877243949553,5.36004006236001,2.680020031180005,0,0,22,ok,120,248761.0,75,70.0,0,0,0,0,0,0
1778086131.5601301,9.960653066635132,1,0.0003211498260498047,1253,1.5325349569320679,0.7370738983154297,3.5038414001464844,5,1.4822108883295568,1.5151280974315937,3.508284870372964,2,749,1254,0,1.5161812299804942,3.5051793473893174,3.3970341650937375,-1.3189442285022501,-0.3105522983646747,3.657307442194747,6.82239953354645,3.411199766773222,0,0,-29,ok,120,248773.0,75,70.0,-1,0,0,0,0,0
1778086131.6329548,10.033477783203125,1,0.013348817825317383,1256,1.5367523431777954,0.7385227084159851,3.5041186809539795,5,1.480876932926927,1.5171854659594857,3.5077570083808576,2,753,1257,0,1.5195547021368911,3.50472240165232,3.867776920996424,-1.5246810812914458,-0.30346067285376144,4.168505618349276,7.7593264374071405,3.8796632187035813,0,0,-3,ok,120,248771.99999999997,75,70.0,0,0,0,0,0,0
1778086131.705622,10.106144905090332,1,0.005121946334838867,1260,1.5410734415054321,0.7402419447898865,3.5053160190582275,5,1.4827228266481085,1.5281884404262502,3.520375171891832,2,757,1261,0,1.512290265584167,3.510856811996293,2.956743893605851,-2.6249785279679028,-0.9518359895539064,4.066797078251887,6.212350989242495,3.1061754946212474,0,0,-7,ok,120,248771.99999999997,75,70.0,0,0,0,0,0,0
1778086131.7795331,10.180056095123291,1,-0.00022983551025390625,1264,1.4379161596298218,0.7601714134216309,3.472189426422119,5,1.4813513027661975,1.530237025138164,3.5198745463182615,2,760,1265,0,1.5085180112239687,3.5087942795897566,2.716670845777114,-2.8298369991592853,-1.1080266728504817,4.0762729341709045,5.8678867037608855,2.9339433518804428,0,0,-4,ok,120,248771.99999999997,75,70.0,0,0,0,0,0,0
1778086131.8513448,10.251867771148682,1,0.010799884796142578,1267,1.5583839416503906,0.8582600951194763,3.480165481567383,5,1.4795744319338036,1.5305048231207974,3.519533726167527,2,764,1268,0,1.5113934601137258,3.5070146633147434,3.1819028179922215,-2.8566167974226175,-1.2519062852783591,4.455562188723591,6.838647495014268,3.419323747507144,0,0,-3,ok,120,248767.99999999997,75,70.0,0,0,0,0,0,0
1778086131.92379,10.324312925338745,1,0.004060983657836914,1271,1.5519158840179443,0.7470844388008118,3.4899613857269287,5,1.4440943722719577,1.6035219047921996,3.4876928008592265,2,768,1272,0,1.4844572755095675,3.490270643283732,4.036290323760983,-10.158324964562837,0.25778424245053166,10.933876640012127,8.08902770259621,4.044513851298118,8,0,-30,ok,120,248767.99999999997,75,70.0,0,0,0,0,0,0
1778086131.9963222,10.39684510231018,1,-0.004253864288330078,1275,1.6702851057052612,0.8788771629333496,3.4860920906066895,5,1.4778041958284407,1.530765552124124,3.5192009728886084,2,771,1276,0,1.5111804067826284,3.505296196626494,3.3376210954187746,-2.8826896977552696,-1.3904776262114282,4.624180197518622,7.23136020554337,3.615680102771675,0,0,21,ok,120,248763.0,75,70.0,0,0,0,0,0,0
1778086132.079376,10.479898929595947,1,-0.00026106834411621094,1279,1.5571280717849731,0.7546659111976624,3.486926794052124,5,1.414137814815647,1.5539144938706793,3.510507259792826,2,775,1280,0,1.481193276433054,3.500791834804784,6.705546161740705,-5.197583872410805,-0.971542498804201,8.539503631064461,13.55112455174375,6.775562275871887,13,2,-12,ok,120,248765.0,75,70.0,0,0,0,0,0,0
1778086132.150502,10.551024913787842,1,0.011082172393798828,1282,1.5571280717849731,0.7546659111976624,3.486926794052124,5,1.474280848398082,1.531266781175185,3.518559448414113,2,779,1283,0,1.512801862902578,3.50376076623453,3.8521014504495854,-2.932812602861379,-1.4798682179583356,5.0626164471132435,8.253168004367534,4.1265840021837645,0,0,3,ok,120,248769.99999999997,75,70.0,0,0,0,0,0,0
1778086132.222678,10.6232008934021,1,0.0031099319458007812,1286,1.5424963235855103,0.7720277905464172,3.493698835372925,5,1.4427370910246997,1.6071386912017878,3.485035193696256,2,782,1287,0,1.4973889829913691,3.486347398526785,5.465189196666942,-10.520003605521655,0.13122048305294065,11.855631051560533,10.9335285741681,5.466764287084061,6,-2,-30,ok,120,248769.99999999997,75,70.0,0,0,0,0,0,0
1778086132.295281,10.695803880691528,1,0.015695810317993164,1289,1.3262276649475098,0.7090417742729187,3.4416515827178955,5,1.5215046331813822,1.4553001840403197,3.5622178254119836,2,786,1290,0,1.52334489303484,3.5209596871133786,0.18402598534579262,4.663847110625152,-4.125813829860503,6.22958065950167,8.25983179536985,4.129915897684925,0,0,30,ok,120,248769.99999999997,75,70.0,0,0,0,0,0,0
1778086132.367302,10.76782488822937,1,0.007779836654663086,1293,1.66236412525177,0.8989740014076233,3.5043375492095947,5,1.4722829540275677,1.5323738097903234,3.518241085528647,2,790,1294,0,1.5127620513093047,3.5009805748459275,4.047909728173704,-3.043515464375224,-1.7260510682719499,5.350496410578852,8.801096626608745,4.400548313304383,0,0,-30,ok,120,248764.0,75,70.0,0,0,0,0,0,0
1778086132.439946,10.840468883514404,1,-0.00010013580322265625,1297,1.6865789890289307,0.7738680839538574,3.5232229232788086,5,1.4711247990887282,1.5334968405509803,3.51782764940372,2,793,1298,0,1.5201951643010436,3.5034649468904284,4.907036521231545,-3.1558185404409134,-1.4362702513291747,6.008416623016747,10.22582606062775,5.112913030313869,0,0,-4,ok,120,248771.0,75,70.0,0,0,0,0,0,0
1778086132.510817,10.91133999824524,1,0.011342048645019531,1300,1.682392954826355,0.7781500816345215,3.522123098373413,5,1.5336768919816812,1.5116928039162016,3.5233495209177383,2,797,1301,0,1.5596260276730458,3.508235989687843,2.594913569136459,-0.9754148769630433,-1.511353122989556,3.1574038189404323,6.005918645356052,3.0029593226780147,0,0,4,ok,120,248771.0,75,70.0,0,0,0,0,0,0
1778086132.5828428,10.983365774154663,1,0.003326892852783203,1304,1.422972559928894,0.6842442750930786,3.477799654006958,5,1.4469221682288218,1.4839905627907641,3.5564170123305656,2,800,1305,0,1.5007916316855932,3.524251458106773,5.386946345677135,1.7948092355807077,-3.2165554223792636,6.5258531939178255,12.548373554599285,6.274186777299643,0,0,8,ok,120,248771.0,75,70.0,0,0,0,0,0,0
1778086132.654826,11.055348873138428,1,0.014773845672607422,1307,1.9142483472824097,0.6428087949752808,3.558316230773926,5,1.4148933595114979,1.565574482540729,3.5219429551266974,2,804,1308,0,1.507097244545521,3.5114762692999513,9.220388503402322,-6.363582739415774,-1.0466685826746147,11.251944923302023,18.55921111207387,9.279605556036948,12,1,-30,ok,120,248767.99999999997,75,70.0,0,0,0,0,0,0
