timestamp,elapsed,target_x,target_y,target_z,pos_x,pos_y,pos_z,marker_id,err_x_cm,err_y_cm,err_z_cm,err_3d_cm,cmd_lr,cmd_fb,cmd_ud,feedback,tello_height_cm,tello_baro_cm,tello_battery,tello_temp_c,tello_pitch,tello_roll,tello_yaw,tello_vgx,tello_vgy,tello_vgz,tello_agx,tello_agy,tello_agz
1777592880.773437,1.1920928955078125e-06,1.4340309419768875,1.417473264912406,3.0519425911278932,1.434088975827278,1.4279023032478388,3.0553008305546157,2,-0.005803385039038211,-1.042903833543285,-0.335823942672242,1.0956549665698232,0,0,0,ok,140,252875.0,39,75.5,0,-1,0,0,0,0,-7.0,-1.0,-996.0
1777592880.845644,0.07220816612243652,1.4340309419768875,1.417473264912406,3.0519425911278932,1.4326013598188352,1.42308677368317,3.0450312961142836,2,0.14295821580523338,-0.5613508770764053,0.6911295013609653,0.901782593706555,0,0,0,ok,140,252871.0,39,75.5,0,-1,0,0,0,0,5.0,-20.0,-1024.0
1777592880.9178061,0.14437031745910645,1.4340309419768875,1.417473264912406,3.0519425911278932,1.4370654544150974,1.4202737310951883,3.0450762067241803,2,-0.30345124382098465,-0.2800466182782291,0.68663844037129,0.8012372392625623,0,0,0,ok,140,252882.00000000003,39,75.5,0,-1,0,0,0,0,-6.0,11.0,-1014.0
1777592880.9892638,0.21582794189453125,1.4340309419768875,1.417473264912406,3.0519425911278932,1.4370654544150974,1.4202737310951883,3.0450762067241803,2,-0.30345124382098465,-0.2800466182782291,0.68663844037129,0.8012372392625623,0,0,0,ok,140,252882.00000000003,39,75.5,0,-1,0,0,0,0,-6.0,11.0,-1014.0
1777592881.061802,0.28836607933044434,1.4340309419768875,1.417473264912406,3.0519425911278932,1.4349886841493895,1.4271927859074456,3.05598636349185,2,-0.09577421725019963,-0.9719520995039588,-0.4043772363956588,1.0570641105131855,0,0,0,ok,140,252880.00000000003,39,75.5,0,-1,0,0,0,0,4.0,29.0,-1026.0
1777592881.133567,0.36013126373291016,1.4340309419768875,1.417473264912406,3.0519425911278932,1.4355282474768194,1.4287560419045806,3.0557946235948417,2,-0.1497305499931878,-1.1282776992174615,-0.38520324669484296,1.2015870111718747,0,0,0,ok,140,252877.0,39,75.5,0,-1,0,0,0,0,-20.0,20.0,-968.0
1777592881.203307,0.4298710823059082,1.4340309419768875,1.417473264912406,3.0519425911278932,1.4679203352736967,1.37008617596394,3.078001739458697,2,-3.388939329680918,4.738708894846599,-2.6059148330803694,6.382089304265862,0,0,0,ok,140,252881.0,39,75.5,0,-1,0,0,0,0,-17.0,22.0,-990.0
1777592881.274631,0.5011951923370361,1.4340309419768875,1.417473264912406,3.0519425911278932,1.4392190943801557,1.430882269628412,3.0542768353322387,2,-0.5188152403268198,-1.3409004716006034,-0.23342442043454703,1.4565954443115976,0,0,0,ok,140,252881.0,39,75.5,0,-1,0,0,0,0,-17.0,22.0,-990.0
1777592881.346402,0.5729660987854004,1.4340309419768875,1.417473264912406,3.0519425911278932,1.4820377678900751,1.4079933024458358,3.0484926898103555,2,-4.800682591318761,0.9479962466570235,0.34499013175377513,4.905534468054863,0,0,0,ok,140,252881.0,39,75.5,0,-1,0,0,0,0,-26.0,37.0,-979.0
1777592881.417922,0.6444861888885498,1.4340309419768875,1.417473264912406,3.0519425911278932,1.4427332732683142,1.4290935979763324,3.05368417900914,2,-0.8702331291426724,-1.1620333063926402,-0.17415878812467867,1.4621759086048145,0,0,0,ok,140,252873.0,39,75.5,0,-1,0,0,0,0,-24.0,0.0,-1011.0
1777592881.489877,0.7164411544799805,1.4340309419768875,1.417473264912406,3.0519425911278932,1.4325901031623272,1.428141578881883,3.043995354029679,2,0.14408388145603634,-1.0668313969476984,0.7947237098214099,1.338086383370341,0,0,0,ok,140,252873.0,39,75.5,0,-1,0,0,0,0,-24.0,0.0,-1011.0
1777592881.562618,0.789182186126709,1.4340309419768875,1.417473264912406,3.0519425911278932,1.438145726602529,1.4328261874032773,3.0536244094472575,2,-0.4114784625641521,-1.535292249087128,-0.16818183193643144,1.5983497564221243,0,0,0,ok,140,252875.0,39,75.5,0,-1,0,0,0,0,-1.0,1.0,-999.0
1777592881.633764,0.860328197479248,1.4340309419768875,1.417473264912406,3.0519425911278932,1.4349871874285856,1.4322767583243774,3.0549505551059783,2,-0.09562454516980345,-1.4803493411971402,-0.30079639780851153,1.5136236978048128,0,0,0,ok,140,252882.00000000003,39,75.5,0,0,0,0,0,0,-26.0,15.0,-933.0
1777592881.704938,0.931502103805542,1.4340309419768875,1.417473264912406,3.0519425911278932,1.4779127838646502,1.413422196591823,3.0482810124754285,2,-4.388184188776267,0.40510683205829956,0.36615786524647476,4.422029353395135,0,0,0,ok,140,252882.00000000003,39,75.5,0,0,0,0,0,0,-26.0,15.0,-933.0
1777592881.774512,1.0010762214660645,1.4340309419768875,1.417473264912406,3.0519425911278932,1.438665521964121,1.4344044355246175,3.0534391452468626,2,-0.4634579987233378,-1.69311706122115,-0.14965541189693177,1.7617705417814278,0,0,0,ok,150,252873.99999999997,39,75.5,0,0,0,0,0,0,-21.0,25.0,-972.0
1777592881.846601,1.0731651782989502,1.4340309419768875,1.417473264912406,3.0519425911278932,1.4669702083355816,1.374736531512292,3.0771250532849383,2,-3.293926635869404,4.273673340011408,-2.5182462157045116,5.954477349232617,0,0,0,ok,150,252886.0,39,75.5,0,0,0,0,0,0,5.0,0.0,-1034.0
1777592881.918079,1.1446430683135986,1.4340309419768875,1.417473264912406,3.0519425911278932,1.4355076726329954,1.4338603524844928,3.0547667473596087,2,-0.1476730656107872,-1.6387087572086845,-0.2824156231715502,1.6694107671483056,0,0,0,ok,150,252881.0,39,75.5,0,-1,0,0,0,0,-41.0,42.0,-1015.0
1777592881.9887092,1.215273380279541,1.4340309419768875,1.417473264912406,3.0519425911278932,1.4391816135600621,1.4359902875440964,3.0532553749345763,2,-0.5150671583174615,-1.8517022631690416,-0.13127838066830932,1.9264811087144014,0,0,0,ok,150,252881.0,39,75.5,0,-1,0,0,0,0,-41.0,42.0,-1015.0
1777592882.060218,1.2867822647094727,1.4340309419768875,1.417473264912406,3.0519425911278932,1.4390636889249757,1.4320687794565412,3.0541818106497804,2,-0.5032746948088196,-1.4595514544135213,-0.22392195218872146,1.5600374698024224,0,0,0,ok,150,252875.0,39,75.5,0,-1,0,0,0,0,-12.0,27.0,-1000.0
1777592882.130384,1.3569481372833252,1.4340309419768875,1.417473264912406,3.0519425911278932,1.4473176879062735,1.4728253418956987,3.024986845962606,2,-1.3286745929385946,-5.53520769832927,2.6955745165287315,6.298414277556158,0,0,0,ok,150,252880.00000000003,39,75.5,0,-1,0,0,0,0,2.0,-8.0,-1003.0
1777592882.198085,1.4246492385864258,1.4340309419768875,1.417473264912406,3.0519425911278932,1.4274305081855858,1.5237532251869008,3.000185947623285,2,0.6600433791301707,-10.627996027449482,5.17566435046084,11.839656172813752,0,0,0,ok,150,252878.00000000003,39,75.5,0,-1,0,0,0,0,-11.0,38.0,-1015.0
1777592882.266005,1.4925692081451416,1.4340309419768875,1.417473264912406,3.0519425911278932,1.4385754194782356,1.4395361215811882,3.0524508123094614,2,-0.4544477501348121,-2.206285666878216,-0.05082211815681248,2.2531760004866,0,0,0,ok,150,252880.00000000003,39,75.5,0,-1,0,0,0,0,-39.0,40.0,-989.0
1777592882.334823,1.561387062072754,1.4340309419768875,1.417473264912406,3.0519425911278932,1.4810932354244004,1.416644302502108,3.046860483011846,2,-4.706229344751289,0.08289624102979509,0.5082108116047035,4.734315648666334,0,0,0,ok,150,252880.00000000003,39,75.5,0,-1,0,0,0,0,-39.0,40.0,-989.0
1777592882.4031732,1.629737377166748,1.4340309419768875,1.417473264912406,3.0519425911278932,1.4153957195795361,1.4012390383512718,3.071568682205932,2,1.863522239735138,1.6234226561134157,-1.9626091078038588,3.1559548108939177,0,0,0,ok,150,252873.0,39,75.5,0,0,0,0,0,0,-10.0,19.0,-1000.0
1777592882.471186,1.6977500915527344,1.4340309419768875,1.417473264912406,3.0519425911278932,1.44926078273147,1.4779432342862804,3.0231064381626354,2,-1.5229840754582558,-6.046996937387439,2.8836152965257877,6.870290360183476,0,0,0,ok,150,252882.00000000003,39,75.5,0,-1,0,0,0,0,-16.0,17.0,-1021.0
1777592882.538871,1.7654352188110352,1.4340309419768875,1.417473264912406,3.0519425911278932,1.4379314554005143,1.4430958088734571,3.051671740618863,2,-0.3900513423626739,-2.5622543961051125,0.027085050903030705,2.5919145896462945,0,0,0,ok,150,252882.00000000003,39,75.5,0,-1,0,0,0,0,-16.0,17.0,-1021.0
1777592882.6091788,1.8357429504394531,1.4340309419768875,1.417473264912406,3.0519425911278932,1.4146818127619254,1.4049772062730645,3.070798070352482,2,1.9349129214962124,1.2496058639341445,-1.8855479224588745,2.9766917537495523,0,0,0,ok,150,252880.00000000003,39,75.5,0,0,0,0,0,0,0.0,-7.0,-1015.0
1777592882.679931,1.9064950942993164,1.4340309419768875,1.417473264912406,3.0519425911278932,1.4151693198350968,1.4066773856147665,3.0706305977251516,2,1.8861622141790768,1.0795879297639477,-1.8688006597258333,2.8662752662786306,0,0,0,ok,150,252880.00000000003,39,75.5,0,0,0,0,0,0,0.0,-7.0,-1015.0
1777592882.75234,1.9789042472839355,1.4340309419768875,1.417473264912406,3.0519425911278932,1.4095334959631045,1.502427808598925,3.0265416624576518,2,2.449744601378301,-8.495454368651911,2.5400928670241463,9.199242648986704,0,0,0,ok,150,252877.0,39,76.0,0,0,0,0,0,0,-20.0,36.0,-1013.0
1777592882.824687,2.051251173019409,1.4340309419768875,1.417473264912406,3.0519425911278932,1.4156536041999774,1.4083853528781063,3.0704643235387143,2,1.8377337776910085,0.9087912034299706,-1.8521732410821112,2.7629174081175085,0,0,0,ok,150,252877.0,39,76.0,0,0,0,0,0,0,-12.0,10.0,-993.0
1777592882.8959732,2.12253737449646,1.4340309419768875,1.417473264912406,3.0519425911278932,1.4191564618508898,1.4067693406844461,3.0700041185933595,2,1.487448012599768,1.070392422795985,-1.8061527465466298,2.5730194855119137,0,0,0,ok,150,252877.0,39,76.0,0,0,0,0,0,0,-5.0,29.0,-1015.0
1777592882.967433,2.1939971446990967,1.4340309419768875,1.417473264912406,3.0519425911278932,1.3963394654149437,1.4702249574970057,3.0550787805932273,2,3.7691476561943826,-5.275169258459966,-0.3136189465334116,6.490935341167821,0,0,0,ok,150,252877.0,39,76.0,0,0,0,0,0,0,-5.0,29.0,-1015.0
1777592883.038951,2.265515089035034,1.4340309419768875,1.417473264912406,3.0519425911278932,1.4386458651048961,1.4515818840988661,3.050432517272048,2,-0.46149231280085967,-3.410861918646013,0.15100738558451177,3.4452514296267145,0,0,0,ok,150,252885.0,39,76.0,0,0,0,0,0,0,-6.0,6.0,-1011.0
1777592883.110251,2.336815118789673,1.4340309419768875,1.417473264912406,3.0519425911278932,1.4110166649050244,1.5070895980441623,3.0260459785845337,2,2.30142770718631,-8.961633313175632,2.589661254335951,9.608006377154053,0,0,0,ok,150,252882.00000000003,39,76.0,0,-1,0,0,0,0,-26.0,20.0,-1004.0
1777592883.181395,2.407959222793579,1.4340309419768875,1.417473264912406,3.0519425911278932,1.4391041272724872,1.4532352809511013,3.0502731589934537,2,-0.5073185295599636,-3.5762016038695332,0.16694321344394858,3.6158622814577575,0,0,0,ok,150,252882.00000000003,39,76.0,0,-1,0,0,0,0,-26.0,20.0,-1004.0
1777592883.252342,2.4789061546325684,1.4340309419768875,1.417473264912406,3.0519425911278932,1.4354812368108159,1.4510948312903733,3.0517644908782597,2,-0.1450294833928334,-3.3621566377967316,0.01781002496334949,3.3653302965865044,0,0,0,ok,150,252883.0,39,76.0,0,-1,0,0,0,0,-1.0,-1.0,-1006.0
1777592883.324425,2.5509891510009766,1.4340309419768875,1.417473264912406,3.0519425911278932,1.453464012251658,1.492203217039485,3.032449123188798,2,-1.943307027477048,-7.4729952127079,1.9493467939095233,7.963796367005012,0,0,0,ok,150,252873.0,39,76.0,0,-1,0,0,0,0,-11.0,-19.0,-989.0
1777592883.396784,2.6233482360839844,1.4340309419768875,1.417473264912406,3.0519425911278932,1.4084918064204603,1.5152969097175863,3.036637803094595,2,2.5539135556427173,-9.782364480518035,1.5304788033298156,10.225433714363335,0,0,0,ok,150,252877.0,39,76.0,0,0,0,0,0,0,-2.0,15.0,-1004.0
1777592883.467912,2.6944761276245117,1.4340309419768875,1.417473264912406,3.0519425911278932,1.4931016750564978,1.4772606351897783,3.0376709066948138,2,-5.9070733079610305,-5.978737027737235,1.4271684433079468,8.524999781702986,0,0,0,ok,150,252877.0,39,76.0,0,0,0,0,0,0,-2.0,15.0,-1004.0
1777592883.539593,2.7661571502685547,1.4340309419768875,1.417473264912406,3.0519425911278932,1.448936479259809,1.4920340318709302,3.033247163586869,2,-1.4905537282921433,-7.4560766958524205,1.8695427541024046,7.83007153356698,0,0,0,ok,150,252882.00000000003,39,76.0,0,0,0,0,0,0,-19.0,29.0,-992.0
1777592883.611903,2.8384671211242676,1.4340309419768875,1.417473264912406,3.0519425911278932,1.4269815533079862,1.5538157581015817,3.0174292466318815,2,0.7049388668901369,-13.634249318917568,3.4513344496011733,14.081953088242424,0,0,0,ok,150,252871.0,39,76.0,0,0,0,0,0,0,-25.0,33.0,-994.0
1777592883.684221,2.91078519821167,1.4340309419768875,1.417473264912406,3.0519425911278932,1.4269815533079862,1.5538157581015817,3.0174292466318815,2,0.7049388668901369,-13.634249318917568,3.4513344496011733,14.081953088242424,0,0,0,ok,150,252871.0,39,76.0,0,0,0,0,0,0,-25.0,33.0,-994.0
1777592883.756145,2.9827091693878174,1.4340309419768875,1.417473264912406,3.0519425911278932,1.437253996728379,1.4618923952936864,3.061120547759116,2,-0.32230547514915386,-4.4419130381280425,-0.9177956631222894,4.547177271324387,0,0,0,ok,150,252876.00000000003,39,76.0,0,0,0,0,0,0,-17.0,-7.0,-995.0
1777592883.8284318,3.0549960136413574,1.4340309419768875,1.417473264912406,3.0519425911278932,1.395802171940069,1.482422313395742,3.06529228570319,2,3.822877003681846,-6.494904848333594,-1.3349694575296667,7.653778219070877,0,0,0,ok,150,252876.00000000003,39,76.0,0,-1,0,0,0,0,-7.0,7.0,-996.0
1777592883.8992152,3.125779390335083,1.4340309419768875,1.417473264912406,3.0519425911278932,1.4146523967906801,1.5210368526277627,3.046237295098238,2,1.9378545186207408,-10.356358771535668,0.5705296029655305,10.551537857959975,0,0,0,ok,150,252876.00000000003,39,76.0,0,-1,0,0,0,0,-7.0,7.0,-996.0
1777592883.969321,3.195885181427002,1.4340309419768875,1.417473264912406,3.0519425911278932,1.3970110051078541,1.488807001409337,3.0757950478674956,2,3.7019936869033376,-7.133373649693109,-2.3852456739602346,8.383267490015701,0,0,0,ok,150,252878.00000000003,39,76.0,0,-1,0,0,0,0,-25.0,23.0,-960.0
1777592884.041347,3.267911195755005,1.4340309419768875,1.417473264912406,3.0519425911278932,1.3970110051078541,1.488807001409337,3.0757950478674956,2,3.7019936869033376,-7.133373649693109,-2.3852456739602346,8.383267490015701,0,0,0,ok,150,252879.0,39,76.0,0,-1,0,0,0,0,-21.0,19.0,-997.0
1777592884.11217,3.3387341499328613,1.4340309419768875,1.417473264912406,3.0519425911278932,1.393239544137126,1.4868457907791202,3.0770805465505213,2,4.07913978397616,-6.937252586671416,-2.513795542262809,8.431134138228185,0,0,0,ok,150,252875.0,39,76.0,0,-1,0,0,0,0,-6.0,2.0,-988.0
1777592884.1840808,3.410645008087158,1.4340309419768875,1.417473264912406,3.0519425911278932,1.401504697468495,1.4835605932045905,3.0761397677692885,2,3.2526244508392477,-6.6087328292184555,-2.4197176641395313,7.753060621479492,0,0,0,ok,150,252875.0,39,76.0,0,-1,0,0,0,0,-6.0,2.0,-988.0
1777592884.256075,3.4826390743255615,1.4340309419768875,1.417473264912406,3.0519425911278932,1.3959891128744608,1.4855192058693052,3.0761276866028124,2,3.8041829102426705,-6.80459409568992,-2.4185095474919205,8.162321780779664,0,0,0,ok,150,252881.0,39,76.0,0,-1,0,0,0,0,-15.0,-5.0,-969.0
1777592884.3281338,3.5546979904174805,1.4340309419768875,1.417473264912406,3.0519425911278932,1.4432691277082066,1.4614106054848146,3.0717475310039832,2,-0.9238185731319071,-4.393734057240861,-1.980493987609,4.907208591121546,0,0,0,ok,150,252875.0,39,76.0,0,0,0,0,0,0,-10.0,25.0,-980.0
1777592884.4002519,3.6268160343170166,1.4340309419768875,1.417473264912406,3.0519425911278932,1.4004301160599149,1.4803026259517118,3.0764795335132917,2,3.3600825916972665,-6.282936103930581,-2.4536942385398497,7.535652362293861,0,0,0,ok,150,252875.0,39,76.0,0,0,0,0,0,0,-10.0,25.0,-980.0
1777592884.4712472,3.6978113651275635,1.4340309419768875,1.417473264912406,3.0519425911278932,1.414256090414244,1.5144416490257329,3.047366973869837,2,1.977485156264347,-9.696838411332687,0.45756172580562193,9.906991745815933,0,0,0,ok,150,252881.0,39,76.0,0,0,0,0,0,0,-17.0,23.0,-1007.0
1777592884.541155,3.767719268798828,1.4340309419768875,1.417473264912406,3.0519425911278932,1.4449728769884644,1.46145267382273,3.0833080670899506,2,-1.094193501157692,-4.397940891032404,-3.136547596205741,5.511540104385945,0,0,0,ok,150,252873.0,39,76.0,0,-1,0,0,0,0,-37.0,32.0,-980.0
1777592884.6124659,3.8390300273895264,1.4340309419768875,1.417473264912406,3.0519425911278932,1.3950033387511829,1.4812984297739678,3.0764774897699643,2,3.9027603225704643,-6.382516486156176,-2.4534898642071035,7.8732247107048,0,0,0,ok,150,252873.0,39,76.0,0,-1,0,0,0,0,-37.0,32.0,-980.0
1777592884.684167,3.910731077194214,1.4340309419768875,1.417473264912406,3.0519425911278932,1.3960586316226133,1.480283767571816,3.077124105844827,2,3.7972310354274175,-6.281050265940991,-2.518151471693386,7.759616151207618,0,0,0,ok,150,252873.99999999997,39,76.0,0,-1,0,0,0,0,-29.0,11.0,-987.0
1777592884.755556,3.9821202754974365,1.4340309419768875,1.417473264912406,3.0519425911278932,1.3993420377180759,1.477076855670747,3.0768234539232258,2,3.468890425881166,-5.9603590758340985,-2.4880862795332526,7.331415581867498,0,0,0,ok,150,252877.0,39,76.0,0,-1,0,0,0,0,-16.0,8.0,-1026.0
1777592884.828455,4.05501914024353,1.4340309419768875,1.417473264912406,3.0519425911278932,1.4390717234296586,1.4619315813603437,3.083568812681076,2,-0.5040781452771093,-4.445831644793774,-3.162622155318262,5.479205479602463,0,0,0,ok,150,252876.00000000003,39,76.0,0,-1,0,0,0,0,-30.0,25.0,-971.0
1777592884.900856,4.12742018699646,1.4340309419768875,1.417473264912406,3.0519425911278932,1.4116876800243192,1.5116860727327492,3.0472260131687627,2,2.2343261952568305,-9.421280782034325,0.4716577959130497,9.69408098775669,0,0,0,ok,150,252876.00000000003,39,76.0,0,-1,0,0,0,0,-30.0,25.0,-971.0
1777592884.971663,4.198227167129517,1.4340309419768875,1.417473264912406,3.0519425911278932,1.3922851819857063,1.479399401377624,3.0763213516231804,2,4.174575999118124,-6.192613646521794,-2.43787604952872,7.856130611208472,0,0,0,ok,150,252875.0,39,76.0,0,-1,0,0,0,0,-14.0,16.0,-969.0
1777592885.04413,4.270694255828857,1.4340309419768875,1.417473264912406,3.0519425911278932,1.4096404218694825,1.5104880087154373,3.0469175285691463,2,2.4390520107405056,-9.301474380303132,0.5025062558746907,9.629066044831452,0,0,0,ok,150,252871.99999999997,39,76.0,0,0,0,0,0,0,-16.0,16.0,-1031.0
1777592885.116008,4.342572212219238,1.4340309419768875,1.417473264912406,3.0519425911278932,1.3901561094120987,1.4781605515903018,3.0760094118918713,2,4.387483256478886,-6.06872866778958,-2.4066820763978036,7.865849959539535,0,0,0,ok,150,252871.99999999997,39,76.0,0,0,0,0,0,0,-16.0,16.0,-1031.0
1777592885.187702,4.414266109466553,1.4340309419768875,1.417473264912406,3.0519425911278932,1.38860294328736,1.4775996957138027,3.075523436709391,2,4.542799868952763,-6.012643080139668,-2.3580845581497645,7.896168073305749,0,0,0,ok,150,252873.99999999997,39,76.0,0,0,0,0,0,0,-34.0,31.0,-970.0
1777592885.25903,4.485594272613525,1.4340309419768875,1.417473264912406,3.0519425911278932,1.3880429444957358,1.476931130931301,3.0756987263609608,2,4.598799748115168,-5.945786601889491,-2.375613523306752,7.883202207896906,0,0,0,ok,150,252882.00000000003,39,76.0,0,-1,0,0,0,0,-10.0,25.0,-993.0
1777592885.3309171,4.557481288909912,1.4340309419768875,1.417473264912406,3.0519425911278932,1.4070802619282798,1.4165516143391659,3.1026803402806347,2,2.695068004860768,0.09216505732401181,-5.073774915274143,5.745874854143699,0,0,0,ok,150,252882.00000000003,39,76.0,0,-1,0,0,0,0,-10.0,25.0,-993.0
1777592885.4019918,4.6285560131073,1.4340309419768875,1.417473264912406,3.0519425911278932,1.428651700300629,1.455530113754072,3.0823045077329314,2,0.5379241676258584,-3.8056848841665936,-3.0361916605038175,4.89806692961652,0,0,0,ok,150,252880.00000000003,39,76.0,0,-1,0,0,0,0,-29.0,9.0,-945.0
1777592885.4735382,4.70010232925415,1.4340309419768875,1.417473264912406,3.0519425911278932,1.386871975884886,1.3704568479034878,3.120354163804286,2,4.715896609200154,4.701641700891823,-6.841157267639275,9.547070140771154,0,0,0,ok,150,252876.00000000003,39,76.0,0,-1,0,0,0,0,-20.0,19.0,-985.0
1777592885.545166,4.771730184555054,1.4340309419768875,1.417473264912406,3.0519425911278932,1.4203768023417296,1.4486686902084527,3.072285470340762,2,1.3654139635157936,-3.1195425296046686,-2.034287921286859,3.9666394129627935,0,0,0,ok,150,252883.0,39,76.0,0,-1,0,0,0,0,-15.0,0.0,-1002.0
1777592885.6175182,4.844082355499268,1.4340309419768875,1.417473264912406,3.0519425911278932,1.4268656990260427,1.4460519149961892,3.0706686857593217,2,0.7165242950844863,-2.857865008378324,-1.8726094631428492,3.4910550945253944,0,0,0,ok,150,252883.0,39,76.0,0,-1,0,0,0,0,-15.0,0.0,-1002.0
1777592885.688977,4.915541172027588,1.4340309419768875,1.417473264912406,3.0519425911278932,1.3971933993330328,1.5020284829239805,3.045259165835161,2,3.683754264385475,-8.45552180115745,0.6683425292732359,9.247301019576602,0,0,0,ok,150,252876.00000000003,39,76.0,0,0,0,0,0,0,-5.0,15.0,-989.0
1777592885.760282,4.986846208572388,1.4340309419768875,1.417473264912406,3.0519425911278932,1.3847816324157836,1.3629632934496314,3.1196932871742296,2,4.924930956110396,5.450997146277459,-6.775069604633632,9.99349203025699,0,0,0,ok,150,252873.99999999997,39,75.5,0,0,0,0,0,0,-18.0,25.0,-988.0
1777592885.831627,5.0581910610198975,1.4340309419768875,1.417473264912406,3.0519425911278932,1.417248385558673,1.4388062344157344,3.060414145733272,2,1.6782556418214467,-2.1332969503328414,-0.8471554605378628,2.8434433794123692,0,0,0,ok,150,252873.99999999997,39,75.5,0,0,0,0,0,0,-18.0,25.0,-988.0
1777592885.902099,5.128663063049316,1.4340309419768875,1.417473264912406,3.0519425911278932,1.3562105887630762,1.4191193032697558,3.082256821934487,2,7.782035321381131,-0.16460383573497772,-3.0314230806593567,8.353244522933377,0,0,0,ok,150,252875.0,39,75.5,0,0,0,0,0,0,-18.0,13.0,-950.0
1777592885.9728498,5.199414014816284,1.4340309419768875,1.417473264912406,3.0519425911278932,1.4444706178374311,1.376584968160747,3.0853098816339237,2,-1.0439675860543618,4.088829675165906,-3.336729050603049,5.379791556406978,0,0,0,ok,140,252876.00000000003,39,75.5,0,0,0,0,0,0,-19.0,29.0,-1011.0
1777592886.044095,5.2706592082977295,1.4340309419768875,1.417473264912406,3.0519425911278932,1.3718227331952377,1.4547731643112272,3.0534320429118065,2,6.220820878164979,-3.729989939882117,-0.14894517839132426,7.254903308521839,0,0,0,ok,140,252876.00000000003,39,75.5,0,0,0,0,0,0,-19.0,29.0,-1011.0
1777592886.115399,5.341963052749634,1.4340309419768875,1.417473264912406,3.0519425911278932,1.3718227331952377,1.4547731643112272,3.0534320429118065,2,6.220820878164979,-3.729989939882117,-0.14894517839132426,7.254903308521839,0,0,0,ok,140,252875.0,39,75.5,0,-1,0,0,0,0,11.0,6.0,-1047.0
1777592886.185121,5.411685228347778,1.4340309419768875,1.417473264912406,3.0519425911278932,1.3951320002812446,1.3970677827699731,3.0787709441573607,2,3.8898941695642897,2.0405482142432874,-2.682835302946751,5.14710782166054,0,0,0,ok,140,252873.99999999997,39,75.5,0,-1,0,0,0,0,-15.0,21.0,-1020.0
1777592886.253706,5.480270147323608,1.4340309419768875,1.417473264912406,3.0519425911278932,1.3749637982301108,1.4518624089322998,3.0530954538255273,2,5.9067143746776685,-3.438914401989379,-0.11528626976340384,6.835839223696658,0,0,0,ok,140,252877.0,39,75.5,0,-1,0,0,0,0,-10.0,-1.0,-1012.0
1777592886.3223512,5.548915386199951,1.4340309419768875,1.417473264912406,3.0519425911278932,1.4170451396688748,1.4292732460733855,3.0493512089348966,2,1.698580230801272,-1.1799981160979467,0.2591382192996594,2.0843999067274503,0,0,0,ok,140,252877.0,39,75.5,0,-1,0,0,0,0,-10.0,-1.0,-1012.0
1777592886.391855,5.618419170379639,1.4340309419768875,1.417473264912406,3.0519425911278932,1.3924987842110763,1.3888413314133916,3.0686358766561423,2,4.153215776581121,2.8631933499014384,-1.6693285528249113,5.313542628326102,0,0,0,ok,140,252869.0,39,75.5,0,0,0,0,0,0,-20.0,18.0,-1004.0
1777592886.4626591,5.689223289489746,1.4340309419768875,1.417473264912406,3.0519425911278932,1.4267166158009683,1.3284315151356925,3.1033107916510194,2,0.7314326175919206,8.904174977671353,-5.136820052312618,10.305641462660489,0,0,0,ok,140,252869.99999999997,39,75.5,0,0,0,0,0,0,-17.0,41.0,-1011.0
1777592886.530533,5.757097244262695,1.4340309419768875,1.417473264912406,3.0519425911278932,1.3962528489783597,1.384674515754123,3.0687336408199326,2,3.7778092998527857,3.279874915828307,-1.6791049692039373,5.277197747587188,0,0,0,ok,140,252873.99999999997,39,75.5,-1,0,0,0,0,0,-14.0,18.0,-1020.0
1777592886.602622,5.829186201095581,1.4340309419768875,1.417473264912406,3.0519425911278932,1.4105347471882506,1.4223106970103787,3.0399971012621227,2,2.349619478863696,-0.4837432097972716,1.1945489865770487,2.679863143858829,0,0,0,ok,140,252873.99999999997,39,75.5,-1,0,0,0,0,0,-14.0,18.0,-1020.0
1777592886.673791,5.900355100631714,1.4340309419768875,1.417473264912406,3.0519425911278932,1.4419100775452782,1.3636287065137929,3.0627912329705236,2,-0.7879135568390705,5.384455839861313,-1.0848641842630347,5.5488830193800345,0,0,0,ok,140,252875.0,39,75.5,-1,0,0,0,0,0,-9.0,4.0,-1025.0
1777592886.745534,5.972098112106323,1.4340309419768875,1.417473264912406,3.0519425911278932,1.3665136012011843,1.4404285707197029,3.032818986289529,2,6.751734077570326,-2.2955305807296877,1.9123604838364283,7.3832578392894215,0,0,0,ok,140,252867.0,39,75.5,-1,0,0,0,0,0,-9.0,0.0,-1031.0
1777592886.8176372,6.044201374053955,1.4340309419768875,1.417473264912406,3.0519425911278932,1.3665136012011843,1.4404285707197029,3.032818986289529,2,6.751734077570326,-2.2955305807296877,1.9123604838364283,7.3832578392894215,0,0,0,ok,140,252875.0,39,75.5,0,0,0,0,0,0,5.0,-16.0,-1030.0
1777592886.890486,6.1170501708984375,1.4340309419768875,1.417473264912406,3.0519425911278932,1.3660068742151088,1.4389758343922527,3.032974706362872,2,6.802406776177872,-2.1502569479846745,1.8967884765021203,7.382015267901999,0,0,0,ok,140,252875.0,39,75.5,0,0,0,0,0,0,5.0,-16.0,-1030.0
1777592886.9631438,6.18970799446106,1.4340309419768875,1.417473264912406,3.0519425911278932,1.3704657157841114,1.3377530878434936,3.0772443189223537,2,6.356522619277616,7.9720177068912434,-2.5301727794460493,10.505247280393986,0,0,0,ok,140,252869.99999999997,39,75.5,0,0,0,0,0,0,-8.0,0.0,-1000.0
1777592887.034668,6.261232137680054,1.4340309419768875,1.417473264912406,3.0519425911278932,1.407874240072398,1.4117167050354964,3.019515966630264,2,2.6156701904489488,0.5756559876909595,3.242662449762923,4.205706851941796,0,0,0,ok,140,252871.0,39,75.5,0,0,0,0,0,0,-16.0,-3.0,-1007.0
1777592887.1060832,6.332647323608398,1.4340309419768875,1.417473264912406,3.0519425911278932,1.3492665826456043,1.3926047120862144,3.0412343618577182,2,8.476435933128323,2.4868552826191603,1.0708229270175007,8.898374967720017,0,0,0,ok,140,252871.0,39,75.5,0,0,0,0,0,0,-16.0,-3.0,-1007.0
1777592887.178773,6.40533709526062,1.4340309419768875,1.417473264912406,3.0519425911278932,1.3906524629745622,1.3697440116243764,3.0385465516062693,2,4.337847900232528,4.772925328802957,1.3396039521623937,6.587281635737892,0,0,0,ok,140,252869.99999999997,39,75.5,0,0,0,0,0,0,-18.0,7.0,-955.0
1777592887.249483,6.4760472774505615,1.4340309419768875,1.417473264912406,3.0519425911278932,1.367200409461196,1.4296196796012253,3.0134019562991092,2,6.683053251569149,-1.2146414688819274,3.8540634828784004,7.809760559152464,0,0,0,ok,140,252876.00000000003,39,75.5,0,0,0,0,0,0,-15.0,0.0,-986.0
1777592887.3214579,6.548022031784058,1.4340309419768875,1.417473264912406,3.0519425911278932,1.3686821905869917,1.4292531512077629,3.013875744075939,2,6.534875138989582,-1.1779886295356867,3.8066847051954067,7.653959677073567,0,0,0,ok,140,252871.99999999997,39,75.5,0,0,0,0,0,0,-14.0,1.0,-978.0
1777592887.393354,6.61991810798645,1.4340309419768875,1.417473264912406,3.0519425911278932,1.4169568306812002,1.406734818575519,3.0101834646715155,2,1.7074111295687366,1.073844633688692,4.175912645637769,4.63752536237535,0,0,0,ok,140,252871.99999999997,39,75.5,0,0,0,0,0,0,-14.0,1.0,-978.0
1777592887.465033,6.69159722328186,1.4340309419768875,1.417473264912406,3.0519425911278932,1.3772001907153948,1.4281755773439104,3.014688376085641,2,5.683075126149273,-1.0702312431504435,3.7254215042252348,6.8790626677924465,0,0,0,ok,140,252875.0,39,75.5,0,-1,0,0,0,0,-9.0,11.0,-973.0
1777592887.536449,6.763013124465942,1.4340309419768875,1.417473264912406,3.0519425911278932,1.418384313790633,1.4142141351618305,3.021523799279688,2,1.5646628186254619,0.3259129750575518,3.0418791848205284,3.4361923663183123,0,0,0,ok,140,252866.0,39,75.5,0,-1,0,0,0,0,-12.0,32.0,-1023.0
1777592887.607811,6.8343751430511475,1.4340309419768875,1.417473264912406,3.0519425911278932,1.4145276451599926,1.410104619021948,3.0123675542144044,2,1.9503296816894888,0.7368645890458048,3.957503691348885,4.473096327702849,0,0,0,ok,140,252866.0,39,75.5,0,-1,0,0,0,0,-12.0,32.0,-1023.0
1777592887.6796532,6.906217336654663,1.4340309419768875,1.417473264912406,3.0519425911278932,1.395241785328524,1.4642087199621754,2.987409114888275,2,3.8789156648363576,-4.673545504976939,6.453347623961836,8.86192472760274,0,0,0,ok,140,252879.0,39,75.5,0,-1,0,0,0,0,7.0,14.0,-989.0
1777592887.7519412,6.978505373001099,1.4340309419768875,1.417473264912406,3.0519425911278932,1.4215642487899687,1.4093695198333829,3.012640605418333,2,1.2466693186918842,0.8103745079023117,3.9301985709560228,4.202065211341961,0,0,0,ok,140,252867.0,39,75.5,0,-1,0,0,0,0,-24.0,23.0,-994.0
1777592887.823828,7.050392150878906,1.4340309419768875,1.417473264912406,3.0519425911278932,1.428958868661728,1.4150651816602293,3.0223559854632067,2,0.5072073315159464,0.24080832521766737,2.9586605664686516,3.011464805408535,0,0,0,ok,140,252867.0,39,75.5,0,-1,0,0,0,0,-24.0,23.0,-994.0
1777592887.8952582,7.121822357177734,1.4340309419768875,1.417473264912406,3.0519425911278932,1.4022167598855408,1.4723244278937555,2.9983742404661724,2,3.1814182091346677,-5.485116298134951,5.356835066172083,8.300819510846514,0,0,0,ok,140,252867.99999999997,39,75.5,0,-1,0,0,0,0,-26.0,23.0,-980.0
1777592887.9674501,7.194014310836792,1.4340309419768875,1.417473264912406,3.0519425911278932,1.4297631108949542,1.4154013107426602,3.011556310066213,2,0.4267831081933293,0.20719541697458155,4.038628106168041,4.066397759957193,0,0,0,ok,140,252875.0,39,75.5,0,-1,0,0,0,0,-5.0,32.0,-988.0
1777592888.03915,7.265714168548584,1.4340309419768875,1.417473264912406,3.0519425911278932,1.4327257036034349,1.4201094995355734,3.0221644318880205,2,0.1305238373452644,-0.26362346231674216,2.9778159239872704,2.9923103915121105,0,0,0,ok,140,252871.0,39,75.5,0,0,0,0,0,0,-23.0,-4.0,-994.0
1777592888.110804,7.3373682498931885,1.4340309419768875,1.417473264912406,3.0519425911278932,1.4197347707641557,1.5162789170954811,2.9800338208951387,2,1.4296171212731856,-9.880565218307513,7.190877023275455,12.30358023140161,0,0,0,ok,140,252871.0,39,75.5,0,0,0,0,0,0,-23.0,-4.0,-994.0
1777592888.178776,7.405340194702148,1.4340309419768875,1.417473264912406,3.0519425911278932,1.4307090265902849,1.4265681937868697,3.022138165798102,2,0.33219153866026474,-0.9094928874463726,2.980442532979133,3.133778266416449,0,0,0,ok,140,252865.0,39,75.5,0,0,0,0,0,0,-6.0,0.0,-1016.0
1777592888.245157,7.471721172332764,1.4340309419768875,1.417473264912406,3.0519425911278932,1.389237307156878,1.4513151304027927,3.025698694539431,2,4.479363482000953,-3.38418654903867,2.6243896588462157,6.197163616045402,0,0,0,ok,140,252869.0,39,75.5,0,0,0,0,0,0,-40.0,0.0,-978.0
1777592888.3128629,7.539427042007446,1.4340309419768875,1.417473264912406,3.0519425911278932,1.411103219957433,1.4892685474300054,3.0079170468890593,2,2.292772201945459,-7.179528251759937,4.402554423883398,8.728397088989947,0,0,0,ok,140,252869.0,39,75.5,0,0,0,0,0,0,-40.0,0.0,-978.0
1777592888.384605,7.611169099807739,1.4340309419768875,1.417473264912406,3.0519425911278932,1.4353200314661076,1.4317251625179286,3.0223770861932415,2,-0.128908948922013,-1.425189760552259,2.956550493465171,3.284657393261028,0,0,0,ok,150,252869.99999999997,39,75.5,0,0,0,0,0,0,-11.0,-1.0,-1024.0
1777592888.455669,7.682233095169067,1.4340309419768875,1.417473264912406,3.0519425911278932,1.4165475862423578,1.4863986642223317,2.997436419348536,2,1.7483355734529749,-6.8925399309925695,5.450617177935735,8.95952072368474,0,0,0,ok,150,252880.00000000003,39,75.5,0,0,0,0,0,0,-19.0,4.0,-964.0
1777592888.527358,7.7539222240448,1.4340309419768875,1.417473264912406,3.0519425911278932,1.4217209398092483,1.4015288247234055,3.050806280062794,2,1.2310002167639222,1.5944440189000542,0.11363110650992603,2.017554284634158,0,0,0,ok,150,252880.00000000003,39,75.5,0,0,0,0,0,0,-19.0,4.0,-964.0
1777592888.5959811,7.822545289993286,1.4340309419768875,1.417473264912406,3.0519425911278932,1.418999073279443,1.4976497339587533,3.0083262278990532,2,1.503186869744444,-8.017646904634734,4.361636322883999,9.250194812320013,0,0,0,ok,150,252873.0,39,75.5,0,0,0,0,0,0,-3.0,-1.0,-971.0
1777592888.665664,7.892228126525879,1.4340309419768875,1.417473264912406,3.0519425911278932,1.4211424505742118,1.4989067819181723,3.008641216600419,2,1.2888491402675673,-8.143351700576629,4.33013745274744,9.31264728126964,0,0,0,ok,150,252873.0,39,75.5,0,-1,0,0,0,0,-29.0,20.0,-975.0
1777592888.737685,7.964249134063721,1.4340309419768875,1.417473264912406,3.0519425911278932,1.4233006539206985,1.5001723567460274,3.0089575045368293,2,1.073028805618903,-8.269909183362145,4.298508659106393,9.381895619284949,0,0,0,ok,150,252873.0,39,75.5,0,-1,0,0,0,0,-29.0,20.0,-975.0
1777592888.8101351,8.036699295043945,1.4340309419768875,1.417473264912406,3.0519425911278932,1.4122690027440723,1.4664464979209728,3.037858380055966,2,2.176193923281522,-4.897323300856682,1.4084211071927033,5.541050940031785,0,0,0,ok,150,252875.0,39,75.5,0,-1,0,0,0,0,-27.0,23.0,-998.0
1777592888.882072,8.108636140823364,1.4340309419768875,1.417473264912406,3.0519425911278932,1.404924842161454,1.549267192777859,2.9847716666137556,2,2.910609981543355,-13.179392786545296,6.717092451413764,15.076053054017214,0,0,0,ok,150,252884.0,39,75.5,0,-1,0,0,0,0,-37.0,18.0,-997.0
1777592888.954905,8.181469202041626,1.4340309419768875,1.417473264912406,3.0519425911278932,1.4686058556855377,1.4853044492020229,3.0155770352184565,2,-3.457491370865018,-6.7831184289616875,3.6365555909436686,8.43738577800905,0,0,0,ok,150,252880.00000000003,39,75.5,0,-1,0,0,0,0,-5.0,-1.0,-984.0
1777592889.02802,8.254584074020386,1.4340309419768875,1.417473264912406,3.0519425911278932,1.457418602360132,1.4480890675046525,3.0334351386017464,2,-2.338766038324458,-3.06158025922465,1.8507452526146828,4.274150003891972,0,0,0,ok,150,252880.00000000003,39,75.5,0,-1,0,0,0,0,-5.0,-1.0,-984.0
1777592889.097206,8.32377028465271,1.4340309419768875,1.417473264912406,3.0519425911278932,1.460143663039906,1.451150934462579,3.0444547428293247,2,-2.611272106301854,-3.367766955017304,0.7487848298568522,4.326808870042725,0,0,0,ok,150,252885.0,39,75.5,0,0,0,0,0,0,-11.0,8.0,-999.0
1777592889.169088,8.395652055740356,1.4340309419768875,1.417473264912406,3.0519425911278932,1.4267653177245707,1.500738514080215,3.0110515146633623,2,0.7265624252316805,-8.326524916780897,4.089107646453094,9.304821948420768,0,0,0,ok,150,252876.00000000003,39,75.5,0,0,0,0,0,0,-6.0,6.0,-962.0
1777592889.239861,8.46642518043518,1.4340309419768875,1.417473264912406,3.0519425911278932,1.4556284248293014,1.4455654355494514,3.0354210547658447,2,-2.159748285241392,-2.809217063704539,1.6521536362048561,3.909709043424691,0,0,0,ok,150,252876.00000000003,39,75.5,0,0,0,0,0,0,-6.0,6.0,-962.0
1777592889.311053,8.537617206573486,1.4340309419768875,1.417473264912406,3.0519425911278932,1.452449251840906,1.449117471524993,3.035618418518747,2,-1.841830986401849,-3.1644206612587045,1.6324172609146093,4.008825964993109,0,0,0,ok,150,252878.00000000003,39,75.5,0,0,0,0,0,0,-19.0,-7.0,-985.0
1777592889.382976,8.609540224075317,1.4340309419768875,1.417473264912406,3.0519425911278932,1.455289283066615,1.449842248178805,3.0345382524514086,2,-2.1258341089727573,-3.236898326639892,1.740433867648461,4.245679154568078,0,0,0,ok,150,252873.99999999997,39,75.5,0,0,0,0,0,0,-14.0,13.0,-967.0
1777592889.45218,8.678744077682495,1.4340309419768875,1.417473264912406,3.0519425911278932,1.4753500766763255,1.4839960165188386,3.0174049375711203,2,-4.131913469943793,-6.652275160643262,3.4537653556772963,8.558853244920781,0,0,0,ok,150,252873.99999999997,39,75.5,0,0,0,0,0,0,-14.0,13.0,-967.0
1777592889.524012,8.750576257705688,1.4340309419768875,1.417473264912406,3.0519425911278932,1.4657296627645944,1.5635588593814864,2.9653628065608,2,-3.1698720787706858,-14.608559446908043,8.657978456709303,17.274799248224525,0,0,0,ok,150,252871.99999999997,39,75.5,0,0,0,0,0,0,-24.0,13.0,-1000.0
1777592889.596359,8.822923183441162,1.4340309419768875,1.417473264912406,3.0519425911278932,1.4348845903974627,1.4976179880367955,3.012627854431833,2,-0.0853648420575226,-8.014472312438947,3.9314736696060226,8.927235788188606,0,0,0,ok,150,252871.0,39,75.5,0,0,0,0,0,0,-18.0,-2.0,-1051.0
1777592889.666374,8.892938137054443,1.4340309419768875,1.417473264912406,3.0519425911278932,1.437862439219551,1.4937766189894988,3.0136716237944396,2,-0.38314972426634064,-7.630335407709277,3.8270967333453587,8.544910271719065,0,0,0,ok,150,252864.0,39,75.5,0,0,0,0,0,0,-14.0,-10.0,-980.0
1777592889.737927,8.964491128921509,1.4340309419768875,1.417473264912406,3.0519425911278932,1.4612303264175206,1.4389767809556058,3.026968952403164,2,-2.719938444063308,-2.1503516043199777,2.497363872472924,4.273043818313591,0,0,0,ok,150,252864.0,39,75.5,0,0,0,0,0,0,-14.0,-10.0,-980.0
1777592889.809386,9.035950183868408,1.4340309419768875,1.417473264912406,3.0519425911278932,1.454257158260737,1.5258933577089957,2.9858223058902396,2,-2.0226216283849574,-10.84200927965897,6.6120285237653675,12.85920233416166,0,0,0,ok,150,252873.99999999997,39,75.0,0,0,0,0,0,0,-14.0,-7.0,-991.0
1777592889.881133,9.107697248458862,1.4340309419768875,1.417473264912406,3.0519425911278932,1.4816398750534858,1.480938506310971,3.0195445219902433,2,-4.76089330765983,-6.346524139856502,3.2398069137649976,8.569762107735603,0,0,0,ok,150,252867.99999999997,39,75.0,0,0,0,0,0,0,-21.0,-1.0,-1030.0
1777592889.952857,9.179421186447144,1.4340309419768875,1.417473264912406,3.0519425911278932,1.4558801849064835,1.52552802944771,2.9863787721570954,2,-2.1849242929596002,-10.805476453530405,6.556381897079788,12.826471031976045,0,0,0,ok,150,252867.99999999997,39,75.0,0,0,0,0,0,0,-21.0,-1.0,-1030.0
1777592890.02388,9.250444173812866,1.4340309419768875,1.417473264912406,3.0519425911278932,1.4580801215155237,1.5267520067508302,2.9867217421932946,2,-2.4049179538636167,-10.927874183842423,6.522084893459867,12.951434511288804,0,0,0,ok,150,252873.99999999997,39,75.0,0,0,0,0,0,0,-33.0,11.0,-994.0
1777592890.094651,9.321215152740479,1.4340309419768875,1.417473264912406,3.0519425911278932,1.516912542337924,1.4283416723174858,3.0413217319332166,2,-8.288160036103642,-1.0868407405079772,1.062085919467659,8.42631865523877,0,0,0,ok,150,252881.0,39,75.0,0,-1,0,0,0,0,-1.0,-6.0,-1007.0
1777592890.1628659,9.389430046081543,1.4340309419768875,1.417473264912406,3.0519425911278932,1.530219596645396,1.4608371809398841,3.0128846473993125,2,-9.618865466850846,-4.336391602747813,3.9057943728580735,11.25087084117524,0,0,0,ok,150,252867.99999999997,39,75.0,0,-1,0,0,0,0,4.0,2.0,-1022.0
1777592890.2313862,9.457950353622437,1.4340309419768875,1.417473264912406,3.0519425911278932,1.4661700947568028,1.444460611011083,3.039688004106843,2,-3.2139152779915303,-2.6987346098676923,1.2254587021050423,4.371975404684943,0,0,0,ok,150,252865.0,39,75.0,0,0,0,0,0,0,-7.0,10.0,-993.0
1777592890.299951,9.526515245437622,1.4340309419768875,1.417473264912406,3.0519425911278932,1.5126729163213208,1.4230841758594686,3.032180228657994,2,-7.864197434443332,-0.5610910947062564,1.9762362469899042,8.128095361668715,0,0,0,ok,150,252865.0,39,75.0,0,0,0,0,0,0,-7.0,10.0,-993.0
1777592890.36899,9.595554113388062,1.4340309419768875,1.417473264912406,3.0519425911278932,1.4897093451775507,1.4743921330189989,3.009999833064427,2,-5.56784032006632,-5.691886810659286,4.194275806346637,8.999465030479206,0,0,0,ok,150,252871.99999999997,39,75.0,0,0,0,0,0,0,-23.0,4.0,-975.0
1777592890.436788,9.663352251052856,1.4340309419768875,1.417473264912406,3.0519425911278932,1.4607781102639732,1.5244046953481822,2.9880871474863575,2,-2.6747168287085676,-10.693143043577624,6.3855443641535725,12.738626106875216,0,0,0,ok,150,252865.0,39,75.0,0,0,0,0,0,0,-16.0,5.0,-1017.0
1777592890.502792,9.729356050491333,1.4340309419768875,1.417473264912406,3.0519425911278932,1.48851670693359,1.4794702475116166,3.0215835672144653,2,-5.448576495670254,-6.19969825992106,3.035902391342793,8.794313371321236,0,0,0,ok,150,252865.0,39,75.0,0,0,0,0,0,0,-16.0,5.0,-1017.0
1777592890.571441,9.798005104064941,1.4340309419768875,1.417473264912406,3.0519425911278932,1.5331893961223777,1.4584608225530475,3.0140003602488314,2,-9.915845414549018,-4.098755764064155,3.794223087906179,11.380681787111097,0,0,0,ok,150,252873.99999999997,39,75.0,0,0,0,0,0,0,-27.0,12.0,-1014.0
1777592890.6421702,9.868734359741211,1.4340309419768875,1.417473264912406,3.0519425911278932,1.4881922171158906,1.4708593152167846,3.0122592726973325,2,-5.416127513900304,-5.33860503043786,3.968331843056072,8.578041649144467,0,0,0,ok,150,252863.0,39,75.0,0,0,0,0,0,0,-27.0,25.0,-995.0
1777592890.713898,9.940462112426758,1.4340309419768875,1.417473264912406,3.0519425911278932,1.4844380066700031,1.472871288502446,3.012686460469413,2,-5.040706469311562,-5.539802359003998,3.9256130658480437,8.45627399209265,0,0,0,ok,150,252863.0,39,75.0,0,0,0,0,0,0,-27.0,25.0,-995.0
1777592890.786112,10.012676239013672,1.4340309419768875,1.417473264912406,3.0519425911278932,1.5023006380186776,1.5027014334186548,2.9842294473146427,2,-6.826969604179012,-8.522816850624881,6.771314381325055,12.84899293705227,0,0,0,ok,150,252869.99999999997,39,74.5,0,0,0,0,0,0,-38.0,10.0,-1003.0
1777592890.8639,10.090464115142822,1.4340309419768875,1.417473264912406,3.0519425911278932,1.487324834773868,1.4704225949795044,3.01400011649194,2,-5.329389279698038,-5.2949330067098455,3.794247463595335,8.416354285265406,0,0,0,ok,150,252871.0,39,74.5,0,-1,0,0,0,0,5.0,8.0,-1012.0
1777592890.934106,10.160670280456543,1.4340309419768875,1.417473264912406,3.0519425911278932,1.488921626817113,1.4630798016551898,3.003713647739308,2,-5.489068484022552,-4.560653674278381,4.822894338858541,8.61334688508435,0,0,0,ok,150,252871.0,39,74.5,0,-1,0,0,0,0,5.0,8.0,-1012.0
1777592891.005087,10.231651067733765,1.4340309419768875,1.417473264912406,3.0519425911278932,1.4671721400472357,1.51763782814183,2.9918025585325543,2,-3.314119807034821,-10.01645632294239,6.0140032595338955,12.144176487949993,0,0,0,ok,150,252865.0,39,74.5,0,0,0,0,0,0,-10.0,18.0,-995.0
1777592891.0746298,10.301193952560425,1.4340309419768875,1.417473264912406,3.0519425911278932,1.5129140884940355,1.4930660969150855,3.017851109205579,4,-7.888314651714801,-7.559283200267952,3.409148192231415,11.445110831394619,0,0,0,ok,150,252867.0,39,74.5,0,0,0,0,0,0,1.0,2.0,-1027.0
1777592891.144564,10.37112808227539,1.4340309419768875,1.417473264912406,3.0519425911278932,1.4994321722979873,1.4021959651247942,3.056519641455487,4,-6.540123032109979,1.527729978761183,-0.45770503275939234,6.731765151886565,0,0,0,ok,150,252867.0,39,74.5,0,0,0,0,0,0,1.0,2.0,-1027.0
1777592891.2150989,10.441663026809692,1.4340309419768875,1.417473264912406,3.0519425911278932,1.4483491785953402,1.4264131941447191,3.0292215560405893,4,-1.4318236618452662,-0.8939929232313126,2.2721035087303942,2.830511738147825,0,0,0,ok,150,252864.0,39,74.5,0,0,0,0,0,0,-13.0,0.0,-984.0
1777592891.28961,10.516174077987671,1.4340309419768875,1.417473264912406,3.0519425911278932,1.5003721578985254,1.400296544884363,3.0569760936161354,4,-6.634121592163789,1.7176720028043047,-0.5033502488242192,6.871341054104574,0,0,0,ok,150,252867.0,39,74.5,0,0,0,0,0,0,-30.0,12.0,-992.0
1777592891.3660128,10.59257698059082,1.4340309419768875,1.417473264912406,3.0519425911278932,1.5003721578985254,1.400296544884363,3.0569760936161354,4,-6.634121592163789,1.7176720028043047,-0.5033502488242192,6.871341054104574,0,0,0,ok,150,252869.0,39,74.5,0,0,0,0,0,0,-16.0,-6.0,-966.0
1777592891.439619,10.666183233261108,1.4340309419768875,1.417473264912406,3.0519425911278932,1.4582444420100822,1.3830129061477099,3.047050575058808,4,-2.421350003319467,3.446035876469611,0.489201606908507,4.239978456630732,0,0,0,ok,150,252869.0,39,74.5,0,0,0,0,0,0,-16.0,-6.0,-966.0
1777592891.514625,10.741189241409302,1.4340309419768875,1.417473264912406,3.0519425911278932,1.4582444420100822,1.3830129061477099,3.047050575058808,4,-2.421350003319467,3.446035876469611,0.489201606908507,4.239978456630732,0,0,0,ok,150,252865.0,39,74.5,0,0,0,0,0,0,-21.0,-10.0,-994.0
1777592891.590327,10.816891193389893,1.4340309419768875,1.417473264912406,3.0519425911278932,1.4582444420100822,1.3830129061477099,3.047050575058808,4,-2.421350003319467,3.446035876469611,0.489201606908507,4.239978456630732,0,0,0,ok,150,252864.0,39,74.5,0,0,0,0,0,0,-15.0,4.0,-986.0
1777592891.668761,10.895325183868408,1.4340309419768875,1.417473264912406,3.0519425911278932,1.4591008497951639,1.3811017803762158,3.0475063906463644,4,-2.506990781827634,3.6371484536190213,0.4436200481528818,4.439667825519734,0,0,0,ok,150,252867.0,39,74.5,0,0,0,0,0,0,-6.0,10.0,-1031.0
1777592891.743665,10.970229148864746,1.4340309419768875,1.417473264912406,3.0519425911278932,1.4591008497951639,1.3811017803762158,3.0475063906463644,4,-2.506990781827634,3.6371484536190213,0.4436200481528818,4.439667825519734,0,0,0,ok,150,252867.0,39,74.5,0,0,0,0,0,0,-6.0,10.0,-1031.0
1777592891.817961,11.044525146484375,1.4340309419768875,1.417473264912406,3.0519425911278932,1.5344608814474023,1.4451439116967988,3.0262393922852535,4,-10.042993947051482,-2.7670646784392794,2.570319884263972,10.729628076621376,0,0,0,ok,150,252863.0,39,75.5,0,0,0,0,0,0,-14.0,21.0,-1006.0
1777592891.894149,11.120713233947754,1.4340309419768875,1.417473264912406,3.0519425911278932,1.4567680410587527,1.3769179844589803,3.0479840455996703,4,-2.2737099081865164,4.055528045342571,0.39585455282229454,4.666236738543794,0,0,0,ok,150,252865.0,39,75.5,-1,0,0,0,0,0,-11.0,28.0,-1048.0
1777592891.967749,11.194313287734985,1.4340309419768875,1.417473264912406,3.0519425911278932,1.4627167452108338,1.3722753431593446,3.0381418160362923,4,-2.8685803233946316,4.5197921753061365,1.3800775091600936,5.52828077353303,0,0,0,ok,150,252875.0,39,75.5,-1,0,0,0,0,0,-44.0,21.0,-1005.0
1777592892.039886,11.26645016670227,1.4340309419768875,1.417473264912406,3.0519425911278932,1.419884194515792,1.358820484410276,3.025859212304504,4,1.4146747461095455,5.865278050212996,2.6083378823389403,6.573143673466666,0,0,0,ok,150,252875.0,39,75.5,-1,0,0,0,0,0,-44.0,21.0,-1005.0
1777592892.111402,11.337966203689575,1.4340309419768875,1.417473264912406,3.0519425911278932,1.419884194515792,1.358820484410276,3.025859212304504,4,1.4146747461095455,5.865278050212996,2.6083378823389403,6.573143673466666,0,0,0,ok,150,252867.0,39,75.5,0,0,0,0,0,0,-23.0,22.0,-1006.0
1777592892.183381,11.409945249557495,1.4340309419768875,1.417473264912406,3.0519425911278932,1.419884194515792,1.358820484410276,3.025859212304504,4,1.4146747461095455,5.865278050212996,2.6083378823389403,6.573143673466666,0,0,0,ok,150,252871.0,39,75.5,0,0,0,0,0,0,-10.0,8.0,-1012.0
1777592892.25597,11.482534170150757,1.4340309419768875,1.417473264912406,3.0519425911278932,1.419884194515792,1.358820484410276,3.025859212304504,4,1.4146747461095455,5.865278050212996,2.6083378823389403,6.573143673466666,0,0,0,ok,150,252871.0,39,75.5,0,0,0,0,0,0,-10.0,8.0,-1012.0
1777592892.328685,11.555249214172363,1.4340309419768875,1.417473264912406,3.0519425911278932,1.4645635862387751,1.370376123023135,3.0268127973308263,4,-3.053264426188762,4.709714188927094,2.5129793797066924,6.149707046717105,0,0,0,ok,150,252864.0,39,75.5,0,0,0,0,0,0,-14.0,31.0,-989.0
1777592892.399364,11.625928163528442,1.4340309419768875,1.417473264912406,3.0519425911278932,1.4645635862387751,1.370376123023135,3.0268127973308263,4,-3.053264426188762,4.709714188927094,2.5129793797066924,6.149707046717105,0,0,0,ok,150,252869.0,39,75.5,0,0,0,0,0,0,-42.0,20.0,-1029.0
1777592892.470182,11.696746110916138,1.4340309419768875,1.417473264912406,3.0519425911278932,1.4645635862387751,1.370376123023135,3.0268127973308263,4,-3.053264426188762,4.709714188927094,2.5129793797066924,6.149707046717105,0,0,0,ok,150,252869.0,39,75.5,0,0,0,0,0,0,-42.0,20.0,-1029.0
1777592892.541038,11.76760220527649,1.4340309419768875,1.417473264912406,3.0519425911278932,1.454034068304371,1.4042860573315767,2.9998202384033843,4,-2.000312632748358,1.3187207580829252,5.212235272450894,5.736520862152661,0,0,0,ok,150,252875.0,39,75.5,0,0,0,0,0,0,-7.0,13.0,-957.0
1777592892.61279,11.839354276657104,1.4340309419768875,1.417473264912406,3.0519425911278932,1.4180732270665808,1.3521157668339279,3.015926243763156,4,1.595771491030673,6.535749807847813,3.6016347364737022,7.631139166424824,0,0,0,ok,150,252873.99999999997,39,75.5,0,0,0,0,0,0,-16.0,-8.0,-1003.0
1777592892.684701,11.911265134811401,1.4340309419768875,1.417473264912406,3.0519425911278932,1.4180732270665808,1.3521157668339279,3.015926243763156,4,1.595771491030673,6.535749807847813,3.6016347364737022,7.631139166424824,0,0,0,ok,150,252863.0,39,75.5,0,0,0,0,0,0,-20.0,7.0,-965.0
1777592892.7571042,11.983668327331543,1.4340309419768875,1.417473264912406,3.0519425911278932,1.4994471771715667,1.4149661881656046,3.0000111805733827,4,-6.541623519467921,0.25070767468013955,5.193141055451056,8.35609996531939,0,0,0,ok,150,252863.0,39,75.5,0,0,0,0,0,0,-20.0,7.0,-965.0
1777592892.829073,12.055637121200562,1.4340309419768875,1.417473264912406,3.0519425911278932,1.4976566080311695,1.4149393461525936,2.999229605513514,4,-6.362566605428199,0.2533918759812348,5.271298561437909,8.266380693818837,0,0,0,ok,150,252864.0,39,75.5,0,0,0,0,0,0,-8.0,-2.0,-991.0
1777592892.9006069,12.127171039581299,1.4340309419768875,1.417473264912406,3.0519425911278932,1.493395654915156,1.4104057123450722,3.000586985716282,4,-5.936471293826839,0.7067552567333824,5.1355605411611105,7.8813181947743605,0,0,0,ok,150,252865.0,39,75.5,0,0,0,0,0,0,1.0,-13.0,-994.0
1777592892.9713862,12.19795036315918,1.4340309419768875,1.417473264912406,3.0519425911278932,1.493395654915156,1.4104057123450722,3.000586985716282,4,-5.936471293826839,0.7067552567333824,5.1355605411611105,7.8813181947743605,0,0,0,ok,150,252865.0,39,75.5,0,0,0,0,0,0,1.0,-13.0,-994.0
1777592893.041496,12.268060207366943,1.4340309419768875,1.417473264912406,3.0519425911278932,1.4990264719418582,1.4056727954983752,2.9910030873955824,4,-6.499552996497071,1.180046941403079,6.093950373231083,8.987376207191511,0,0,0,ok,140,252873.0,39,75.5,0,0,0,0,0,0,-10.0,-1.0,-1014.0
1777592893.1133618,12.33992600440979,1.4340309419768875,1.417473264912406,3.0519425911278932,1.4968649642756136,1.4059521918098437,2.9903812624144863,4,-6.283402229872603,1.152107310256234,6.1561328713406915,8.871666515729459,0,0,0,ok,140,252873.0,39,75.5,0,0,0,0,0,0,-35.0,38.0,-975.0
1777592893.1847968,12.4113609790802,1.4340309419768875,1.417473264912406,3.0519425911278932,1.4999576302852198,1.403903964514257,2.99146184333791,4,-6.592668830833226,1.3569300398148965,6.048074778998336,9.048964027906607,0,0,0,ok,140,252873.0,39,75.5,0,0,0,0,0,0,-35.0,38.0,-975.0
1777592893.2553012,12.481865406036377,1.4340309419768875,1.417473264912406,3.0519425911278932,1.4999576302852198,1.403903964514257,2.99146184333791,4,-6.592668830833226,1.3569300398148965,6.048074778998336,9.048964027906607,0,0,0,ok,140,252857.00000000003,39,75.5,0,0,0,0,0,0,-10.0,3.0,-1035.0
1777592893.327311,12.553875207901001,1.4340309419768875,1.417473264912406,3.0519425911278932,1.5008946750569196,1.4021416362801231,2.9919224883507596,4,-6.686373308003213,1.5331628632282879,6.0020102777133655,9.114949465188332,0,0,0,ok,140,252862.0,39,75.5,0,0,0,0,0,0,-2.0,15.0,-988.0
1777592893.3995242,12.626088380813599,1.4340309419768875,1.417473264912406,3.0519425911278932,1.5008946750569196,1.4021416362801231,2.9919224883507596,4,-6.686373308003213,1.5331628632282879,6.0020102777133655,9.114949465188332,0,0,0,ok,140,252867.99999999997,39,75.5,0,0,0,0,0,0,-3.0,-15.0,-1013.0
1777592893.471178,12.697742223739624,1.4340309419768875,1.417473264912406,3.0519425911278932,1.4997533969258794,1.4027754980724247,2.9917964537323156,4,-6.572245494899187,1.4697766839981252,6.0146137395577615,9.029409326313885,0,0,0,ok,140,252867.99999999997,39,75.5,0,0,0,0,0,0,-3.0,-15.0,-1013.0
1777592893.5432162,12.769780397415161,1.4340309419768875,1.417473264912406,3.0519425911278932,1.49553252838829,1.4034999950835272,2.9911381380315696,4,-6.150158641140258,1.397326982887881,6.080445309632365,8.760638628075522,0,0,0,ok,140,252869.99999999997,39,75.5,0,0,0,0,0,0,-25.0,22.0,-1029.0
1777592893.614924,12.841488122940063,1.4340309419768875,1.417473264912406,3.0519425911278932,1.4989939108469004,1.4014494632014962,2.992830302222813,4,-6.496296887001285,1.602380171090978,5.9112288905080135,8.928164562369172,0,0,0,ok,140,252865.0,39,75.5,0,0,0,0,0,0,-21.0,34.0,-1047.0
1777592893.6865642,12.91312837600708,1.4340309419768875,1.417473264912406,3.0519425911278932,1.5016599946614262,1.397343254125471,2.98237769347468,4,-6.762905268453867,2.0130010786935104,6.956489765321328,9.908673517071936,0,0,0,ok,140,252864.0,39,75.5,0,0,0,0,0,0,-11.0,53.0,-1023.0
1777592893.758016,12.984580278396606,1.4340309419768875,1.417473264912406,3.0519425911278932,1.4671313557293688,1.3461040335494878,3.0120032071420964,4,-3.3100413752481295,7.136923136291817,3.9939383985796884,8.822901432683086,0,0,0,ok,140,252864.0,39,75.5,0,0,0,0,0,0,-11.0,53.0,-1023.0
1777592893.830045,13.056609153747559,1.4340309419768875,1.417473264912406,3.0519425911278932,1.5078662287108644,1.3682272555030854,2.978415291733413,2,-7.383528673397688,4.924600940932056,7.352729939448022,11.525225709753801,0,0,0,ok,140,252864.0,39,75.0,0,0,0,0,0,0,-11.0,-21.0,-1022.0
