timestamp,elapsed,phase,mission_state,target_x,target_y,target_z,pos_x,pos_y,pos_z,marker_id,err_x_cm,err_y_cm,err_z_cm,err_3d_cm,cmd_lr,cmd_fb,cmd_ud,publish_count,tello_height_cm,tello_baro_cm,tello_battery,tello_temp_c,tello_pitch,tello_roll,tello_yaw,tello_vgx,tello_vgy,tello_vgz
1778196370.531639,9.059906005859375e-06,wait_slave,2,0.06087447118654539,1.3489838762324142,3.7175111086498895,0.02822536111401097,1.3130578602993501,3.6884744738195296,2,3.264911007253442,3.5926015933064104,2.9036634830359898,5.656650220424552,18,-16,20,1,120,251441.0,81,86.0,0,0,0,0,0,0
1778196370.603934,0.07230401039123535,wait_slave,2,0.06087447118654539,1.3489838762324142,3.7175111086498895,-0.05682264960457539,1.1799972066188653,3.6890195875025795,2,11.769712079112079,16.89866696135489,2.8491521147310017,20.78963047456256,30,-1,30,4,120,251435.0,81,86.0,0,0,0,0,0,0
1778196370.6758249,0.1441948413848877,wait_slave,2,0.06087447118654539,1.3489838762324142,3.7175111086498895,0.02812586191306854,1.3126792709279056,3.6883919815440516,2,3.274860927347685,3.630460530450863,2.911912710583797,5.690711149820343,-27,-2,-30,8,120,251431.0,81,86.0,0,0,0,0,0,0
1778196370.747426,0.21579599380493164,wait_slave,2,0.06087447118654539,1.3489838762324142,3.7175111086498895,0.018244758422263918,1.2431552317421048,3.700549982346313,2,4.262971276428147,10.582864449030938,1.6961126303576712,11.534588943914436,6,3,30,11,120,251431.0,81,86.0,0,0,0,0,0,0
1778196370.817358,0.28572797775268555,wait_slave,2,0.06087447118654539,1.3489838762324142,3.7175111086498895,0.00771956164169052,1.16628405787467,3.7128167336650657,2,5.315490954485487,18.269981835774416,0.4694374984823835,19.03331426556409,7,4,30,15,120,251428.00000000003,81,86.0,0,0,0,0,0,0
1778196370.8882492,0.35661911964416504,wait_slave,2,0.06087447118654539,1.3489838762324142,3.7175111086498895,0.018356728426410562,1.2435402574009797,3.7006443992236244,2,4.2517742760134825,10.544361883143448,1.6866709426265114,11.49373789876727,-1,-5,-19,18,120,251425.0,81,86.0,0,0,0,0,0,0
1778196370.957951,0.42632102966308594,wait_slave,2,0.06087447118654539,1.3489838762324142,3.7175111086498895,0.023218864522238758,1.2396085954507727,3.70405215554731,2,3.7655606664306633,10.93752807816415,1.3458953102579496,11.645617277730418,0,0,9,22,120,251425.0,81,86.0,0,0,0,0,0,0
1778196371.027779,0.49614906311035156,wait_slave,2,0.06087447118654539,1.3489838762324142,3.7175111086498895,0.09467048315903359,1.236400996185345,3.7232878828458937,2,-3.37960119724882,11.258288004706918,-0.5776774196004197,11.768791962240199,-27,7,9,25,120,251428.00000000003,81,85.5,0,0,0,0,0,0
1778196371.09797,0.5663399696350098,wait_slave,2,0.06087447118654539,1.3489838762324142,3.7175111086498895,0.01897140984071366,1.2441721270309554,3.700957030143921,2,4.190306134583173,10.481174920145886,1.6554078505968572,11.408508594905742,29,-9,5,29,120,251437.0,81,85.5,0,0,0,0,0,0
1778196371.1707158,0.6390857696533203,wait_slave,2,0.06087447118654539,1.3489838762324142,3.7175111086498895,0.03409997113763863,1.306482165862188,3.6746235915060836,2,2.677450004890676,4.250171037022632,4.28875171438059,6.605004439077809,-3,-11,-17,33,120,251430.00000000003,81,85.5,0,0,0,0,0,0
1778196371.242801,0.7111709117889404,wait_slave,2,0.06087447118654539,1.3489838762324142,3.7175111086498895,0.09549625423921837,1.2375024674145407,3.723733010159816,2,-3.462178305267298,11.148140881787349,-0.6221901509926298,11.689946292504263,-23,17,30,36,120,251430.00000000003,81,85.5,0,0,0,0,0,0
1778196371.315719,0.7840888500213623,wait_slave,2,0.06087447118654539,1.3489838762324142,3.7175111086498895,0.03616346578537133,1.3036298184171997,3.6770237421268157,2,2.471100540117406,4.535405781521451,4.048736652307383,6.562660433251437,22,-18,-18,40,120,251433.0,81,85.5,0,0,0,0,0,0
1778196371.385715,0.8540849685668945,wait_slave,2,0.06087447118654539,1.3489838762324142,3.7175111086498895,0.027201443106025014,1.2340213424955595,3.68978299284878,2,3.3673028080520377,11.496253373685473,2.7728115801109343,12.295977142622178,5,2,30,43,120,251436.0,81,85.5,0,0,0,0,0,0
1778196371.456807,0.9251768589019775,wait_slave,2,0.06087447118654539,1.3489838762324142,3.7175111086498895,0.03632789803756409,1.3040469475140624,3.6771681611349263,2,2.4546573148981303,4.4936928718351865,4.034294751496326,6.518753891804481,-1,-7,-20,47,120,251433.0,81,85.5,0,0,0,0,0,0
1778196371.528338,0.9967079162597656,wait_slave,2,0.06087447118654539,1.3489838762324142,3.7175111086498895,0.10389722811336322,1.3121549155333754,3.70960449319945,2,-4.302275692681783,3.682896069903885,0.7906615450439691,5.7182554399366685,-26,10,0,51,120,251433.0,81,85.5,0,0,0,0,0,0
1778196371.599678,1.0680480003356934,wait_slave,2,0.06087447118654539,1.3489838762324142,3.7175111086498895,0.027964705691825298,1.234649528573129,3.690272751578473,2,3.2909765494720093,11.43343476592853,2.723835707141653,12.205459358640205,28,-8,30,54,120,251439.0,81,85.5,0,0,0,0,0,0
1778196371.671364,1.1397340297698975,wait_slave,2,0.06087447118654539,1.3489838762324142,3.7175111086498895,0.1046948927779976,1.3088755003399537,3.6927030051470693,2,-4.382042159145221,4.010837589246052,2.4808103502820256,6.437665077176788,-29,0,-22,58,120,251440.0,81,85.5,0,0,0,0,0,0
1778196371.74146,1.2098300457000732,wait_slave,2,0.06087447118654539,1.3489838762324142,3.7175111086498895,0.09749584145841184,1.239777149696721,3.724959274410653,2,-3.6621370271866445,10.92067265356933,-0.7448165760763459,11.542404019280667,0,11,30,61,120,251440.0,81,85.5,0,0,0,0,0,0
1778196371.810703,1.2790729999542236,wait_slave,2,0.06087447118654539,1.3489838762324142,3.7175111086498895,0.10554090356908785,1.3095894546917624,3.6932119871384006,2,-4.466643238254246,3.939442154065187,2.429912151148894,6.432307468192825,-5,-13,-21,65,120,251439.0,81,85.5,0,0,0,0,0,0
1778196371.880738,1.3491079807281494,wait_slave,2,0.06087447118654539,1.3489838762324142,3.7175111086498895,0.0338948956556161,1.2402840305953429,3.6899961019221434,2,2.6979575530929294,10.869984563707135,2.7515006727746094,11.532835528429326,27,-3,30,68,120,251433.0,81,85.5,0,0,0,0,0,0
1778196371.951415,1.4197850227355957,wait_slave,2,0.06087447118654539,1.3489838762324142,3.7175111086498895,0.18557070030669187,1.381617637683286,3.6930926916106976,2,-12.469622912014648,-3.2633761450871823,2.4418417039191898,13.11883037237557,-30,0,-30,72,120,251433.0,81,85.5,0,0,0,0,0,0
1778196372.0206468,1.4890167713165283,wait_slave,2,0.06087447118654539,1.3489838762324142,3.7175111086498895,0.11612192244476816,1.3722613309425449,3.663370594716786,2,-5.524745125822276,-2.327745471013065,5.4140513933103485,8.077942818101931,21,-14,2,75,120,251439.0,81,85.5,0,0,0,0,0,0
1778196372.091962,1.5603320598602295,wait_slave,2,0.06087447118654539,1.3489838762324142,3.7175111086498895,0.1123621030779931,1.3077481344404078,3.6976106066986003,2,-5.148763189144772,4.12357417920064,1.990050195128923,6.89013252183114,-1,10,26,79,120,251439.0,81,85.5,0,0,0,0,0,0
1778196372.1628711,1.6312410831451416,wait_slave,2,0.06087447118654539,1.3489838762324142,3.7175111086498895,0.12334767919447909,1.3732537038177393,3.6644078942668212,2,-6.24732080079337,-2.4269827585325032,5.310321438306831,8.550951776052807,-7,-15,-23,82,120,251439.0,81,85.5,0,0,0,0,0,0
1778196372.235019,1.7033889293670654,wait_slave,2,0.06087447118654539,1.3489838762324142,3.7175111086498895,0.04638484715458335,1.3069925322480067,3.66208625551045,2,1.4489624031962036,4.199134398440751,5.542485313943946,7.102912444717928,27,-4,27,86,120,251434.0,81,85.5,0,-1,0,0,0,0
1778196372.3073869,1.7757568359375,wait_slave,2,0.06087447118654539,1.3489838762324142,3.7175111086498895,0.04667954085526416,1.3074910563627604,3.6623440008842176,2,1.4194930331281232,4.149281986965381,5.516710776567191,7.0473824410732275,0,-3,4,89,120,251436.0,81,85.5,0,-1,0,0,0,0
1778196372.378144,1.8465139865875244,wait_slave,2,0.06087447118654539,1.3489838762324142,3.7175111086498895,0.04698197815800775,1.3079989033285906,3.6626087942332566,2,1.3892493028537636,4.0984972903823635,5.490231441663296,6.990732075239293,0,-3,3,93,120,251437.0,80,85.5,0,0,0,0,0,0
1778196372.448441,1.9168109893798828,wait_slave,2,0.06087447118654539,1.3489838762324142,3.7175111086498895,0.05078012734751869,1.3056129556627836,3.6651094998095504,2,1.00943438390267,4.3370920569630655,5.2401608840339176,6.876671533273653,0,-2,5,97,120,251437.0,80,85.5,0,0,0,0,0,0
1778196372.519701,1.9880709648132324,wait_slave,2,0.06087447118654539,1.3489838762324142,3.7175111086498895,0.05221060853520987,1.3010575721544053,3.6487985198875847,2,0.8663862651335521,4.792630407800891,6.871258876230479,8.422240196667746,0,-10,6,100,120,251429.0,80,85.5,0,0,0,0,0,0
1778196372.5911932,2.059563159942627,wait_slave,2,0.06087447118654539,1.3489838762324142,3.7175111086498895,0.12344101937819874,1.3786431392457699,3.6636254345295476,2,-6.256654819165335,-2.965926301335564,5.388567412034195,8.773773823456802,-28,1,-27,104,120,251429.0,80,85.5,0,0,0,0,0,0
1778196372.6609821,2.12935209274292,wait_slave,2,0.06087447118654539,1.3489838762324142,3.7175111086498895,-0.0229123109380045,1.249144808696789,3.6552763585422805,2,8.37867821245499,9.983906753562533,6.223475010760904,14.443416627005707,30,-7,30,107,130,251437.0,80,85.5,0,0,0,0,0,0
1778196372.731512,2.1998820304870605,wait_slave,2,0.06087447118654539,1.3489838762324142,3.7175111086498895,0.1263494598650825,1.3708129560836726,3.6499556298588307,2,-6.547498867853712,-2.182907985125837,6.755547879105883,9.657756253031227,-30,-6,-30,111,130,251431.0,80,85.5,0,0,0,0,0,0
1778196372.802731,2.2711009979248047,wait_slave,2,0.06087447118654539,1.3489838762324142,3.7175111086498895,0.060462475972635765,1.3691403057023641,3.6355578037628637,2,0.041199521390962446,-2.015642946994989,8.195330488702579,8.439665615970311,23,-10,0,114,130,251432.00000000003,80,85.5,0,0,0,0,0,0
1778196372.8742,2.3425700664520264,wait_slave,2,0.06087447118654539,1.3489838762324142,3.7175111086498895,0.12529607236732454,1.3796183924662608,3.664919967022646,2,-6.442160118077915,-3.063451623384661,5.259114162724332,8.862530372999542,-26,6,-4,118,130,251432.00000000003,80,85.5,0,0,0,0,0,0
1778196372.944267,2.4126369953155518,wait_slave,2,0.06087447118654539,1.3489838762324142,3.7175111086498895,0.12758456494682546,1.370652259173035,3.6507729980733132,2,-6.671009376028008,-2.166838294062079,6.67381105765763,9.68180294784916,-4,-9,3,121,130,251442.99999999997,80,85.5,0,-1,0,0,0,0
1778196373.0156732,2.4840431213378906,wait_slave,2,0.06087447118654539,1.3489838762324142,3.7175111086498895,0.05979991459300804,1.305813294737805,3.649640490135576,2,0.10745565935373486,4.317058149460928,6.787061851431364,8.044423308087977,23,-5,27,125,130,251435.0,80,84.5,0,-1,0,0,0,0
1778196373.0874538,2.555823802947998,wait_slave,2,0.06087447118654539,1.3489838762324142,3.7175111086498895,0.1395424559636731,1.4326421822874913,3.6175329864919505,2,-7.866798477712771,-8.365830605507707,9.9978122157939,15.225961024226716,-30,-18,-30,128,130,251441.0,80,84.5,0,-1,0,0,0,0
1778196373.1573389,2.625708818435669,wait_slave,2,0.06087447118654539,1.3489838762324142,3.7175111086498895,0.1395424559636731,1.4326421822874913,3.6175329864919505,2,-7.866798477712771,-8.365830605507707,9.9978122157939,15.225961024226716,-4,-6,-4,132,130,251441.0,80,84.5,0,-1,0,0,0,0
1778196373.2244139,2.692783832550049,wait_slave,2,0.06087447118654539,1.3489838762324142,3.7175111086498895,0.19938579249545074,1.4444733125618616,3.644237298257432,2,-13.851132130890537,-9.54894363294474,7.327381039245751,18.350114405824346,-30,4,-9,135,130,251441.0,80,84.5,0,-1,0,0,0,0
1778196373.292831,2.7612009048461914,wait_slave,2,0.06087447118654539,1.3489838762324142,3.7175111086498895,0.13075817945683532,1.379118411341064,3.6469394019383157,2,-6.9883708270289935,-3.013453510864972,7.057170671157387,10.378915490553833,20,-4,22,139,130,251439.0,80,84.5,0,0,0,0,0,0
1778196373.36253,2.830899953842163,wait_slave,2,0.06087447118654539,1.3489838762324142,3.7175111086498895,0.13988503665822283,1.4332057960861189,3.617805364634757,2,-7.901056547167744,-8.422191985370464,9.970574401513232,15.256879310530437,-8,-17,-24,142,130,251439.0,80,84.5,0,0,0,0,0,0
1778196373.434828,2.903198003768921,wait_slave,2,0.06087447118654539,1.3489838762324142,3.7175111086498895,0.14003258433202126,1.3651424974107824,3.6385851543694887,2,-7.915811314547587,-1.6158621178368193,7.892595428040083,11.29442967759324,-5,1,23,146,130,251442.99999999997,80,84.5,0,-1,0,0,0,0
1778196373.504731,2.9731009006500244,wait_slave,2,0.06087447118654539,1.3489838762324142,3.7175111086498895,0.06756322078544286,1.2973711571301352,3.6390986185609004,2,-0.6688749598897468,5.161271910227905,7.8412490088989095,9.411233046887812,24,-5,28,149,130,251436.0,80,84.5,0,-1,0,0,0,0
1778196373.575708,3.0440778732299805,wait_slave,2,0.06087447118654539,1.3489838762324142,3.7175111086498895,0.1426768672545241,1.4260564460406036,3.6047081348601533,2,-8.180239606797873,-7.707256980818933,11.280297378973625,15.92366914850613,-30,-20,-30,153,130,251436.0,80,84.5,0,-1,0,0,0,0
1778196373.6471128,3.115482807159424,wait_slave,2,0.06087447118654539,1.3489838762324142,3.7175111086498895,0.07780853998139126,1.3663489383568943,3.6043358033551622,2,-1.6934068794845867,-1.736506212448008,11.31753052947273,11.574522796681666,20,-8,20,157,130,251437.0,80,84.5,0,0,0,0,0,0
1778196373.71939,3.1877598762512207,wait_slave,2,0.06087447118654539,1.3489838762324142,3.7175111086498895,0.07395010488333753,1.3597764471678127,3.6076448839751,2,-1.3075633696792142,-1.0792570935398427,10.986622467478968,11.11667176283426,0,-6,2,160,130,251438.0,80,84.5,0,0,0,0,0,0
1778196373.790265,3.2586350440979004,wait_slave,2,0.06087447118654539,1.3489838762324142,3.7175111086498895,0.14204255917143538,1.4274351517909372,3.6043752829764437,2,-8.116808798488998,-7.845127555852294,11.313582567344582,15.982044986388463,-29,-9,-28,164,130,251438.0,80,84.5,0,0,0,0,0,0
1778196373.861462,3.329832077026367,wait_slave,2,0.06087447118654539,1.3489838762324142,3.7175111086498895,0.13777263949677843,1.3722588592588192,3.6364100684482072,2,-7.689816831023304,-2.327498302640496,8.11010402016823,11.415967697108842,-3,4,18,167,130,251444.99999999997,80,84.5,0,-1,0,0,0,0
1778196373.933335,3.401705026626587,wait_slave,2,0.06087447118654539,1.3489838762324142,3.7175111086498895,0.01704319811778532,1.3598813783961714,3.5744429138962848,2,4.383127306876007,-1.0897502163757178,14.306819475360477,15.002814536710332,30,-30,4,171,130,251444.99999999997,80,84.5,0,-1,0,0,0,0
1778196374.00575,3.4741199016571045,wait_slave,2,0.06087447118654539,1.3489838762324142,3.7175111086498895,0.13878013034067327,1.4330528602356423,3.6013870545718976,2,-7.790565915412788,-8.406898400322804,11.612405407799198,16.31615203872609,-30,0,-30,174,130,251438.0,80,84.5,0,-1,0,0,0,0
1778196374.076633,3.5450029373168945,wait_slave,2,0.06087447118654539,1.3489838762324142,3.7175111086498895,0.13902526591778963,1.494875346959291,3.582063575946442,2,-7.815079473124424,-14.58914707268768,13.544753270344767,21.386421407853103,-5,-16,-30,178,130,251438.0,80,84.5,0,-1,0,0,0,0
1778196374.1460018,3.6143717765808105,wait_slave,2,0.06087447118654539,1.3489838762324142,3.7175111086498895,0.13832804011199307,1.3712199134056084,3.6379498494170277,2,-7.745356892544768,-2.2236037173194223,7.956125923286184,11.324085243045193,-4,13,30,181,130,251438.0,80,84.5,0,-1,0,0,0,0
1778196374.217472,3.6858420372009277,wait_slave,2,0.06087447118654539,1.3489838762324142,3.7175111086498895,0.07701899668874312,1.3671201685230212,3.6053279057650838,2,-1.6144525502197735,-1.8136292290606981,11.218320288480577,11.478084252711746,19,-19,0,185,130,251448.99999999997,80,84.5,0,0,0,0,0,0
1778196374.288076,3.75644588470459,wait_slave,2,0.06087447118654539,1.3489838762324142,3.7175111086498895,0.136540970406687,1.4344511334265775,3.6002460919777164,2,-7.566649922014161,-8.546725719416326,11.726501667217315,16.364948912737244,-26,-10,-29,188,130,251448.99999999997,80,84.5,0,0,0,0,0,0
1778196374.359092,3.8274619579315186,wait_slave,2,0.06087447118654539,1.3489838762324142,3.7175111086498895,0.0705529328899922,1.364129865260861,3.60593810407287,2,-0.9678461703446815,-1.5145989028446882,11.157300457701957,11.301154345879253,22,-6,24,192,130,251448.0,80,84.5,0,0,0,0,0,0
1778196374.428812,3.897181987762451,wait_slave,2,0.06087447118654539,1.3489838762324142,3.7175111086498895,0.07237911091240834,1.4303034130064138,3.5869913578609576,2,-1.150463972586295,-8.131953677399961,13.051975078893197,15.420969211552393,-2,-16,-28,196,130,251444.0,79,84.5,0,0,0,0,0,0
1778196374.499608,3.967978000640869,wait_slave,2,0.06087447118654539,1.3489838762324142,3.7175111086498895,-0.0002052807062280504,1.3076158312838464,3.598115478293136,2,6.107975189277344,4.136804494856783,11.939563035675338,14.034731127611948,28,-5,30,199,130,251444.0,79,84.5,0,0,0,0,0,0
1778196374.571886,4.040256023406982,wait_slave,2,0.06087447118654539,1.3489838762324142,3.7175111086498895,0.010887127897507454,1.368412488023365,3.5874144761056375,2,4.998734328903794,-1.942861179095079,13.009663254425208,14.071723151261093,-1,-13,-21,203,130,251435.0,79,84.5,0,0,0,0,0,0
1778196374.642782,4.111151933670044,wait_slave,2,0.06087447118654539,1.3489838762324142,3.7175111086498895,0.06130080329996168,1.3760270965009216,3.615816858280142,2,-0.042633211341629174,-2.704322026850736,10.169425036974733,10.522945443090919,-18,1,-3,206,130,251426.00000000003,79,84.5,0,0,0,0,0,0
1778196374.711829,4.180198907852173,wait_slave,2,0.06087447118654539,1.3489838762324142,3.7175111086498895,0.12743059175660942,1.4371330563966147,3.616140353404267,2,-6.655612057006404,-8.814918016420048,10.137075524562267,14.992006259345517,-28,-8,-27,210,130,251426.00000000003,79,84.5,0,0,0,0,0,0
1778196374.7828841,4.251254081726074,wait_slave,2,0.06087447118654539,1.3489838762324142,3.7175111086498895,0.06476872677896628,1.372899440017145,3.6183769602894524,2,-0.38942555924208894,-2.391556378473081,9.91341483604371,10.205243156784547,21,-7,21,213,130,251426.00000000003,79,84.5,0,0,0,0,0,0
1778196374.854115,4.322484970092773,wait_slave,2,0.06087447118654539,1.3489838762324142,3.7175111086498895,0.0647762497640656,1.4393025914104345,3.5991458064548016,2,-0.3901778577520207,-9.031871517802026,11.83653021950879,14.893971582895821,0,-16,-29,217,130,251426.00000000003,79,84.5,0,0,0,0,0,0
1778196374.924507,4.392876863479614,wait_slave,2,0.06087447118654539,1.3489838762324142,3.7175111086498895,-0.008714060271112434,1.3095715825691285,3.614872727394242,2,6.958853145765782,3.941229366328569,10.263838125564773,13.011736974368256,29,-2,30,220,130,251421.99999999997,79,84.5,0,0,0,0,0,0
1778196374.99646,4.464829921722412,wait_slave,2,0.06087447118654539,1.3489838762324142,3.7175111086498895,0.05947197000785265,1.3769895038017026,3.6151206233340663,2,0.14025011786927416,-2.800562756928837,10.239048531582329,10.616069738050774,-24,-8,-24,224,130,251421.0,79,84.5,0,0,0,0,0,0
1778196375.068015,4.5363850593566895,wait_slave,2,0.06087447118654539,1.3489838762324142,3.7175111086498895,0.054597387932306174,1.3129414457894613,3.6490656070525493,2,0.6277083254239215,3.6042430442952966,6.84455015973402,7.7609569354089665,1,5,25,228,130,251421.0,79,84.5,0,0,0,0,0,0
1778196375.1407738,4.6091437339782715,wait_slave,2,0.06087447118654539,1.3489838762324142,3.7175111086498895,-0.002972949579459039,1.3764018444900037,3.599249613553132,2,6.384742076600443,-2.7417968257589465,11.826149509675732,13.716420576945632,23,-27,-23,231,130,251430.00000000003,79,84.5,0,0,0,0,0,0
1778196375.207596,4.675966024398804,wait_slave,2,0.06087447118654539,1.3489838762324142,3.7175111086498895,0.12573256804194477,1.4386814948140567,3.615708219615667,2,-6.485809685539938,-8.969761858164249,10.180288903422241,15.038638144006386,-30,-2,-28,234,130,251437.0,79,84.5,0,0,0,0,0,0
1778196375.2767591,4.745129108428955,wait_slave,2,0.06087447118654539,1.3489838762324142,3.7175111086498895,0.06216894671750395,1.4503369305569636,3.6131107265150386,2,-0.12944755309585582,-10.135305432454933,10.440038213485092,14.551136408445286,22,-9,-10,238,130,251438.0,79,84.5,0,0,0,0,0,0
1778196375.345309,4.813678979873657,wait_slave,2,0.06087447118654539,1.3489838762324142,3.7175111086498895,0.12479130041144681,1.5047505287065963,3.594397329924617,2,-6.391682922490142,-15.576665247418209,12.311377872527274,20.857999327163007,-28,-17,-30,241,130,251438.0,79,84.5,0,0,0,0,0,0
1778196375.412071,4.880440950393677,wait_slave,2,0.06087447118654539,1.3489838762324142,3.7175111086498895,0.05740233913877402,1.4476785201228575,3.6150862863161435,2,0.3472132047771373,-9.869464389044325,10.242482233374606,14.227976898954402,24,-1,14,245,130,251437.0,79,84.5,0,0,0,0,0,0
1778196375.478415,4.946784973144531,wait_slave,2,0.06087447118654539,1.3489838762324142,3.7175111086498895,0.054949947913148,1.3812958030670108,3.6341154992727223,2,0.5924523273397388,-3.2311926834596605,8.339560937716728,8.963251784464399,0,0,22,248,130,251437.0,79,84.5,0,0,0,0,0,0
1778196375.5479739,5.016343832015991,wait_slave,2,0.06087447118654539,1.3489838762324142,3.7175111086498895,0.048084549293439416,1.3203421492868945,3.6658800938214737,2,1.2789921893105973,2.8641726945519697,5.163101482841581,6.041268340891301,2,5,24,252,130,251438.0,79,84.5,0,0,0,0,0,0
1778196375.619381,5.0877509117126465,wait_slave,2,0.06087447118654539,1.3489838762324142,3.7175111086498895,0.05323198794956885,1.3895702767860083,3.648794737805538,2,0.764248323697654,-4.058640055359408,6.871637084435145,8.01723336441112,-1,-12,-27,255,130,251440.0,79,84.5,0,-1,0,0,0,0
1778196375.6905012,5.158871173858643,wait_slave,2,0.06087447118654539,1.3489838762324142,3.7175111086498895,0.05152476543215234,1.388421343923628,3.6487034759545667,2,0.9349705754393047,-3.94374676912137,6.880763269532286,7.985750542512406,0,-7,-2,259,130,251446.0,79,84.5,0,-1,0,0,0,0
1778196375.76258,5.230949878692627,wait_slave,2,0.06087447118654539,1.3489838762324142,3.7175111086498895,-0.0144603647263295,1.3916662921352347,3.6296120886616103,2,7.533483591287489,-4.268241590282051,8.78990199882792,12.338299657659899,26,-14,-3,262,130,251446.0,79,84.5,0,-1,0,0,0,0
1778196375.835043,5.303412914276123,wait_slave,2,0.06087447118654539,1.3489838762324142,3.7175111086498895,0.04306593661846414,1.3937605621158147,3.664022984777434,2,1.780853456808125,-4.477668588340045,5.348812387245561,7.199357539085286,-19,5,-3,266,130,251440.0,79,84.5,0,0,0,0,0,0
1778196375.908226,5.376595973968506,wait_slave,2,0.06087447118654539,1.3489838762324142,3.7175111086498895,-0.01416804464940613,1.3923982211296173,3.6298953075190363,2,7.504251583595152,-4.341434489720308,8.761580113085321,12.3258724371314,23,-20,-2,270,130,251453.00000000003,79,84.5,0,0,0,0,0,0
1778196375.979001,5.447371006011963,wait_slave,2,0.06087447118654539,1.3489838762324142,3.7175111086498895,0.11480298893400254,1.463606365736366,3.66080391040266,2,-5.392851774745715,-11.462248950395182,5.670719824722958,13.878871157112146,-30,4,-30,273,130,251453.00000000003,79,84.5,0,0,0,0,0,0
1778196376.049076,5.517446041107178,wait_slave,2,0.06087447118654539,1.3489838762324142,3.7175111086498895,0.11439178274079842,1.5203156909509477,3.623981798110405,2,-5.351731155425303,-17.13318147185334,9.352931053948454,20.24016435228039,-3,-21,-30,277,130,251439.0,79,84.5,0,0,0,0,0,0
1778196376.119863,5.58823299407959,wait_slave,2,0.06087447118654539,1.3489838762324142,3.7175111086498895,0.11439178274079842,1.5203156909509477,3.623981798110405,2,-5.351731155425303,-17.13318147185334,9.352931053948454,20.24016435228039,-3,-8,-12,280,130,251451.00000000003,79,84.5,0,0,0,0,0,0
1778196376.190677,5.65904688835144,wait_slave,2,0.06087447118654539,1.3489838762324142,3.7175111086498895,-0.027514794049834146,1.336731223143211,3.6570717157241894,2,8.838926523637953,1.2252653089203314,6.043939292570011,10.777620300408891,30,4,30,284,130,251451.00000000003,79,84.5,0,0,0,0,0,0
1778196376.262024,5.730393886566162,wait_slave,2,0.06087447118654539,1.3489838762324142,3.7175111086498895,0.04336015147871475,1.3945258456304739,3.6642824172815365,2,1.7514319707830641,-4.554196939805966,5.3228691368353065,7.22088357216019,-24,-3,-23,287,130,251444.99999999997,79,84.5,0,0,0,0,0,0
1778196376.334226,5.802595853805542,wait_slave,2,0.06087447118654539,1.3489838762324142,3.7175111086498895,0.04336015147871475,1.3945258456304739,3.6642824172815365,2,1.7514319707830641,-4.554196939805966,5.3228691368353065,7.22088357216019,0,-6,-3,291,130,251442.99999999997,79,84.5,0,0,0,0,0,0
1778196376.405866,5.8742358684539795,wait_slave,2,0.06087447118654539,1.3489838762324142,3.7175111086498895,0.05165904119629494,1.4499300827480743,3.632743110698531,2,0.9215429990250448,-10.09462065156601,8.47679979513587,13.213884454046458,-2,-19,-26,294,130,251446.0,78,84.5,0,0,0,0,0,0
1778196376.477136,5.945505857467651,wait_slave,2,0.06087447118654539,1.3489838762324142,3.7175111086498895,0.04371125852802815,1.3934188700381989,3.6642719204197327,2,1.7163212658517237,-4.443499380578464,5.323918823015683,7.143847497453788,3,4,16,298,130,251446.0,78,84.5,0,0,0,0,0,0
1778196376.547555,6.01592493057251,wait_slave,2,0.06087447118654539,1.3489838762324142,3.7175111086498895,-0.03576334759431932,1.2644379595513309,3.67086295708392,2,9.663781878086471,8.454591668108336,4.664815156596935,13.66123350605266,30,-3,30,301,130,251450.0,78,84.5,0,0,0,0,0,0
1778196376.618148,6.086518049240112,wait_slave,2,0.06087447118654539,1.3489838762324142,3.7175111086498895,0.04371125852802815,1.3934188700381989,3.6642719204197327,2,1.7163212658517237,-4.443499380578464,5.323918823015683,7.143847497453788,-27,-8,-30,305,130,251451.00000000003,78,84.5,0,0,0,0,0,0
1778196376.689724,6.1580939292907715,wait_slave,2,0.06087447118654539,1.3489838762324142,3.7175111086498895,0.049158304624882354,1.391301236536171,3.6456488554051694,2,1.1716166561663035,-4.231736030375677,7.186225324472018,8.421526573838555,-1,-14,-2,309,130,251451.00000000003,78,84.5,0,0,0,0,0,0
1778196376.761112,6.229481935501099,wait_slave,2,0.06087447118654539,1.3489838762324142,3.7175111086498895,0.04404634503706972,1.3923306200440928,3.664261696202753,2,1.6828126149475666,-4.334674381167858,5.324941244713655,7.069388909052339,2,0,-3,312,130,251444.99999999997,78,84.5,0,0,0,0,0,0
1778196376.8315048,6.299874782562256,wait_slave,2,0.06087447118654539,1.3489838762324142,3.7175111086498895,0.04404634503706972,1.3923306200440928,3.664261696202753,2,1.6828126149475666,-4.334674381167858,5.324941244713655,7.069388909052339,0,-6,-3,316,130,251452.0,78,84.5,0,0,0,0,0,0
1778196376.9025369,6.370906829833984,wait_slave,2,0.06087447118654539,1.3489838762324142,3.7175111086498895,0.04880084811293739,1.4566199685858594,3.647335940089794,2,1.2073623073608,-10.763609235344518,7.0175168560095535,12.905756480610023,-1,-13,-30,319,130,251452.0,78,84.5,0,0,0,0,0,0
1778196376.975821,6.444190979003906,wait_slave,2,0.06087447118654539,1.3489838762324142,3.7175111086498895,0.04744222338668469,1.460117643315387,3.6453802437254685,2,1.34322477998607,-11.113376708297285,7.2130864924421,13.316906976379459,0,-8,-9,323,130,251453.00000000003,78,84.5,0,0,0,0,0,0
1778196377.04658,6.5149500370025635,wait_slave,2,0.06087447118654539,1.3489838762324142,3.7175111086498895,-0.017127303510178438,1.3984550015449213,3.644514544988983,2,7.8001774696723825,-4.947112531250708,7.299656366090668,11.772921218552787,27,-8,17,326,130,251444.0,78,84.0,0,0,0,0,0,0
1778196377.117825,6.58619499206543,wait_slave,2,0.06087447118654539,1.3489838762324142,3.7175111086498895,0.048331613801268714,1.4605164412651024,3.6458935775000203,2,1.2542857385276676,-11.153256503268816,7.161753114986924,13.313867620703121,-23,-7,-30,330,130,251453.00000000003,78,84.0,0,0,0,0,0,0
1778196377.186393,6.6547629833221436,wait_slave,2,0.06087447118654539,1.3489838762324142,3.7175111086498895,0.048331613801268714,1.4605164412651024,3.6458935775000203,2,1.2542857385276676,-11.153256503268816,7.161753114986924,13.313867620703121,0,-7,-8,333,130,251453.00000000003,78,84.0,0,0,0,0,0,0
1778196377.253147,6.721516847610474,wait_slave,2,0.06087447118654539,1.3489838762324142,3.7175111086498895,0.04412609381615118,1.4015288246678677,3.680266362394962,2,1.674837737039421,-5.254494843545343,3.7244746254927463,6.654810947141568,2,6,16,337,130,251446.99999999997,78,84.0,0,0,0,0,0,0
1778196377.3252869,6.793656826019287,wait_slave,2,0.06087447118654539,1.3489838762324142,3.7175111086498895,0.03560985615923962,1.3332992468313805,3.6953597074743763,2,2.5264615027305775,1.5684629401033767,2.2151401175513286,3.708089731875793,4,0,24,340,130,251450.0,78,84.0,0,0,0,0,0,0
1778196377.39463,6.86299991607666,wait_slave,2,0.06087447118654539,1.3489838762324142,3.7175111086498895,0.046519442475294825,1.3927142788246316,3.6656194765763357,2,1.4355028711250564,-4.373040259221739,5.189163207355385,6.936250023921661,-3,-17,-25,344,130,251450.0,78,84.0,0,0,0,0,0,0
1778196377.466291,6.934660911560059,wait_slave,2,0.06087447118654539,1.3489838762324142,3.7175111086498895,0.046519442475294825,1.3927142788246316,3.6656194765763357,2,1.4355028711250564,-4.373040259221739,5.189163207355385,6.936250023921661,0,-6,-3,347,130,251446.0,78,84.0,0,0,0,0,0,0
1778196377.5400162,7.008386135101318,wait_slave,2,0.06087447118654539,1.3489838762324142,3.7175111086498895,0.1184997291060308,1.5257485426682926,3.641658135436139,2,-5.762525791948541,-17.67646664358784,7.585297321375073,20.079863345112823,-28,-16,-30,351,130,251450.0,78,84.0,0,0,0,0,0,0
1778196377.609005,7.0773749351501465,wait_slave,2,0.06087447118654539,1.3489838762324142,3.7175111086498895,0.04746472709664773,1.3930618966615178,3.6662088692754584,2,1.340974408989766,-4.407802042910358,5.1302239374431124,6.895370103436399,26,2,30,355,130,251450.0,78,84.0,0,0,0,0,0,0
1778196377.6792362,7.147606134414673,wait_slave,2,0.06087447118654539,1.3489838762324142,3.7175111086498895,0.04746472709664773,1.3930618966615178,3.6662088692754584,2,1.340974408989766,-4.407802042910358,5.1302239374431124,6.895370103436399,0,-6,-4,358,130,251451.00000000003,78,84.0,0,0,0,0,0,0
1778196377.7501109,7.218480825424194,wait_slave,2,0.06087447118654539,1.3489838762324142,3.7175111086498895,0.04746472709664773,1.3930618966615178,3.6662088692754584,2,1.340974408989766,-4.407802042910358,5.1302239374431124,6.895370103436399,0,-6,-4,362,130,251448.99999999997,78,84.0,0,0,0,0,0,0
1778196377.822154,7.290524005889893,wait_slave,2,0.06087447118654539,1.3489838762324142,3.7175111086498895,-0.02359594908670659,1.334968347400817,3.659129517256726,2,8.447042027325198,1.401552883159729,5.838159139316357,10.363444004368173,29,-9,20,365,130,251448.99999999997,78,84.0,0,0,0,0,0,0
1778196377.8940349,7.362404823303223,wait_slave,2,0.06087447118654539,1.3489838762324142,3.7175111086498895,0.04746472709664773,1.3930618966615178,3.6662088692754584,2,1.340974408989766,-4.407802042910358,5.1302239374431124,6.895370103436399,-24,-4,-24,369,130,251459.0,78,84.0,0,-1,0,0,0,0
1778196377.965599,7.433969020843506,wait_slave,2,0.06087447118654539,1.3489838762324142,3.7175111086498895,0.1093028083453409,1.4680522562312204,3.6782178537389347,2,-4.842833715879551,-11.906837999880615,3.929325491095481,13.441184038991263,-24,-2,-30,372,130,251455.00000000003,78,84.0,0,0,0,0,0,0
1778196378.037743,7.506113052368164,wait_slave,2,0.06087447118654539,1.3489838762324142,3.7175111086498895,0.0454147346803373,1.4026270865116692,3.681152195805187,2,1.545973650620809,-5.3643210279255005,3.6358912844702385,6.662257879393755,22,-5,17,376,130,251446.0,78,83.5,0,0,0,0,0,0
1778196378.109636,7.578006029129028,wait_slave,2,0.06087447118654539,1.3489838762324142,3.7175111086498895,0.049855838794127916,1.4623794397508334,3.6469863306072705,2,1.1018632392417473,-11.339556351841917,7.052477804261903,13.399144899365686,-1,-20,-30,380,130,251446.0,78,83.5,0,0,0,0,0,0
1778196378.179921,7.6482908725738525,wait_slave,2,0.06087447118654539,1.3489838762324142,3.7175111086498895,0.049855838794127916,1.4623794397508334,3.6469863306072705,2,1.1018632392417473,-11.339556351841917,7.052477804261903,13.399144899365686,0,-8,-9,383,130,251444.99999999997,78,83.5,0,0,0,0,0,0
1778196378.250439,7.718808889389038,wait_slave,2,0.06087447118654539,1.3489838762324142,3.7175111086498895,0.1089736993578373,1.4691718899459358,3.678190872160493,2,-4.80992281712919,-12.018801371352161,3.932023648939653,13.529514177773619,-24,4,-12,387,130,251448.0,78,83.5,0,0,0,0,0,0
1778196378.320885,7.789254903793335,wait_slave,2,0.06087447118654539,1.3489838762324142,3.7175111086498895,0.049855838794127916,1.4623794397508334,3.6469863306072705,2,1.1018632392417473,-11.339556351841917,7.052477804261903,13.399144899365686,21,-19,-7,390,130,251437.0,78,83.5,0,-1,0,0,0,0
1778196378.390869,7.859238862991333,wait_slave,2,0.06087447118654539,1.3489838762324142,3.7175111086498895,0.03930465267874639,1.466932098461967,3.662198669960615,2,2.1569818507799003,-11.79482222295527,5.531243868927449,13.204736298512776,4,-2,-11,394,130,251442.99999999997,77,83.5,0,0,0,0,0,0
1778196378.462025,7.930394887924194,wait_slave,2,0.06087447118654539,1.3489838762324142,3.7175111086498895,0.04539088583093864,1.4010245318461583,3.6822257293872305,2,1.5483585355606746,-5.204065561374405,3.5285379262659067,6.475360408411536,-1,0,17,397,130,251442.99999999997,77,83.5,0,0,0,0,0,0
1778196378.533677,8.002047061920166,wait_slave,2,0.06087447118654539,1.3489838762324142,3.7175111086498895,0.044164952662916646,1.4034041081129294,3.680571902018371,2,1.6709518523628744,-5.442023188051515,3.6939206631518395,6.786217380681628,1,-7,-6,401,130,251428.00000000003,77,83.5,0,0,0,0,0,0
1778196378.604096,8.072465896606445,wait_slave,2,0.06087447118654539,1.3489838762324142,3.7175111086498895,-0.03151399409435407,1.337498225697627,3.6770283186870065,2,9.238846528089946,1.1485650534787117,4.0482789962883015,10.152046576107757,30,-7,22,404,130,251428.00000000003,77,83.5,0,0,0,0,0,0
1778196378.675138,8.143507957458496,wait_slave,2,0.06087447118654539,1.3489838762324142,3.7175111086498895,0.02637134313342926,1.3405444142815557,3.711174701394148,2,3.450312805311613,0.843946195085854,0.6336407255741694,3.608102576674247,-18,7,-2,408,130,251440.0,77,83.5,0,0,0,0,0,0
1778196378.7465222,8.214892148971558,wait_slave,2,0.06087447118654539,1.3489838762324142,3.7175111086498895,0.10599090808723255,1.4697117406780102,3.6768887567286956,2,-4.511643690068716,-12.072786444559602,4.06223519211939,13.513284429707392,-30,-18,-30,411,130,251434.0,77,83.5,0,0,0,0,0,0
1778196378.816162,8.284532070159912,wait_slave,2,0.06087447118654539,1.3489838762324142,3.7175111086498895,-0.033094608654767654,1.3375781167016259,3.676121386999108,2,9.396907984131305,1.1405759530788373,4.1389721650781475,10.331209210458573,30,-7,30,415,130,251434.0,77,83.5,0,0,0,0,0,0
1778196378.886976,8.355345964431763,wait_slave,2,0.06087447118654539,1.3489838762324142,3.7175111086498895,-0.03372379788588331,1.3379778839570116,3.675848579128357,2,9.45982690724287,1.1005992275402665,4.166252952153249,10.395061685049498,5,-6,-1,418,130,251454.0,77,83.5,0,0,0,0,0,0
1778196378.9583979,8.426767826080322,wait_slave,2,0.06087447118654539,1.3489838762324142,3.7175111086498895,0.036357406029009165,1.4081350848235186,3.675981540121756,2,2.4517065157536226,-5.915120859110434,4.152956852813361,7.631944066789377,-23,-6,-30,422,130,251457.00000000003,77,83.5,0,0,0,0,0,0
1778196379.02932,8.497689962387085,wait_slave,2,0.06087447118654539,1.3489838762324142,3.7175111086498895,0.036035901912592094,1.401585909318341,3.6808616800122267,2,2.4838569273953297,-5.26020330859267,3.664942863766285,6.875397463286792,1,-4,-3,426,130,251459.0,77,84.0,0,0,0,0,0,0
1778196379.10023,8.568599939346313,wait_slave,2,0.06087447118654539,1.3489838762324142,3.7175111086498895,-0.04589914364857095,1.2769721885338123,3.704639245279812,2,10.677361483511634,7.201168769860189,1.287186337007773,12.942941264170479,30,3,30,429,130,251459.0,77,84.0,0,0,0,0,0,0
1778196379.170388,8.638757944107056,wait_slave,2,0.06087447118654539,1.3489838762324142,3.7175111086498895,-0.040922757409780575,1.3518505537204115,3.6877063018109095,2,10.179722859632596,-0.28666774879972934,2.9804806838980014,10.610947224645754,4,-12,-28,433,130,251466.0,77,84.0,0,0,0,0,0,0
1778196379.239664,8.708034038543701,wait_slave,2,0.06087447118654539,1.3489838762324142,3.7175111086498895,0.03108240162275322,1.4111600290441189,3.6952469227169513,2,2.979206956379217,-6.217615281170463,2.226418593293822,7.245091692045534,-24,-3,-27,436,130,251459.0,77,84.0,0,0,0,0,0,0
1778196379.3074508,8.7758207321167,wait_slave,2,0.06087447118654539,1.3489838762324142,3.7175111086498895,0.03108240162275322,1.4111600290441189,3.6952469227169513,2,2.979206956379217,-6.217615281170463,2.226418593293822,7.245091692045534,1,-5,-6,439,130,251459.0,77,84.0,0,0,0,0,0,0
1778196379.3763351,8.84470510482788,wait_slave,2,0.06087447118654539,1.3489838762324142,3.7175111086498895,0.03108240162275322,1.4111600290441189,3.6952469227169513,2,2.979206956379217,-6.217615281170463,2.226418593293822,7.245091692045534,1,-5,-6,443,130,251454.0,77,84.0,0,0,0,0,0,0
1778196379.442684,8.911053895950317,wait_slave,2,0.06087447118654539,1.3489838762324142,3.7175111086498895,0.030773572554588124,1.4103442991359074,3.694973101218177,2,3.0100898631957267,-6.1360422903493195,2.2538007431712526,7.196615438064499,2,-5,-5,446,130,251444.99999999997,77,84.0,0,0,0,0,0,0
1778196379.509637,8.978007078170776,wait_slave,2,0.06087447118654539,1.3489838762324142,3.7175111086498895,-0.02692260078273656,1.4662053592936113,3.6456311218029587,2,8.779707196928195,-11.722148306119706,7.187998684693087,16.314390716959288,26,-27,-30,449,130,251444.99999999997,77,84.0,0,0,0,0,0,0
1778196379.576549,9.04491901397705,wait_slave,2,0.06087447118654539,1.3489838762324142,3.7175111086498895,0.032979348501386396,1.4060463611152492,3.6971453060274606,2,2.7895122685158995,-5.706248488283494,2.036580262242893,6.670105671636373,-20,13,15,453,130,251439.0,77,84.0,0,0,0,0,0,0
1778196379.647597,9.115967035293579,wait_slave,2,0.06087447118654539,1.3489838762324142,3.7175111086498895,0.029491034816176875,1.4121691189013799,3.6925282545298375,2,3.1383436370368516,-6.3185242668965635,2.498285412005208,7.48427549568617,3,-7,-8,456,130,251433.0,77,84.0,0,0,0,0,0,0
1778196379.717182,9.185551881790161,wait_slave,2,0.06087447118654539,1.3489838762324142,3.7175111086498895,0.03572515542179544,1.4734186168717778,3.6774401868001743,2,2.514931576474995,-12.443474063936355,4.007092184971528,13.31246466260353,0,-12,-30,460,130,251433.0,77,84.0,0,0,0,0,0,0
1778196379.788003,9.256372928619385,wait_slave,2,0.06087447118654539,1.3489838762324142,3.7175111086498895,0.031211386887012416,1.407276880122276,3.69468429226239,2,2.9663084299532976,-5.829300388986169,2.2826816387499616,6.927507790723336,3,0,16,463,130,251437.0,77,84.0,0,0,0,0,0,0
1778196379.857672,9.32604193687439,wait_slave,2,0.06087447118654539,1.3489838762324142,3.7175111086498895,0.02374795571070043,1.3439965220191714,3.7273022227823787,2,3.712651547584496,0.49873542132428117,-0.979111413248912,3.8718442238575843,5,7,20,467,130,251444.0,77,84.0,0,0,0,0,0,0
1778196379.929815,9.398185014724731,wait_slave,2,0.06087447118654539,1.3489838762324142,3.7175111086498895,0.03126166304445088,1.4054309409178618,3.694412658409324,2,2.961280814209451,-5.644706468544758,2.309845024056534,6.779917345498745,0,-17,-27,471,130,251452.0,77,84.0,0,0,0,0,0,0
1778196380.000024,9.468394041061401,wait_slave,2,0.06087447118654539,1.3489838762324142,3.7175111086498895,0.02652309842663192,1.4016051676154242,3.6959631083755045,2,3.435137275991347,-5.262129138300997,2.154800027438508,6.643292431566643,4,-5,-4,474,130,251452.0,77,84.0,0,0,0,0,0,0
1778196380.071805,9.540174961090088,wait_slave,2,0.06087447118654539,1.3489838762324142,3.7175111086498895,0.024355097751857513,1.3417406503505727,3.727232391376909,2,3.651937343468788,0.7243225881841564,-0.9721282727019442,3.847898511000794,3,6,19,478,130,251455.00000000003,77,84.0,0,0,0,0,0,0
1778196380.14213,9.610499858856201,wait_slave,2,0.06087447118654539,1.3489838762324142,3.7175111086498895,-0.033595493526974884,1.4030487839777779,3.677200116769554,2,9.446996471352028,-5.4064907745363655,4.031099188033549,11.607137695773632,26,-24,-28,481,130,251444.99999999997,77,84.0,0,0,0,0,0,0
1778196380.2117372,9.680107116699219,wait_slave,2,0.06087447118654539,1.3489838762324142,3.7175111086498895,0.09409028933961783,1.4776598336826883,3.7064803948571905,2,-3.3215818153072436,-12.867595745027405,1.1030713792699043,13.335092518651365,-30,5,-30,485,130,251444.99999999997,77,84.0,0,0,0,0,0,0
1778196380.2822368,9.750606775283813,wait_slave,2,0.06087447118654539,1.3489838762324142,3.7175111086498895,0.09435131058152346,1.4057282939530076,3.7280181712206852,2,-3.347683939497807,-5.674441772059335,-1.05070625707957,6.671601068853683,-1,3,18,488,130,251438.0,77,84.0,0,0,0,0,0,0
1778196380.352732,9.821101903915405,wait_slave,2,0.06087447118654539,1.3489838762324142,3.7175111086498895,0.09209315497759751,1.4081530710109051,3.725446510773765,2,-3.121868379105212,-5.916919477849092,-0.7935402123875335,6.736891297362829,0,-5,-7,492,130,251434.0,77,84.0,0,0,0,0,0,0
1778196380.4241102,9.89248013496399,wait_slave,2,0.06087447118654539,1.3489838762324142,3.7175111086498895,0.012401863936867707,1.3443608430554255,3.7402423048402706,2,4.847260724967768,0.46230331769887556,-2.273119619038111,5.373707630289017,30,1,19,495,130,251434.0,77,84.0,0,0,0,0,0,0
1778196380.496068,9.96443796157837,wait_slave,2,0.06087447118654539,1.3489838762324142,3.7175111086498895,0.09180058345069564,1.4118684498004521,3.7424016103997944,2,-3.0926112264150247,-6.288457356803789,-2.4890501749904814,7.436686822752998,-28,-2,-30,499,130,251440.0,76,84.0,0,0,0,0,0,0
1778196380.569032,10.037401914596558,wait_slave,2,0.06087447118654539,1.3489838762324142,3.7175111086498895,0.09220219104793392,1.4049186313967073,3.725047219481115,2,-3.132771986138853,-5.593475516429303,-0.7536110831225518,6.455165244564665,-1,-10,-4,503,130,251441.0,76,84.0,0,0,0,0,0,0
1778196380.640573,10.108942985534668,wait_slave,2,0.06087447118654539,1.3489838762324142,3.7175111086498895,0.004577252823817046,1.2652402560042866,3.7550853539806037,2,5.629721836272834,8.374362022812765,-3.7574245330714184,10.767634204627441,30,8,30,506,130,251450.0,76,84.0,0,0,0,0,0,0
1778196380.711329,10.179698944091797,wait_slave,2,0.06087447118654539,1.3489838762324142,3.7175111086498895,0.004472066797549967,1.2637344284344527,3.7547676074625147,2,5.640240438899542,8.52494477979615,-3.725649881262516,10.879681187650801,3,-2,3,510,130,251450.0,76,84.0,0,0,0,0,0,0
1778196380.781461,10.249830961227417,wait_slave,2,0.06087447118654539,1.3489838762324142,3.7175111086498895,0.0822422430214862,1.3386722558782487,3.7561532366473607,2,-2.1367771834940803,1.0311620354165552,-3.864212799747113,4.534451723958998,-28,-1,-28,513,130,251455.00000000003,76,84.0,0,-1,0,0,0,0
1778196380.853524,10.32189393043518,wait_slave,2,0.06087447118654539,1.3489838762324142,3.7175111086498895,0.004083972657979884,1.2617669213741878,3.754210886321919,2,5.679049852856551,8.721695485822645,-3.6699777672029477,11.035774381094107,30,-2,30,517,130,251446.0,76,84.0,0,0,0,0,0,0
1778196380.924844,10.393213987350464,wait_slave,2,0.06087447118654539,1.3489838762324142,3.7175111086498895,0.003556473783592584,1.260732948154668,3.7537353908785756,2,5.731799740295281,8.825092807774615,-3.622428222868601,11.129140917362816,4,-2,4,520,130,251446.0,76,84.0,0,0,0,0,0,0
1778196381.00438,10.472749948501587,wait_slave,2,0.06087447118654539,1.3489838762324142,3.7175111086498895,0.15771378531906155,1.4043957833463225,3.7562169644139907,2,-9.683931413251615,-5.541190711390831,-3.8705855764101127,11.809519669354867,-30,-1,-30,524,120,251446.0,76,84.0,0,0,0,0,0,0
1778196381.074328,10.54269790649414,wait_slave,2,0.06087447118654539,1.3489838762324142,3.7175111086498895,0.07527728723705707,1.2593681280926703,3.7906131923882573,2,-1.4402816050511678,8.961574813974394,-7.31020837383678,11.654328840273141,28,12,30,528,120,251444.99999999997,76,83.5,0,0,0,0,0,0
1778196381.144025,10.61239504814148,wait_slave,2,0.06087447118654539,1.3489838762324142,3.7175111086498895,0.0902973460523584,1.402080557292908,3.740334816435126,2,-2.9422874865813005,-5.309668106049381,-2.282370778523646,6.48527928625665,-6,-20,-30,531,120,251444.99999999997,76,83.5,0,0,0,0,0,0
1778196381.214019,10.6823890209198,wait_slave,2,0.06087447118654539,1.3489838762324142,3.7175111086498895,0.0005618887451552812,1.2613083147373305,3.7500259533722895,2,6.031258244139011,8.767556149508371,-3.251484472239996,11.127365731182499,30,1,30,535,120,251434.0,76,83.5,0,0,0,0,0,0
1778196381.2837849,10.75215482711792,wait_slave,2,0.06087447118654539,1.3489838762324142,3.7175111086498895,0.08076001712898984,1.3246472407066676,3.7591357753403174,2,-1.9885545942444447,2.433663552574661,-4.162466669042786,5.215668359118815,-29,1,-23,538,120,251438.0,76,83.5,0,0,0,0,0,0
1778196381.3538718,10.82224178314209,wait_slave,2,0.06087447118654539,1.3489838762324142,3.7175111086498895,0.0014417891987457132,1.2561456837356135,3.751834154611554,2,5.943268198779967,9.28381924968007,-3.4323045961664356,11.545235016413686,30,-4,28,542,120,251433.0,76,83.5,0,0,0,0,0,0
1778196381.424085,10.892454862594604,wait_slave,2,0.06087447118654539,1.3489838762324142,3.7175111086498895,0.0012786161069352486,1.2557399010242722,3.751688215946284,2,5.959585507961014,9.324397520814198,-3.417710729639456,11.581959902553523,4,-2,4,545,120,251427.0,76,83.5,0,0,0,0,0,0
1778196381.495789,10.96415901184082,wait_slave,2,0.06087447118654539,1.3489838762324142,3.7175111086498895,0.15589936570377316,1.3999033874331577,3.7550987704936034,2,-9.502489451722777,-5.091951120074345,-3.758766184371387,11.417249897330919,-30,0,-30,549,120,251427.0,76,83.5,0,0,0,0,0,0
1778196381.565995,11.034364938735962,wait_slave,2,0.06087447118654539,1.3489838762324142,3.7175111086498895,0.0006332427344067915,1.2551263668844104,3.7513203194476588,2,6.02412284521386,9.385750934800384,-3.380921079776922,11.653883645034979,30,-3,30,552,120,251427.0,76,83.5,0,0,0,0,0,0
1778196381.637849,11.106219053268433,wait_slave,2,0.06087447118654539,1.3489838762324142,3.7175111086498895,0.05733898038628915,1.1722745742603715,3.802572151154048,2,0.35354908002562385,17.67093019720427,-8.506104250415847,19.614805135544817,-19,18,30,556,120,251427.0,76,83.5,0,0,0,0,0,0
1778196381.708342,11.176712036132812,wait_slave,2,0.06087447118654539,1.3489838762324142,3.7175111086498895,-0.10537141951871853,1.1243493990391114,3.758014027447911,2,16.62458907052639,22.463447719330286,-4.050291879802126,28.238064903858795,30,-17,30,560,120,251427.0,76,83.5,0,0,0,0,0,0
1778196381.778086,11.246455907821655,wait_slave,2,0.06087447118654539,1.3489838762324142,3.7175111086498895,0.07913630690722806,1.3216574019378746,3.7582274197784478,2,-1.826183572068267,2.7326474294539604,-4.0716311128558225,5.23263684310013,-30,-1,-30,563,120,251430.00000000003,76,83.5,0,0,0,0,0,0
1778196381.848099,11.316468954086304,wait_slave,2,0.06087447118654539,1.3489838762324142,3.7175111086498895,-0.012805297111814218,1.179427421178661,3.76075535242193,2,7.3679768298359605,16.955645505375315,-4.324424377204039,18.986354132984836,30,0,30,567,120,251429.0,76,83.5,-1,0,0,0,0,0
1778196381.918747,11.3871169090271,wait_slave,2,0.06087447118654539,1.3489838762324142,3.7175111086498895,-0.012805297111814218,1.179427421178661,3.76075535242193,2,7.3679768298359605,16.955645505375315,-4.324424377204039,18.986354132984836,4,-1,10,570,120,251426.00000000003,76,83.5,0,0,0,0,0,0
1778196381.990057,11.45842695236206,wait_slave,2,0.06087447118654539,1.3489838762324142,3.7175111086498895,0.056496247479504325,1.17084389901295,3.802118671588931,2,0.4378223707041065,17.81399772194643,-8.460756293904126,19.72598794308259,-23,15,13,574,120,251426.00000000003,76,83.5,0,0,0,0,0,0
1778196382.060097,11.528466939926147,wait_slave,2,0.06087447118654539,1.3489838762324142,3.7175111086498895,0.07274558837547485,1.2424016602903087,3.7747504158111247,2,-1.1871117188929456,10.658221594210548,-5.723930716123515,12.156080973217119,-5,-10,-19,577,120,251430.00000000003,76,83.5,0,0,0,0,0,0
1778196382.132007,11.600376844406128,wait_slave,2,0.06087447118654539,1.3489838762324142,3.7175111086498895,0.0034630545429067405,1.2504754697020481,3.7530131140944407,2,5.741141664363865,9.850840653036608,-3.5502005444551177,11.941678821994117,27,-9,2,581,120,251423.99999999997,76,83.5,0,0,0,0,0,0
1778196382.204715,11.67308497428894,wait_slave,2,0.06087447118654539,1.3489838762324142,3.7175111086498895,0.0790167350820361,1.320929865720403,3.7581282779227054,2,-1.8142263895490716,2.8054010512011285,-4.061716927281589,5.259204963488536,-26,0,-23,584,120,251423.99999999997,76,83.5,0,0,0,0,0,0
1778196382.2751129,11.743482828140259,wait_slave,2,0.06087447118654539,1.3489838762324142,3.7175111086498895,-0.011170750707874655,1.1749662614983392,3.7628323910647787,2,7.204522189442004,17.401761473407507,-4.53212824148892,19.371799832561596,30,0,30,588,120,251428.00000000003,76,83.5,0,0,0,0,0,0
1778196382.3463721,11.814742088317871,wait_slave,2,0.06087447118654539,1.3489838762324142,3.7175111086498895,0.07940972525362011,1.3212036763284998,3.7582266787895438,2,-1.8535254067074722,2.778019990391445,-4.071557013965421,5.2659783533827405,-30,-3,-30,591,120,251432.00000000003,76,83.5,0,0,0,0,0,0
1778196382.416884,11.88525390625,wait_slave,2,0.06087447118654539,1.3489838762324142,3.7175111086498895,0.15552394753291432,1.397976348358426,3.754836278618024,2,-9.464947634636893,-4.899247212601177,-3.7325169968134286,11.292455008017525,-30,-2,-30,595,120,251432.00000000003,76,83.5,0,0,0,0,0,0
1778196382.4887319,11.957101821899414,wait_slave,2,0.06087447118654539,1.3489838762324142,3.7175111086498895,0.06925833454532271,1.245320024521022,3.772317889359115,2,-0.8383863358777319,10.366385171139214,-5.48067807092254,11.75596296700924,30,5,30,599,120,251429.0,75,83.5,0,0,0,0,0,0
1778196382.559932,12.02830195426941,wait_slave,2,0.06087447118654539,1.3489838762324142,3.7175111086498895,0.05730063382261941,1.170953738075708,3.802340346023354,2,0.3573837363925983,17.80301381567062,-8.482923737346448,19.7239706750348,4,11,30,602,120,251433.0,75,83.5,0,0,0,0,0,0
1778196382.62972,12.098089933395386,wait_slave,2,0.06087447118654539,1.3489838762324142,3.7175111086498895,0.0862952867942337,1.3168509796203771,3.741314909866943,2,-2.5420815607688314,3.213289661203711,-2.380380121705361,4.738524942659855,-11,-24,-30,606,120,251428.00000000003,75,83.5,0,0,0,0,0,0
1778196382.7000582,12.168428182601929,wait_slave,2,0.06087447118654539,1.3489838762324142,3.7175111086498895,-0.03425882855031803,1.111212078567078,3.7823022667751207,2,9.513329973686343,23.777179766533617,-6.479115812523117,26.416598315271056,30,14,30,609,120,251428.00000000003,75,83.5,0,0,0,0,0,0
1778196382.7720141,12.240384101867676,wait_slave,2,0.06087447118654539,1.3489838762324142,3.7175111086498895,-0.011970749734121933,1.1787068659330648,3.7608736710832424,2,7.284522092066732,17.02770102993494,-4.33625624333529,19.0213033907385,-2,-8,-12,613,110,251426.00000000003,75,83.5,0,0,0,0,0,0
1778196382.842331,12.3107008934021,wait_slave,2,0.06087447118654539,1.3489838762324142,3.7175111086498895,-0.011970749734121933,1.1787068659330648,3.7608736710832424,2,7.284522092066732,17.02770102993494,-4.33625624333529,19.0213033907385,5,-1,11,616,110,251430.00000000003,75,83.5,0,0,0,0,0,0
1778196382.9128802,12.381250143051147,wait_slave,2,0.06087447118654539,1.3489838762324142,3.7175111086498895,0.006634802479412061,1.244779485712844,3.736360385899881,2,5.423966870713333,10.42043905195702,-1.8849277249991303,11.89781152895847,-2,-11,-16,620,110,251430.00000000003,75,83.5,0,0,0,0,0,0
1778196382.982667,12.451036930084229,wait_slave,2,0.06087447118654539,1.3489838762324142,3.7175111086498895,0.06221367899609542,1.1715353769165784,3.782435359013029,2,-0.13392078095500332,17.744849931583584,-6.4924250363139535,18.895745995386097,-19,16,30,623,110,251419.99999999997,75,83.5,0,0,0,0,0,0
1778196383.051819,12.520189046859741,wait_slave,2,0.06087447118654539,1.3489838762324142,3.7175111086498895,0.0020323166000116855,1.2486326236654233,3.7329711151238283,2,5.884215458653371,10.035125256699096,-1.5460006473938748,11.735324813708296,25,-20,-21,627,110,251425.0,75,83.0,0,0,0,0,0,0
1778196383.123013,12.59138298034668,wait_slave,2,0.06087447118654539,1.3489838762324142,3.7175111086498895,-0.02668369100906598,1.0980243055080834,3.7694055131484,2,8.755816219561137,25.095957072433084,-5.189440449851057,27.081389758184205,16,12,30,630,110,251425.0,75,83.0,0,0,0,0,0,0
1778196383.191103,12.659472942352295,wait_slave,2,0.06087447118654539,1.3489838762324142,3.7175111086498895,-0.02668369100906598,1.0980243055080834,3.7694055131484,2,8.755816219561137,25.095957072433084,-5.189440449851057,27.081389758184205,6,0,17,634,110,251440.0,75,83.0,0,0,0,0,0,0
1778196383.2583082,12.726678133010864,wait_slave,2,0.06087447118654539,1.3489838762324142,3.7175111086498895,0.06800493591344381,1.1631091019468154,3.7871035232352597,2,-0.713046472689842,18.587477428559886,-6.959241458537013,19.860357350955674,-30,6,-10,637,110,251419.0,75,83.0,0,0,0,0,0,0
1778196383.327921,12.796290874481201,wait_slave,2,0.06087447118654539,1.3489838762324142,3.7175111086498895,0.07920672066388601,1.2410031083101005,3.7559479177262585,2,-1.833224947734062,10.79807679223137,-3.8436809076368927,11.607457044488799,-4,-12,-19,641,110,251419.0,75,83.0,0,0,0,0,0,0
1778196383.3989902,12.86736011505127,wait_slave,2,0.06087447118654539,1.3489838762324142,3.7175111086498895,0.07920672066388601,1.2410031083101005,3.7559479177262585,2,-1.833224947734062,10.79807679223137,-3.8436809076368927,11.607457044488799,0,-1,7,644,110,251427.0,75,83.0,0,0,0,0,0,0
1778196383.471058,12.939427852630615,wait_slave,2,0.06087447118654539,1.3489838762324142,3.7175111086498895,-0.00813816132298717,1.1699705349951706,3.745366281570632,2,6.901263250953256,17.901334123724368,-2.7855172920742355,19.386704321586507,30,-5,30,648,110,251427.0,75,83.0,0,0,0,0,0,0
1778196383.542846,13.011215925216675,wait_slave,2,0.06087447118654539,1.3489838762324142,3.7175111086498895,-0.026284770559950266,1.0981590056443977,3.769605121984868,2,8.715924174649565,25.08248705880165,-5.209401333497832,27.059866103265218,12,8,30,651,110,251427.0,75,83.0,0,0,0,0,0,0
1778196383.60994,13.078310012817383,wait_slave,2,0.06087447118654539,1.3489838762324142,3.7175111086498895,-0.0044258853472392,1.1672685326147128,3.748011949450768,2,6.530035653378459,18.17153436177015,-3.050084080087867,19.548632678297285,-3,-9,-11,655,110,251427.0,75,83.0,0,0,0,0,0,0
1778196383.6813061,13.149676084518433,wait_slave,2,0.06087447118654539,1.3489838762324142,3.7175111086498895,0.007479280201240668,1.2418423453919738,3.737651633140581,2,5.339519098530472,10.714153084044042,-2.014052449069137,12.139190573489795,0,-5,-17,658,110,251431.0,75,83.0,0,0,0,0,0,0
1778196383.754053,13.222423076629639,wait_slave,2,0.06087447118654539,1.3489838762324142,3.7175111086498895,0.0823802491836596,1.3121657820129262,3.7426517786319775,2,-2.1505777997114213,3.6818094219488007,-2.514066998208797,4.949872560343869,-26,0,-21,662,110,251431.0,75,83.0,0,0,0,0,0,0
1778196383.825803,13.294173002243042,wait_slave,2,0.06087447118654539,1.3489838762324142,3.7175111086498895,-0.0261393139970294,1.0984584096043517,3.7697380308149615,2,8.70137851835748,25.05254666280625,-5.2226922165071965,27.02999438402055,30,9,30,665,110,251426.00000000003,75,83.0,0,1,0,0,0,0
1778196383.897414,13.365783929824829,wait_slave,2,0.06087447118654539,1.3489838762324142,3.7175111086498895,-0.0261393139970294,1.0984584096043517,3.7697380308149615,2,8.70137851835748,25.05254666280625,-5.2226922165071965,27.02999438402055,6,0,18,669,120,251429.0,75,83.0,0,0,0,0,0,0
1778196383.970318,13.438688039779663,wait_slave,2,0.06087447118654539,1.3489838762324142,3.7175111086498895,-0.011160462164390816,1.1790402316702226,3.7612605616316297,2,7.20349333509362,16.99436445621916,-4.374945298174016,18.96941975553175,0,-3,-14,673,120,251432.00000000003,75,83.0,0,0,0,0,0,0
1778196384.0421278,13.510497808456421,wait_slave,2,0.06087447118654539,1.3489838762324142,3.7175111086498895,0.007396584405391482,1.2451425326927867,3.7367099057858075,2,5.347788678115391,10.384134353962748,-1.9198797135917989,11.837019394323464,-2,-10,-14,676,120,251432.00000000003,75,83.0,0,0,0,0,0,0
1778196384.114371,13.582741022109985,wait_slave,2,0.06087447118654539,1.3489838762324142,3.7175111086498895,-0.01490656560859982,1.1746809767468178,3.7625579855718576,2,7.578103679514521,17.43028994855964,-4.504687692196807,19.532917710177355,13,8,30,680,120,251428.00000000003,75,83.0,0,0,0,0,0,0
1778196384.185523,13.653892993927002,wait_slave,2,0.06087447118654539,1.3489838762324142,3.7175111086498895,-0.004151497264380133,1.2528529045362338,3.7503325596187973,2,6.502596845092552,9.613097169618046,-3.282145096890776,12.061006564933551,1,-5,-19,683,120,251433.0,75,83.0,0,0,0,0,0,0
1778196384.257364,13.725733995437622,wait_slave,2,0.06087447118654539,1.3489838762324142,3.7175111086498895,0.024416752471316694,1.3806583811562758,3.6915326810864695,2,3.6457718715228697,-3.167450492386159,2.597842756342006,5.48390209135642,-6,-25,-30,687,120,251433.0,75,83.0,0,0,0,0,0,0
1778196384.328901,13.797271013259888,wait_slave,2,0.06087447118654539,1.3489838762324142,3.7175111086498895,-0.07720011701883811,1.179438223835461,3.7229818775912853,2,13.807458820538349,16.95456523969532,-0.5470768941395754,21.87241401117052,30,7,30,691,120,251435.0,75,83.0,0,0,0,0,0,0
1778196384.400032,13.868402004241943,wait_slave,2,0.06087447118654539,1.3489838762324142,3.7175111086498895,0.09044080275131683,1.3913136686601226,3.7223710113337023,2,-2.9566331564771438,-4.23297924277084,-0.48599026838127557,5.186133379760888,-30,-3,-30,694,120,251434.0,75,83.0,0,0,0,0,0,0
1778196384.471806,13.940176010131836,wait_slave,2,0.06087447118654539,1.3489838762324142,3.7175111086498895,0.012762411486198721,1.3194117521966242,3.721142367081431,2,4.811205970034667,2.9572124035790015,-0.363125843154144,5.659034234208618,30,-3,28,698,120,251423.0,74,83.0,0,0,0,0,0,0
1778196384.544389,14.01275897026062,wait_slave,2,0.06087447118654539,1.3489838762324142,3.7175111086498895,-0.007367940652259097,1.1702398573686614,3.7457671596032314,2,6.824241183880448,17.87440188637528,-2.8256050953341827,19.340334916598646,12,6,30,701,120,251423.0,74,83.0,0,0,0,0,0,0
1778196384.61487,14.083240032196045,wait_slave,2,0.06087447118654539,1.3489838762324142,3.7175111086498895,0.0925573591654486,1.3814116472456808,3.70730742731414,2,-3.1682887978903214,-3.242777101326655,1.0203681335749337,4.647021450751115,-30,-17,-30,705,120,251426.00000000003,74,83.0,0,0,0,0,0,0
1778196384.6879308,14.156300783157349,wait_slave,2,0.06087447118654539,1.3489838762324142,3.7175111086498895,0.016612849083156966,1.30822789186474,3.7065410998322057,2,4.426162210338842,4.075598436767414,1.097000881768384,6.1159484517622635,30,-4,29,708,110,251419.0,74,83.0,0,0,0,0,0,0
1778196384.7594938,14.227863788604736,wait_slave,2,0.06087447118654539,1.3489838762324142,3.7175111086498895,-0.010820184311815195,1.1777067914005892,3.7611711124625846,2,7.169465549836058,17.127708483182502,-4.366000381269508,19.074107934171217,15,18,30,712,110,251419.0,74,83.0,0,0,0,0,0,0
1778196384.830986,14.29935598373413,wait_slave,2,0.06087447118654539,1.3489838762324142,3.7175111086498895,-0.010944811140842559,1.1774567315219933,3.761058188576953,2,7.1819282327387945,17.152714471042096,-4.3547079927063415,19.098669811456716,5,0,14,716,110,251436.0,74,83.0,-1,0,0,0,0,0
1778196384.902488,14.370857954025269,wait_slave,2,0.06087447118654539,1.3489838762324142,3.7175111086498895,0.06264093644519153,1.1729703743277633,3.8010452088979423,2,-0.1766465258646141,17.60135019046509,-8.353410024805275,19.483793048711096,-24,15,16,719,110,251432.00000000003,74,83.0,0,0,0,0,0,0
