timestamp,phase,command,axis,repeat,t_send,t_since_cmd,marker_id,pos_x,pos_y,pos_z,marker_dist,tello_height_cm,tello_baro_cm,tello_battery,tello_temp_c,tello_pitch,tello_roll,tello_yaw,tello_vgx,tello_vgy,tello_vgz,tello_agx,tello_agy,tello_agz
1776458937.245853,init_hover,none,-,0,,,,,,,,0,252900.0,92,78.0,0,0,-71,0,0,0,3.0,-7.0,-1000.0
1776458937.424504,init_hover,none,-,0,,,,,,,,0,252898.99999999997,92,78.0,0,0,-71,0,0,0,2.0,-8.0,-1000.0
1776458937.475771,init_hover,none,-,0,,,,,,,,0,252898.0,92,78.0,0,0,-71,0,0,0,0.0,-2.0,-1003.0
1776458937.525662,init_hover,none,-,0,,,,,,,,0,252898.0,92,78.0,0,0,-71,0,0,0,0.0,-2.0,-1003.0
1776458937.573072,init_hover,none,-,0,,,,,,,,0,252898.0,92,78.0,0,0,-71,0,0,0,10.0,-7.0,-1001.0
1776458937.620717,init_hover,none,-,0,,,,,,,,0,252898.0,92,78.0,0,0,-71,0,0,0,10.0,-7.0,-1001.0
1776458937.67012,init_hover,none,-,0,,,,,,,,0,252898.0,92,78.0,0,0,-71,0,0,0,4.0,-9.0,-1003.0
1776458937.719877,init_hover,none,-,0,,,,,,,,0,252898.0,92,78.0,0,0,-71,0,0,0,4.0,-9.0,-1003.0
1776458937.777363,init_hover,none,-,0,,,,,,,,0,252898.0,92,78.0,0,0,-71,0,0,0,22.0,-41.0,-1002.0
1776458937.827472,init_hover,none,-,0,,,,,,,,0,252898.0,92,78.0,0,0,-71,0,0,0,22.0,-41.0,-1002.0
1776458937.8778691,init_hover,none,-,0,,,,,,,,0,252898.0,92,78.0,0,0,-71,0,0,0,11.0,-8.0,-988.0
1776458937.928472,init_hover,none,-,0,,,,,,,,0,252898.0,92,78.0,0,0,-71,0,0,0,11.0,-8.0,-988.0
1776458937.9790232,init_hover,none,-,0,,,,,,,,0,252898.0,92,78.0,0,0,-71,0,0,0,0.0,13.0,-1094.0
1776458938.029268,init_hover,none,-,0,,,,,,,,0,252898.0,92,78.0,0,0,-71,0,0,0,0.0,13.0,-1094.0
1776458938.079633,init_hover,none,-,0,,,,,,,,0,252898.0,92,78.5,0,0,-70,0,0,-1,5.0,30.0,-1141.0
1776458938.129824,init_hover,none,-,0,,,,,,,,0,252898.0,92,78.5,0,0,-70,0,0,-1,5.0,30.0,-1141.0
1776458938.179905,init_hover,none,-,0,,,,,,,,0,252898.0,92,78.5,0,0,-70,0,0,-4,7.0,21.0,-1288.0
1776458938.230017,init_hover,none,-,0,,,,,,,,0,252898.0,92,78.5,0,0,-70,0,0,-4,7.0,21.0,-1288.0
1776458938.2798238,init_hover,none,-,0,,,,,,,,0,252898.0,92,78.5,0,0,-70,0,0,-6,-19.0,20.0,-1157.0
1776458938.329225,init_hover,none,-,0,,,,,,,,0,252898.0,92,78.5,0,0,-70,0,0,-6,-19.0,20.0,-1157.0
1776458938.379762,init_hover,none,-,0,,,,,,,,10,252936.0,92,78.5,0,0,-70,0,0,-7,7.0,14.0,-1087.0
1776458938.4292312,init_hover,none,-,0,,,,,,,,10,252936.0,92,78.5,0,0,-70,0,0,-7,7.0,14.0,-1087.0
1776458938.477612,init_hover,none,-,0,,,,,,,,20,252961.0,92,78.5,0,0,-70,0,0,-7,-7.0,18.0,-1034.0
1776458938.526586,init_hover,none,-,0,,,2,-1.045622984522073,0.8822976987260018,3.3120373586317635,3.475165135998362,20,252961.0,92,78.5,0,0,-70,0,0,-7,-7.0,18.0,-1034.0
1776458938.576285,init_hover,none,-,0,,,2,0.9756635826695504,1.1880739425593578,3.296193931972577,3.4427003458898717,20,252957.00000000003,92,78.5,0,0,-70,0,0,-8,-9.0,7.0,-983.0
1776458938.628046,init_hover,none,-,0,,,2,1.137113582080306,0.9917212466658967,3.2494714833903386,3.4426967275197624,20,252957.00000000003,92,78.5,0,0,-70,0,0,-8,-9.0,7.0,-983.0
1776458938.68049,init_hover,none,-,0,,,2,1.0848476117702488,1.0530490372376091,3.258255885039082,3.4345217940067383,30,252966.0,92,78.5,0,0,-70,0,0,-7,-29.0,8.0,-970.0
1776458938.730635,init_hover,none,-,0,,,2,-1.0840169074579113,0.9572778964730666,3.240508645314331,3.417281684927554,30,252966.0,92,78.5,0,0,-70,0,0,-7,-29.0,8.0,-970.0
1776458938.78083,init_hover,none,-,0,,,2,0.9202828281110854,0.9566832504837257,3.3299558383623227,3.4550546609204487,40,252971.0,92,78.5,0,0,-70,0,0,-6,-10.0,8.0,-904.0
1776458938.830765,init_hover,none,-,0,,,2,1.2617686165037603,0.8654396796632406,3.154404660447686,3.4000640116411085,40,252971.0,92,78.5,0,0,-70,0,0,-6,-10.0,8.0,-904.0
1776458938.880877,init_hover,none,-,0,,,2,0.9756936098134337,0.9020763178793212,3.3079790696340994,3.4502597862897404,40,252984.0,92,78.5,0,0,-70,1,0,-5,0.0,15.0,-898.0
1776458938.931448,init_hover,none,-,0,,,2,-0.6780486381868431,1.1843950316884166,3.402500825497317,3.474300411733034,40,252984.0,92,78.5,0,0,-70,1,0,-5,0.0,15.0,-898.0
1776458938.982107,init_hover,none,-,0,,,2,0.4946146361058426,0.8676074548845936,3.4563719022496655,3.4940918921678668,50,252983.0,92,78.5,0,-1,-70,1,0,-4,0.0,0.0,-900.0
1776458939.03411,init_hover,none,-,0,,,2,-0.9370412433606078,1.3558748207226694,3.2787979663841247,3.428587068188273,50,252983.0,92,78.5,0,-1,-70,1,0,-4,0.0,0.0,-900.0
1776458939.085234,init_hover,none,-,0,,,2,-1.0433767394657667,1.1919364868911448,3.2529748731802366,3.421596142299717,50,252996.0,92,78.5,0,-2,-70,0,0,-3,6.0,7.0,-891.0
1776458939.135759,init_hover,none,-,0,,,2,-0.5590274147046017,1.2416617499702018,3.4422768940061075,3.495737728548626,50,252996.0,92,78.5,0,-2,-70,0,0,-3,6.0,7.0,-891.0
1776458939.186518,init_hover,none,-,0,,,2,0.9389590191194654,0.8999614386443948,3.3135549600179175,3.445475036392403,50,252989.0,92,78.5,0,-2,-70,0,0,-2,-9.0,24.0,-907.0
1776458939.239112,init_hover,none,-,0,,,2,-0.850898847218934,1.337655157665382,3.341866801010052,3.4649839205095456,50,252989.0,92,78.5,0,-2,-70,0,0,-2,-9.0,24.0,-907.0
1776458939.289719,init_hover,none,-,0,,,2,-0.6813252472686809,1.2512623889002077,3.430594068736827,3.5066098364508513,60,253000.0,92,78.5,0,-2,-70,0,0,-1,2.0,17.0,-915.0
1776458939.34017,init_hover,none,-,0,,,2,-0.7831804084829133,1.0262646942275402,3.3811472719156823,3.4707662353977677,60,253000.0,92,78.5,0,-2,-70,0,0,-1,2.0,17.0,-915.0
1776458939.390502,init_hover,none,-,0,,,2,0.6789030459359008,0.7066063015226536,3.4171326465382217,3.496252955969372,60,253001.00000000003,92,78.5,0,-1,-70,0,0,-1,-1.0,24.0,-932.0
1776458939.442456,init_hover,none,-,0,,,2,0.6878724809340937,0.6969582345409063,3.408136879153159,3.490042957999632,60,253001.00000000003,92,78.5,0,-1,-70,0,0,-1,-1.0,24.0,-932.0
1776458939.4925818,init_hover,none,-,0,,,2,-0.7943971110084914,1.0494333168080312,3.3676537876259762,3.4604338537387,60,252991.0,92,78.5,0,-1,-70,0,0,0,13.0,-1.0,-958.0
1776458939.5444028,init_hover,none,-,0,,,2,-0.34777615720941757,1.1573603097136902,3.517509981371626,3.5381615270710243,60,252991.0,92,78.5,0,-1,-70,0,0,0,13.0,-1.0,-958.0
1776458939.5961978,init_hover,none,-,0,,,2,-0.8394742904504098,1.090096725544897,3.3887957555030166,3.4923876040320025,60,253000.0,92,78.5,0,-1,-70,0,0,0,-3.0,10.0,-979.0
1776458939.649293,init_hover,none,-,0,,,2,-0.36838651472633843,1.1741635057026336,3.5093389880753834,3.5329168804511673,60,252998.99999999997,92,78.5,0,-1,-70,0,0,0,0.0,15.0,-1016.0
1776458939.7013938,init_hover,none,-,0,,,2,0.49751646440694797,0.7660929231337461,3.477710986290603,3.5208960304346477,60,252998.99999999997,92,78.5,0,-1,-70,0,0,0,0.0,15.0,-1016.0
1776458939.7522151,init_hover,none,-,0,,,2,0.7133618303599346,0.6793185016629355,3.3865816485912497,3.475723951490568,60,253004.0,92,78.5,0,-1,-70,0,0,0,1.0,9.0,-982.0
1776458939.8025222,init_hover,none,-,0,,,2,0.76248595834073,0.7045197662192961,3.4168943527907634,3.5133830453503485,60,253004.0,92,78.5,0,-1,-70,0,0,0,1.0,9.0,-982.0
1776458939.854835,init_hover,none,-,0,,,2,-0.7114649163378658,1.3475622927170048,3.4255368751368285,3.5158618797416565,60,252998.0,92,78.5,0,-1,-70,0,0,0,-15.0,19.0,-1012.0
1776458939.906389,init_hover,none,-,0,,,2,-0.7166597203290264,1.3490127801242466,3.42218182285351,3.5137927520132863,60,252998.0,92,78.5,0,-1,-70,0,0,0,-15.0,19.0,-1012.0
1776458939.958455,init_hover,none,-,0,,,2,-0.2124223308442896,0.5311664163114428,3.5034028836949926,3.5410111467373224,60,253005.00000000003,92,78.5,0,-1,-70,0,0,0,6.0,15.0,-971.0
1776458940.0106208,init_hover,none,-,0,,,2,-0.6395361124071289,0.8437579680142853,3.4676708650156804,3.529611768978346,60,253005.00000000003,92,78.5,0,-1,-70,0,0,0,6.0,15.0,-971.0
1776458940.0616581,init_hover,none,-,0,,,2,0.8524179154494231,0.917747550592934,3.376436132633035,3.483346483736944,60,253007.00000000003,92,78.5,0,-1,-70,0,0,0,-15.0,30.0,-995.0
1776458940.111678,init_hover,none,-,0,,,2,-0.4203848875616948,1.2041091942752702,3.4894578361492514,3.5206107434849105,60,253007.00000000003,92,78.5,0,-1,-70,0,0,0,-15.0,30.0,-995.0
1776458940.162084,init_hover,none,-,0,,,2,0.4768674702730993,0.8328657226353725,3.5238134016921694,3.559859174296113,70,252998.0,92,78.5,0,-1,-70,0,0,0,11.0,25.0,-991.0
1776458940.214134,init_hover,none,-,0,,,2,-0.7371372946596197,1.3611512882947494,3.41229219887951,3.50963526520193,70,252998.0,92,78.5,0,-1,-70,0,0,0,11.0,25.0,-991.0
1776458940.265366,init_hover,none,-,0,,,2,0.4908639950478912,0.8264722187641304,3.522645447136781,3.560911442135077,70,252994.99999999997,92,78.5,0,-1,-70,0,0,0,-6.0,24.0,-993.0
1776458940.317464,init_hover,none,-,0,,,2,0.1563469229817242,0.2899648733877488,3.4653653588872935,3.540812239010308,70,252994.99999999997,92,78.5,0,-1,-70,0,0,0,-6.0,24.0,-993.0
1776458940.3684218,init_hover,none,-,0,,,2,0.47523363390529166,0.6737086347164131,3.506120791879834,3.553195191529102,70,253004.0,92,78.5,0,-1,-70,0,0,0,7.0,16.0,-991.0
1776458940.419968,init_hover,none,-,0,,,2,0.5029352719985775,0.822851623668816,3.5186365838309146,3.558810032037443,70,253004.0,92,78.5,0,-1,-70,0,0,0,7.0,16.0,-991.0
1776458940.472,init_hover,none,-,0,,,2,0.16286710404725854,0.2977119482929047,3.466181331458178,3.540359759078232,70,253002.0,92,78.5,0,-1,-70,0,0,0,-10.0,23.0,-993.0
1776458940.523764,init_hover,none,-,0,,,2,0.5079522610173738,0.8242939297982113,3.517829855732102,3.5586535398179127,70,253002.0,92,78.5,0,-1,-70,0,0,0,-10.0,23.0,-993.0
1776458940.574829,init_hover,none,-,0,,,2,-0.7513590982813718,1.3609930933239252,3.4058479666632997,3.5063737507605066,70,252998.0,92,78.5,0,-1,-70,0,0,0,-12.0,42.0,-971.0
1776458940.6271849,init_hover,none,-,0,,,2,0.2446435932293745,0.30312172534066795,3.4607838114451104,3.5387164914642275,70,252998.0,92,78.5,0,-1,-70,0,0,0,-12.0,42.0,-971.0
1776458940.679559,init_hover,none,-,0,,,2,-0.8758159546679954,1.1059320462717475,3.4084904317879863,3.520807039368756,70,253002.0,92,78.5,0,-1,-70,0,0,0,-14.0,30.0,-995.0
1776458940.7310138,init_hover,none,-,0,,,2,0.47751385459465007,0.4184109686660724,3.4339749400934765,3.5154586005082997,70,253002.0,92,78.5,0,-1,-70,0,0,0,-14.0,30.0,-995.0
1776458940.7828531,init_hover,none,-,0,,,2,0.5180233433675062,0.8268520751364199,3.516185158503399,3.558354459161957,70,252992.0,92,78.5,0,0,-70,0,0,0,-15.0,31.0,-977.0
1776458940.833996,init_hover,none,-,0,,,2,0.7416168033730002,0.6321390295558775,3.4092154947561184,3.508285545149722,70,252992.0,92,78.5,0,0,-70,0,0,0,-15.0,31.0,-977.0
1776458940.885247,init_hover,none,-,0,,,2,0.16372355273134592,0.30888938672991206,3.470807372196555,3.5427310223029194,70,252998.99999999997,92,78.5,0,0,-70,0,0,0,-35.0,45.0,-993.0
1776458940.9382982,init_hover,none,-,0,,,2,-0.7601778861874289,1.3559504758904593,3.4049057132880143,3.5068438910673505,70,252998.99999999997,92,78.5,0,0,-70,0,0,0,-35.0,45.0,-993.0
1776458940.9902048,init_hover,none,-,0,,,2,-0.49756150630645357,1.556359430264468,3.4376524503755412,3.5177489446768533,70,253006.0,92,78.5,0,0,-70,0,0,0,-15.0,21.0,-985.0
1776458941.040541,init_hover,none,-,0,,,2,0.16215596836893909,0.3115619960235473,3.4725892640330764,3.543884541019153,70,253006.0,92,78.5,0,0,-70,0,0,0,-15.0,21.0,-985.0
1776458941.0909271,init_hover,none,-,0,,,2,0.5215286392239833,0.8344742795450623,3.517640469697661,3.5599417635289665,70,253000.0,92,78.0,0,0,-70,0,0,0,-21.0,16.0,-1001.0
1776458941.14316,init_hover,none,-,0,,,2,-0.47978537331879983,1.2040095381045954,3.479252732407932,3.518097990684223,70,253000.0,92,78.0,0,0,-70,0,0,0,-21.0,16.0,-1001.0
1776458941.194936,init_hover,none,-,0,,,2,0.7444424240329649,0.6368484222141925,3.4107787636465354,3.509912444163043,70,253007.00000000003,92,78.0,0,0,-70,0,0,0,12.0,30.0,-952.0
1776458941.2468219,init_hover,none,-,0,,,2,0.5101118912847439,0.6933546548538861,3.5065647259281536,3.5567178249691755,70,253007.00000000003,92,78.0,0,0,-70,0,0,0,12.0,30.0,-952.0
1776458941.300079,init_hover,none,-,0,,,2,0.47798127123057804,0.42711017706341214,3.43868348430991,3.51869477933754,70,253002.0,92,78.0,0,-1,-70,0,0,0,10.0,-2.0,-980.0
1776458941.3528209,init_hover,none,-,0,,,2,0.5160389108698693,0.8426156766783853,3.5166763339989573,3.5578193350516707,70,253002.0,92,78.0,0,-1,-70,0,0,0,10.0,-2.0,-980.0
1776458941.404458,init_hover,none,-,0,,,2,0.4750339597850068,0.4267739240238261,3.43986405908154,3.5195042466360222,70,253001.00000000003,92,78.0,0,-1,-70,0,0,0,-1.0,13.0,-1003.0
1776458941.455051,init_hover,none,-,0,,,2,0.20009885638452793,1.3408393935774376,3.5248081736214782,3.5468977579526326,70,253001.00000000003,92,78.0,0,-1,-70,0,0,0,-1.0,13.0,-1003.0
1776458941.504928,init_hover,none,-,0,,,2,0.512575855473696,0.8453014985047796,3.5182580455993118,3.558764576282582,70,253002.0,92,78.0,0,-1,-70,0,0,0,-16.0,11.0,-1020.0
1776458941.5553532,init_hover,none,-,0,,,2,0.15477639526651785,0.3108520279458029,3.4750338823004356,3.546088146543194,70,253001.00000000003,92,78.0,0,-1,-70,0,0,0,-4.0,19.0,-971.0
1776458941.605246,init_hover,none,-,0,,,2,-0.9610483241352564,1.3849845965141476,3.3437869947109,3.5003911905491507,70,253001.00000000003,92,78.0,0,-1,-70,0,0,0,-4.0,19.0,-971.0
1776458941.655746,init_hover,none,-,0,,,2,-0.7529655088500026,1.3404180732184712,3.4098093226743047,3.5085098174421745,70,253001.00000000003,92,78.0,0,-1,-70,0,0,0,-4.0,19.0,-971.0
1776458941.7075891,init_hover,none,-,0,,,2,0.4690826650153697,0.4260154643496793,3.442221110909932,3.521133762039954,70,253011.0,92,78.0,0,-1,-70,0,0,0,-5.0,9.0,-1004.0
1776458941.757806,init_hover,none,-,0,,,2,-0.9593838782417886,1.3841427911567608,3.3453735850958353,3.5013579556630487,70,253011.0,92,78.0,0,-1,-70,0,0,0,-5.0,9.0,-1004.0
1776458941.8080692,init_hover,none,-,0,,,2,0.46607886200506,0.4255924595643209,3.4433971790325013,3.521953671002259,70,253002.0,92,78.0,0,-1,-70,0,0,0,-7.0,22.0,-1005.0
1776458941.858439,init_hover,none,-,0,,,2,-0.7542722971994995,1.3469085616332062,3.412724205256946,3.5122583546208106,70,252996.99999999997,92,78.0,0,-1,-70,0,0,0,-15.0,14.0,-1003.0
1776458941.909792,init_hover,none,-,0,,,2,-0.8766721013953983,1.091197713133224,3.414953383344163,3.5268651245347473,70,252996.99999999997,92,78.0,0,-1,-70,0,0,0,-15.0,14.0,-1003.0
1776458941.9615202,init_hover,none,-,0,,,2,0.46305642484018716,0.42513973673397176,3.4445713302456236,3.5227769194228253,70,253008.0,92,78.0,0,-1,-70,0,0,0,-2.0,17.0,-1006.0
1776458942.013281,init_hover,none,-,0,,,2,1.03993958532182,0.784102636730003,3.311674467703795,3.477826015289935,70,253008.0,92,78.0,0,-1,-70,0,0,0,-2.0,17.0,-1006.0
1776458942.063796,init_hover,none,-,0,,,2,-0.4587608240910441,1.1849975884133588,3.4898150289146357,3.524697793780044,70,252992.99999999997,92,78.5,0,-1,-70,0,0,0,-29.0,29.0,-1019.0
1776458942.114856,init_hover,none,-,0,,,2,-0.7449158906906214,1.3339808071602177,3.4170611927726364,3.5132250225266732,70,252992.99999999997,92,78.5,0,-1,-70,0,0,0,-29.0,29.0,-1019.0
1776458942.164619,init_hover,none,-,0,,,2,0.45697798368523723,0.427218495815169,3.448559767031089,3.525545630947752,70,253008.0,92,78.5,0,-1,-70,0,0,0,-9.0,18.0,-995.0
1776458942.215806,init_hover,none,-,0,,,2,0.8736410108760024,0.9295072442447387,3.3739937224950647,3.4859792718739047,70,253008.0,92,78.5,0,-1,-70,0,0,0,-9.0,18.0,-995.0
1776458942.2662451,pre_hover,right,x,1,,,2,-0.4529200159126456,1.1754570197160672,3.4938827655817346,3.5274833077154346,70,252998.99999999997,91,78.5,0,-1,-70,0,0,0,-1.0,26.0,-1034.0
1776458942.3182778,pre_hover,right,x,1,,,2,-0.7414848180664455,1.3294127367831325,3.4211453892055705,3.5160415612817375,70,252998.99999999997,91,78.5,0,-1,-70,0,0,0,-1.0,26.0,-1034.0
1776458942.3689952,pre_hover,right,x,1,,,2,-0.7414848180664455,1.3294127367831325,3.4211453892055705,3.5160415612817375,70,253004.0,91,78.5,0,0,-70,0,0,0,-9.0,4.0,-1001.0
1776458942.420238,pre_hover,right,x,1,,,2,0.4954193159643791,0.8740742644705668,3.5342910890457424,3.5710658201169267,70,253004.0,91,78.5,0,0,-70,0,0,0,-9.0,4.0,-1001.0
1776458942.4698958,pre_hover,right,x,1,,,2,-0.740486045885904,1.3257737309573079,3.4235947287725077,3.5178756337898704,70,253004.0,91,78.5,0,0,-70,0,0,0,-9.0,4.0,-1001.0
1776458942.519944,pre_hover,right,x,1,,,2,-0.740486045885904,1.3257737309573079,3.4235947287725077,3.5178756337898704,70,252994.99999999997,91,78.5,0,0,-70,0,0,0,21.0,-6.0,-982.0
1776458942.569933,pre_hover,right,x,1,,,2,0.057698308047461254,1.8824575090781273,3.3977593693147057,3.510958427815086,70,253003.00000000003,91,78.5,0,0,-70,0,0,0,-1.0,18.0,-1015.0
1776458942.619424,pre_hover,right,x,1,,,2,0.44755453450247634,0.43509830633304114,3.457139799038311,3.5314635174324227,70,253003.00000000003,91,78.5,0,0,-70,0,0,0,-1.0,18.0,-1015.0
1776458942.671086,pre_hover,right,x,1,,,2,0.8743364632784827,0.9408287962647057,3.378810649294786,3.490605518553717,70,252998.0,91,78.5,0,0,-70,0,0,0,-6.0,12.0,-1011.0
1776458942.721301,pre_hover,right,x,1,,,2,-0.4670116495674813,1.5386080331698393,3.4611290483669865,3.5337816547823926,70,252998.0,91,78.5,0,0,-70,0,0,0,-6.0,12.0,-1011.0
1776458942.7703931,pre_hover,right,x,1,,,2,0.44430625782200306,0.4377911289210791,3.4600431201170525,3.533466464893784,70,252998.99999999997,91,78.5,0,0,-70,0,0,0,0.0,9.0,-1008.0
1776458942.8216388,pre_hover,right,x,1,,,2,-0.27224183735152063,0.5712619518838076,3.5144690237077403,3.5509751407899564,70,252998.99999999997,91,78.5,0,0,-70,0,0,0,0.0,9.0,-1008.0
1776458942.8727198,pre_hover,right,x,1,,,2,0.14422211500768917,0.2839756839397871,3.434929809926365,3.511728013210528,70,253003.00000000003,91,78.5,0,0,-70,0,0,0,17.0,14.0,-992.0
1776458942.9244301,pre_hover,right,x,1,,,2,-0.44901208207049353,1.1421297071538394,3.5039654582269057,3.5354754469446124,70,253003.00000000003,91,78.5,0,0,-70,0,0,0,17.0,14.0,-992.0
1776458942.975426,pre_hover,right,x,1,,,2,-0.6799797418575421,1.5247310481377956,3.3899559741278624,3.4970725798504128,70,253004.0,91,78.5,0,0,-70,0,0,0,26.0,-16.0,-988.0
1776458943.025378,pre_hover,right,x,1,,,2,0.1426026729875872,0.2864418908797973,3.436720047423034,3.5129112402384703,70,253004.0,91,78.5,0,0,-70,0,0,0,26.0,-16.0,-988.0
1776458943.076432,pre_hover,right,x,1,,,2,-0.7649072249822237,1.2688810930728827,3.385210328923317,3.480952323156866,70,253005.00000000003,91,78.0,0,0,-70,0,0,0,7.0,19.0,-1007.0
1776458943.125996,pre_hover,right,x,1,,,2,-0.4398091126715547,1.126654190929885,3.5060493943038225,3.535796331092508,70,253005.00000000003,91,78.0,0,0,-70,0,0,0,7.0,19.0,-1007.0
1776458943.178586,pre_hover,right,x,1,,,2,-0.4398091126715547,1.126654190929885,3.5060493943038225,3.535796331092508,70,253000.0,91,78.0,0,0,-70,0,0,0,-5.0,21.0,-1014.0
1776458943.230519,pre_hover,right,x,1,,,2,0.7460093059206816,0.7152394657945403,3.3899732683699813,3.4827485132613707,70,253000.0,91,78.0,0,0,-70,0,0,0,-5.0,21.0,-1014.0
1776458943.2827141,pre_hover,right,x,1,,,2,0.5456571786001785,0.8306053414274532,3.4807651980240584,3.527344988895512,70,253000.0,91,78.0,0,0,-70,0,0,0,-5.0,21.0,-1014.0
1776458943.3345122,pre_hover,right,x,1,,,2,0.8788471512358221,0.9523226018851376,3.3823471135478735,3.4949846131352214,70,252996.0,91,78.0,0,0,-70,0,0,0,-2.0,10.0,-1006.0
1776458943.386858,pre_hover,right,x,1,,,2,0.5456571786001785,0.8306053414274532,3.4807651980240584,3.527344988895512,70,252996.0,91,78.0,0,0,-70,0,0,0,-2.0,10.0,-1006.0
1776458943.437124,pre_hover,right,x,1,,,2,0.13777993717042697,0.28696970776109765,3.4388042120238733,3.5146507532570164,70,253004.0,91,78.0,0,0,-71,0,0,0,26.0,-2.0,-1029.0
1776458943.488343,pre_hover,right,x,1,,,2,0.09165015844683405,0.34096676727063846,3.411524359737705,3.4758053758041174,70,253004.0,91,78.0,0,0,-71,0,0,0,26.0,-2.0,-1029.0
1776458943.540575,pre_hover,right,x,1,,,2,0.8771583849673968,0.9543489226688145,3.383793255594601,3.4959330156322532,70,253004.0,91,78.0,0,0,-71,0,0,0,26.0,-2.0,-1029.0
1776458943.591876,pre_hover,right,x,1,,,2,0.7435957126613927,0.7164687881844375,3.3916628145273804,3.48377685557066,70,253004.0,91,78.0,0,0,-71,0,0,0,4.0,11.0,-1008.0
1776458943.643295,pre_hover,right,x,1,,,2,0.45750641886855353,0.7544438188707645,3.451123666366881,3.4899662637272426,70,253004.0,91,78.0,0,0,-71,0,0,0,4.0,11.0,-1008.0
1776458943.695522,pre_hover,right,x,1,,,2,-0.9194933011747914,1.352172085535223,3.2916876813469815,3.4357969818176115,70,253006.0,91,78.0,0,0,-71,0,0,0,9.0,2.0,-1008.0
1776458943.7475,pre_hover,right,x,1,,,2,0.7435957126613927,0.7164687881844375,3.3916628145273804,3.48377685557066,70,253006.0,91,78.0,0,0,-71,0,0,0,9.0,2.0,-1008.0
1776458943.799354,pre_hover,right,x,1,,,2,-0.7166188400130181,1.2986849778335108,3.354218244113105,3.442896354377548,70,252992.0,91,78.0,0,-1,-71,0,0,0,-8.0,13.0,-1004.0
1776458943.850718,pre_hover,right,x,1,,,2,-0.7166188400130181,1.2986849778335108,3.354218244113105,3.442896354377548,70,253006.0,91,78.0,0,-1,-71,0,0,0,-7.0,14.0,-999.0
1776458943.9010198,pre_hover,right,x,1,,,2,-0.7626336601277668,1.2674081575580671,3.386893615236443,3.481977251967316,70,253006.0,91,78.0,0,-1,-71,0,0,0,-7.0,14.0,-999.0
1776458943.952967,pre_hover,right,x,1,,,2,-0.7626336601277668,1.2674081575580671,3.386893615236443,3.481977251967316,70,253012.0,91,78.0,0,-1,-71,0,0,0,9.0,8.0,-1005.0
1776458944.005024,pre_hover,right,x,1,,,2,0.7435957126613927,0.7164687881844375,3.3916628145273804,3.48377685557066,70,253012.0,91,78.0,0,-1,-71,0,0,0,9.0,8.0,-1005.0
1776458944.0569248,pre_hover,right,x,1,,,2,0.09165015844683405,0.34096676727063846,3.411524359737705,3.4758053758041174,70,253015.0,91,78.5,0,-1,-71,0,0,0,8.0,1.0,-997.0
1776458944.108449,pre_hover,right,x,1,,,2,0.4742666797008365,0.9370487755179973,3.460032590343025,3.492952514188262,70,253015.0,91,78.5,0,-1,-71,0,0,0,8.0,1.0,-997.0
1776458944.15907,pre_hover,right,x,1,,,2,-0.7636771550863578,1.2605272364190627,3.3899033302584303,3.4846121486636275,70,253015.0,91,78.5,0,-1,-71,0,0,0,8.0,1.0,-997.0
1776458944.210607,pre_hover,right,x,1,,,2,-0.7653810295929258,1.2578268216779869,3.3905518686941267,3.4854160102837843,70,253006.0,91,78.5,0,0,-71,0,0,0,3.0,-1.0,-1017.0
1776458944.262004,pre_hover,right,x,1,,,2,-0.8481087596222926,1.0980527827026827,3.3493479465131366,3.456448246850453,70,253002.0,90,78.5,0,0,-71,0,0,0,0.0,9.0,-1024.0
1776458944.313993,pre_hover,right,x,1,,,2,0.7492300589146632,0.7313866907668914,3.3969575422682787,3.4889567688711445,70,253002.0,90,78.5,0,0,-71,0,0,0,0.0,9.0,-1024.0
1776458944.3655329,pre_hover,right,x,1,,,2,0.7509194328554254,0.7341234303228625,3.3976559259344152,3.4897902710593436,70,253003.00000000003,90,78.5,0,0,-71,0,0,0,0.0,19.0,-995.0
1776458944.4164,pre_hover,right,x,1,,,2,0.0728849345614739,0.3591024739502138,3.4245736217998792,3.4847907173473573,70,253003.00000000003,90,78.5,0,0,-71,0,0,0,0.0,19.0,-995.0
1776458944.468184,pre_hover,right,x,1,,,2,0.3657316006111558,0.44305417100217426,3.4413879029153587,3.5052958446407696,70,253004.0,90,78.5,0,0,-70,0,0,0,0.0,0.0,-1010.0
1776458944.5201302,pre_hover,right,x,1,,,2,-1.0243830882168072,1.175208010967392,3.2947957377762846,3.4548136725734606,70,253004.0,90,78.5,0,0,-70,0,0,0,0.0,0.0,-1010.0
1776458944.571123,pre_hover,right,x,1,,,2,-0.7352189937410832,1.2720622614825299,3.360755817192105,3.450977326160115,70,253010.0,90,78.5,0,0,-70,0,0,0,-23.0,7.0,-1006.0
1776458944.620432,pre_hover,right,x,1,,,2,0.7603468348818951,0.7435603423890931,3.3986518336940246,3.492094342079302,70,253010.0,90,78.5,0,0,-70,0,0,0,-23.0,7.0,-1006.0
1776458944.670028,pre_hover,right,x,1,,,2,0.7670523507584919,0.8072201693062353,3.402193471205395,3.492914798193489,70,253004.0,90,78.5,0,0,-70,0,0,0,-7.0,5.0,-1009.0
1776458944.7206929,pre_hover,right,x,1,,,2,-0.739656372381312,1.2709388800028676,3.359651502519305,3.4507618933043926,70,253004.0,90,78.5,0,0,-70,0,0,0,-7.0,5.0,-1009.0
1776458944.77074,pre_hover,right,x,1,,,2,-0.7843519548053441,1.2398404190219527,3.3920794942861416,3.4898330491815956,70,253000.0,90,78.5,0,0,-70,0,0,0,-8.0,0.0,-1004.0
1776458944.821992,pre_hover,right,x,1,,,2,0.7669262691163482,0.7432226713205496,3.3958843974557666,3.490865414144176,70,253000.0,90,78.5,0,0,-70,0,0,0,-8.0,0.0,-1004.0
1776458944.872246,pre_hover,right,x,1,,,2,0.7692772960603853,0.7417049859619463,3.3941848829367736,3.4898416714898994,70,253000.0,90,78.5,0,0,-70,0,0,0,-33.0,7.0,-1002.0
1776458944.9223812,pre_hover,right,x,1,,,2,0.7692772960603853,0.7417049859619463,3.3941848829367736,3.4898416714898994,70,253000.0,90,78.5,0,0,-70,0,0,0,-33.0,7.0,-1002.0
1776458944.9714391,pre_hover,right,x,1,,,2,0.7692772960603853,0.7417049859619463,3.3941848829367736,3.4898416714898994,70,253004.0,90,78.5,0,0,-70,0,0,0,-18.0,-1.0,-982.0
1776458945.023185,pre_hover,right,x,1,,,2,0.7716061462657283,0.7401883711318606,3.3924950207653275,3.488825102146524,70,253004.0,90,78.5,0,0,-70,0,0,0,-18.0,-1.0,-982.0
1776458945.073431,pre_hover,right,x,1,,,2,-0.6993219552350582,1.4945947543373386,3.4001549482434936,3.5063840120780427,70,253011.0,90,78.5,0,0,-70,0,0,0,-9.0,20.0,-970.0
1776458945.125379,pre_hover,right,x,1,,,2,-1.1798163205650696,1.266798923717799,3.2266945441750434,3.445969514864817,70,253011.0,90,78.5,0,0,-70,0,0,0,-9.0,20.0,-970.0
1776458945.176523,pre_hover,right,x,1,,,2,0.9685713389399092,0.6674043514824789,3.323512959045287,3.477713141271229,70,253002.0,90,78.5,-1,0,-70,0,0,0,-17.0,2.0,-996.0
1776458945.226897,pre_hover,right,x,1,,,2,1.0635312324057333,0.8153493880024211,3.320576998790915,3.491622278499325,70,253002.0,90,78.5,-1,0,-70,0,0,0,-17.0,2.0,-996.0
1776458945.27855,response,right,x,1,1776458945.278324,0.00022602081298828125,2,-0.7022479641614425,1.5013852458814698,3.394338558871209,3.502295478710554,70,253002.0,90,78.5,-1,0,-70,0,0,0,-17.0,2.0,-996.0
1776458945.330591,response,right,x,1,1776458945.278324,0.05226707458496094,2,-0.4997478114184638,1.1195132125248501,3.50056192569975,3.538073639516891,70,252996.99999999997,90,78.5,-1,0,-70,0,0,0,0.0,-2.0,-982.0
1776458945.381793,response,right,x,1,1776458945.278324,0.1034691333770752,2,0.7535800053495871,0.6838607378952204,3.4343020127268002,3.5301922287782275,70,253008.0,90,78.5,-1,0,-70,0,0,0,6.0,-1.0,-972.0
1776458945.432037,response,right,x,1,1776458945.278324,0.15371322631835938,2,0.8144892835587573,0.7504069293571309,3.4164706318298226,3.5210738521224836,70,253008.0,90,78.5,-1,0,-70,0,0,0,6.0,-1.0,-972.0
1776458945.484086,response,right,x,1,1776458945.278324,0.20576214790344238,2,-0.9007203344194238,1.0585948053489782,3.421436683204522,3.538496778185348,70,253007.00000000003,90,78.5,0,0,-70,0,0,0,-3.0,17.0,-979.0
1776458945.5353742,response,right,x,1,1776458945.278324,0.2570502758026123,2,-0.7688646083501942,1.3069169141092867,3.4291634543789846,3.527678099683739,70,253007.00000000003,90,78.5,0,0,-70,0,0,0,-3.0,17.0,-979.0
1776458945.586709,response,right,x,1,1776458945.278324,0.30838513374328613,2,-0.761030944222548,1.2976983901121244,3.430027362550307,3.526028947326359,70,253002.0,90,78.5,0,4,-70,0,0,0,-20.0,15.0,-1005.0
1776458945.6377769,response,right,x,1,1776458945.278324,0.3594529628753662,2,-0.1717870485590203,1.6744651598223361,3.4486275464338467,3.5181594614072167,70,253002.0,90,78.5,0,4,-70,0,0,0,-20.0,15.0,-1005.0
1776458945.688638,response,right,x,1,1776458945.278324,0.41031408309936523,2,0.7318267060173151,0.6813857696505201,3.4347432316320257,3.5262652229608813,70,253002.0,90,78.5,0,3,-70,1,0,0,-15.0,15.0,-1022.0
1776458945.740108,response,right,x,1,1776458945.278324,0.46178412437438965,2,-0.748312879400983,1.3124699160703068,3.427392795982489,3.522020867609821,70,253002.0,90,78.5,0,3,-70,1,0,0,-15.0,15.0,-1022.0
1776458945.791518,response,right,x,1,1776458945.278324,0.5131940841674805,2,0.12625746582033381,0.303987159328305,3.4827094410507358,3.553820461537018,70,253002.0,90,78.5,0,1,-70,2,0,0,17.0,4.0,-992.0
1776458945.842376,response,right,x,1,1776458945.278324,0.5640521049499512,2,0.4479577680767901,0.41322451710511365,3.4454087131827453,3.5236079279883636,70,253002.0,90,78.5,0,1,-70,2,0,0,17.0,4.0,-992.0
1776458945.8913531,response,right,x,1,1776458945.278324,0.6130292415618896,2,0.4484079507926762,0.4042992838782852,3.440461732868411,3.520327537155303,70,253004.0,90,78.5,0,0,-70,2,0,0,-11.0,12.0,-1012.0
1776458945.943062,response,right,x,1,1776458945.278324,0.6647381782531738,2,-0.11733565026815201,1.7318020672399832,3.4166453250322846,3.4961074350633923,70,253004.0,90,78.5,0,0,-70,2,0,0,-11.0,12.0,-1012.0
1776458945.994903,response,right,x,1,1776458945.278324,0.7165791988372803,2,0.15641008352454622,0.25779132820554607,3.451906176874596,3.5342600471187784,70,253002.0,90,78.5,0,0,-70,2,0,0,21.0,-10.0,-983.0
1776458946.046268,response,right,x,1,1776458945.278324,0.7679440975189209,2,0.01723602297221295,0.5048089395523861,3.4980652356455915,3.5329833936302864,70,253002.0,90,78.5,0,0,-70,2,0,0,21.0,-10.0,-983.0
1776458946.0977201,response,right,x,1,1776458945.278324,0.8193962574005127,2,0.4547930873561204,0.7537616188728757,3.5132636790325953,3.5511254231661074,70,253002.0,90,78.5,0,0,-70,2,0,0,21.0,-10.0,-983.0
1776458946.148268,response,right,x,1,1776458945.278324,0.8699440956115723,2,0.45332578968176784,0.7396487219452066,3.5099439100207355,3.54866077711959,70,253000.0,90,77.5,0,0,-70,2,0,0,-18.0,35.0,-1000.0
1776458946.200017,response,right,x,1,1776458945.278324,0.9216930866241455,2,0.05157228046526165,0.47188633905752697,3.481448010643743,3.521653587421927,70,253003.00000000003,89,77.5,-2,0,-70,2,0,0,27.0,-17.0,-979.0
1776458946.2511091,response,right,x,1,1776458945.278324,0.972785234451294,2,-0.4721063387310619,1.261285958728623,3.4999259003762284,3.5412760490285335,70,253003.00000000003,89,77.5,-2,0,-70,2,0,0,27.0,-17.0,-979.0
1776458946.3031218,response,right,x,1,1776458945.278324,1.0247979164123535,2,0.07839195579407043,0.45190803271977475,3.469236780660798,3.5131401827453494,70,253009.0,89,77.5,-1,0,-70,2,0,0,-9.0,0.0,-1017.0
1776458946.3538592,response,right,x,1,1776458945.278324,1.0755352973937988,2,-0.044703839844894316,0.4454845346628856,3.4649456878873663,3.509321081719963,70,253009.0,89,77.5,-1,0,-70,2,0,0,-9.0,0.0,-1017.0
1776458946.4053462,response,right,x,1,1776458945.278324,1.1270222663879395,2,-1.1850484845622717,1.2475688032862655,3.19360601678627,3.4153696159533586,70,253007.00000000003,89,77.5,-1,0,-70,2,0,0,-1.0,4.0,-996.0
1776458946.4572191,response,right,x,1,1776458945.278324,1.1788952350616455,2,-0.40273919111826595,1.5307117222978537,3.405576780200494,3.4701306883297223,70,253007.00000000003,89,77.5,-1,0,-70,2,0,0,-1.0,4.0,-996.0
1776458946.507651,response,right,x,1,1776458945.278324,1.2293272018432617,2,-0.40273919111826595,1.5307117222978537,3.405576780200494,3.4701306883297223,70,253010.0,89,77.5,0,-1,-70,2,0,0,-18.0,6.0,-1011.0
1776458946.55893,response,right,x,1,1776458945.278324,1.2806060314178467,2,0.40161778409256754,0.5318887898062041,3.416538473693377,3.4717661343811153,70,253010.0,89,77.5,0,-1,-70,2,0,0,-18.0,6.0,-1011.0
1776458946.610673,response,right,x,1,1776458945.278324,1.3323490619659424,2,0.4088122637273335,0.5151930166809233,3.408929968763479,3.4674152924019044,70,252996.99999999997,89,77.5,0,-4,-70,2,0,0,10.0,-9.0,-1007.0
1776458946.6595578,response,right,x,1,1776458945.278324,1.3812339305877686,2,0.7849353947833755,0.7658366064565767,3.3457371514999106,3.444548323915088,70,252996.99999999997,89,77.5,0,-4,-70,2,0,0,10.0,-9.0,-1007.0
1776458946.707293,response,right,x,1,1776458945.278324,1.428969144821167,2,-0.22552510407192436,0.6503950569764569,3.4562839652419117,3.4812331201948403,70,252996.99999999997,89,77.5,0,-4,-70,2,0,0,10.0,-9.0,-1007.0
1776458946.7545862,response,right,x,1,1776458945.278324,1.4762623310089111,2,0.5394763441062422,0.848236465900656,3.40196126847693,3.4478119682415573,70,253008.0,89,77.5,0,-5,-70,1,0,0,-3.0,-5.0,-1005.0
1776458946.802262,response,right,x,1,1776458945.278324,1.5239381790161133,2,0.5402622663712199,0.8392911290238984,3.40059820612494,3.446995621867707,70,253011.0,89,77.5,0,-3,-70,0,0,0,-8.0,12.0,-988.0
1776458946.851448,response,right,x,1,1776458945.278324,1.5731241703033447,2,-0.2057395149664921,0.6566109783569325,3.456908749909429,3.4800090335233325,70,253011.0,89,77.5,0,-3,-70,0,0,0,-8.0,12.0,-988.0
1776458946.9002051,response,right,x,1,1776458945.278324,1.6218812465667725,2,0.7397018974030277,1.1231217062420982,3.366479614221243,3.4489857704166913,70,253006.0,89,77.5,0,-2,-70,0,0,0,-7.0,5.0,-993.0
1776458946.947964,response,right,x,1,1776458945.278324,1.669640064239502,2,0.5401586386999306,0.8306945817569917,3.398118559015617,3.444944908229299,70,253006.0,89,77.5,0,-2,-70,0,0,0,-7.0,5.0,-993.0
1776458946.999795,response,right,x,1,1776458945.278324,1.7214710712432861,2,0.5399882588635041,0.8278324667215224,3.3976693544997,3.4446169629919727,70,253003.00000000003,89,77.5,0,-1,-70,0,0,0,-39.0,44.0,-1024.0
1776458947.047852,response,right,x,1,1776458945.278324,1.7695281505584717,2,-0.5512530807168355,1.1459347271154399,3.396252115396593,3.4437922897459847,70,253003.00000000003,89,77.5,0,-1,-70,0,0,0,-39.0,44.0,-1024.0
1776458947.0976808,response,right,x,1,1776458945.278324,1.819356918334961,2,-0.19171843272994185,0.6658971020045362,3.456575553298373,3.477972866420516,70,253003.00000000003,89,77.5,0,-1,-70,0,0,0,-39.0,44.0,-1024.0
1776458947.148795,response,right,x,1,1776458945.278324,1.8704710006713867,2,0.7361684188809968,1.1114385346240185,3.3660119522928813,3.447375661417744,70,253008.0,89,78.5,0,-1,-70,0,0,0,-27.0,32.0,-989.0
1776458947.201065,response,right,x,1,1776458945.278324,1.922741174697876,2,0.5338176189210802,0.9638100520044042,3.403412427100276,3.4452122012362443,70,253008.0,89,78.5,0,-1,-70,0,0,0,-27.0,32.0,-989.0
1776458947.2532191,response,right,x,1,1776458945.278324,1.9748952388763428,2,0.734647583743147,1.107848741698445,3.3662139957147748,3.447134329893689,70,253001.00000000003,89,78.5,0,-1,-70,0,0,0,7.0,7.0,-996.0
1776458947.304414,response,right,x,1,1776458945.278324,2.026090145111084,2,0.5397042603258355,0.8082156511180982,3.394409372066422,3.4423940666725352,70,253001.00000000003,89,78.5,0,-1,-70,0,0,0,7.0,7.0,-996.0
1776458947.355052,response,right,x,1,1776458945.278324,2.076728105545044,2,0.5972691915050063,1.3272650839231142,3.364254047624043,3.4324973735213544,70,252998.99999999997,89,78.5,0,-1,-70,0,0,0,-13.0,25.0,-1000.0
1776458947.4056,response,right,x,1,1776458945.278324,2.1272761821746826,2,0.24781968140124574,1.3881938861635956,3.3983225386176166,3.4293884533865646,70,252998.99999999997,89,78.5,0,-1,-70,0,0,0,-13.0,25.0,-1000.0
1776458947.4582531,response,right,x,1,1776458945.278324,2.179929256439209,2,0.5377897977533352,0.7995753249294966,3.3944392930253793,3.442616160854899,70,252998.99999999997,89,78.5,0,-1,-70,0,0,0,-14.0,13.0,-995.0
1776458947.509546,response,right,x,1,1776458945.278324,2.231222152709961,2,0.2796557488572482,1.688378097663062,3.3443560724482277,3.4258997770706103,70,253001.00000000003,89,78.5,0,-1,-70,0,0,0,-18.0,22.0,-1010.0
1776458947.560132,response,right,x,1,1776458945.278324,2.2818081378936768,2,-0.14022803285618068,0.6528151087693005,3.457831081645115,3.478045002453047,70,253001.00000000003,89,78.5,0,-1,-70,0,0,0,-18.0,22.0,-1010.0
1776458947.611319,response,right,x,1,1776458945.278324,2.3329951763153076,2,0.5357049178851924,0.796233385263132,3.394784969861864,3.442828137436971,70,252994.0,89,78.5,0,-1,-70,0,0,0,-6.0,26.0,-1007.0
1776458947.662754,response,right,x,1,1776458945.278324,2.384430170059204,2,0.5357049178851924,0.796233385263132,3.394784969861864,3.442828137436971,70,252994.0,89,78.5,0,-1,-70,0,0,0,-6.0,26.0,-1007.0
1776458947.715774,response,right,x,1,1776458945.278324,2.4374501705169678,2,0.2674575614783488,1.6930532644854033,3.343873110113122,3.4253968749830173,70,253006.0,89,78.5,0,-1,-70,0,0,0,-11.0,9.0,-1024.0
1776458947.767156,response,right,x,1,1776458945.278324,2.4888319969177246,2,0.5890581184717751,1.3240712956639507,3.3674335128209467,3.433892854309878,70,253006.0,89,78.5,0,-1,-70,0,0,0,-11.0,9.0,-1024.0
1776458947.8187351,response,right,x,1,1776458945.278324,2.5404112339019775,2,0.5890581184717751,1.3240712956639507,3.3674335128209467,3.433892854309878,70,253006.0,89,78.5,0,-1,-70,0,0,0,-11.0,9.0,-1024.0
1776458947.872045,response,right,x,1,1776458945.278324,2.5937211513519287,2,0.5890581184717751,1.3240712956639507,3.3674335128209467,3.433892854309878,70,253006.0,89,78.5,0,-1,-70,0,0,0,-11.0,9.0,-1024.0
1776458947.924704,response,right,x,1,1776458945.278324,2.6463801860809326,2,-0.6786269649883667,0.9266976878116397,3.342236882468272,3.4112248775348593,70,252996.99999999997,89,78.5,0,-1,-70,0,0,0,-15.0,12.0,-1028.0
1776458947.977895,response,right,x,1,1776458945.278324,2.699571132659912,2,-0.0035409906144339004,0.5583569267470418,3.4035351000139333,3.4320711414237475,70,253000.0,89,78.5,0,-1,-70,0,0,0,3.0,4.0,-1013.0
1776458948.031287,response,right,x,1,1776458945.278324,2.752963066101074,2,-0.0035409906144339004,0.5583569267470418,3.4035351000139333,3.4320711414237475,70,253000.0,89,78.5,0,-1,-70,0,0,0,3.0,4.0,-1013.0
1776458948.0834188,response,right,x,1,1776458945.278324,2.8050949573516846,2,-0.0035409906144339004,0.5583569267470418,3.4035351000139333,3.4320711414237475,70,253000.0,89,78.5,0,-1,-70,0,0,0,3.0,4.0,-1013.0
1776458948.1370912,response,right,x,1,1776458945.278324,2.85876727104187,2,-0.0035409906144339004,0.5583569267470418,3.4035351000139333,3.4320711414237475,70,253000.0,89,78.5,0,-1,-70,0,0,0,3.0,4.0,-1013.0
1776458948.192338,response,right,x,1,1776458945.278324,2.9140141010284424,2,0.5336451173102676,0.7928670870700116,3.3954434454348688,3.443358439952856,70,253013.0,89,78.5,0,-1,-70,0,0,0,-19.0,22.0,-1005.0
1776458948.2447722,response,right,x,1,1776458945.278324,2.9664483070373535,2,0.23177435611091687,1.3967716458594852,3.399700884917995,3.430614113831644,70,252996.99999999997,88,77.5,0,-1,-70,0,0,0,-35.0,21.0,-1001.0
1776458948.297198,response,right,x,1,1776458945.278324,3.018874168395996,2,0.020333214044040357,1.830731522455552,3.335650011478331,3.43759935144718,70,252996.99999999997,88,77.5,0,-1,-70,0,0,0,-35.0,21.0,-1001.0
1776458948.34737,response,right,x,1,1776458945.278324,3.0690460205078125,2,0.2630700739497766,1.6964218420771702,3.3443071883617206,3.426164008925722,70,252998.99999999997,88,77.5,0,-1,-70,0,0,0,-3.0,14.0,-1012.0
1776458948.397387,response,right,x,1,1776458945.278324,3.119063138961792,2,0.5835361551456891,1.3239193952386528,3.3699040819007817,3.435359040942524,70,252998.99999999997,88,77.5,0,-1,-70,0,0,0,-3.0,14.0,-1012.0
1776458948.447127,response,right,x,1,1776458945.278324,3.1688032150268555,2,0.5835361551456891,1.3239193952386528,3.3699040819007817,3.435359040942524,70,252998.99999999997,88,77.5,0,-1,-70,0,0,0,-3.0,14.0,-1012.0
1776458948.497944,response,right,x,1,1776458945.278324,3.2196202278137207,2,-0.7721212983368484,0.5912496740147234,3.274236429724754,3.388786261491739,70,253004.0,88,77.5,0,-1,-70,0,0,0,-20.0,26.0,-1001.0
1776458948.548785,response,right,x,1,1776458945.278324,3.270461082458496,2,-0.02646958827985223,1.4028552004366888,3.4119886631274805,3.4357909699126115,70,253004.0,88,77.5,0,-1,-70,0,0,0,-20.0,26.0,-1001.0
1776458948.597502,response,right,x,1,1776458945.278324,3.3191781044006348,2,0.22421218908909407,1.4062152894738744,3.4006199039822733,3.432127284716998,70,252998.0,88,77.5,0,-1,-70,0,0,0,17.0,-4.0,-982.0
1776458948.646621,response,right,x,1,1776458945.278324,3.3682971000671387,2,-0.05646142143924542,0.1950612552696659,3.3021344346101227,3.3992949414719664,70,252998.0,88,77.5,0,-1,-70,0,0,0,17.0,-4.0,-982.0
1776458948.695244,response,right,x,1,1776458945.278324,3.4169201850891113,2,-0.006426289559192372,0.5459864718885535,3.403586702473267,3.433740238014307,70,253003.00000000003,88,77.5,0,-1,-70,0,0,0,14.0,1.0,-989.0
1776458948.742659,response,right,x,1,1776458945.278324,3.4643352031707764,2,-0.019729299895047472,1.4066604812657157,3.412247593627965,3.4364510228602776,70,253003.00000000003,88,77.5,0,-1,-70,0,0,0,14.0,1.0,-989.0
1776458948.78941,response,right,x,1,1776458945.278324,3.5110862255096436,2,0.26437661790706435,1.7025334213691963,3.3444783546445946,3.4276790498707577,70,253003.00000000003,88,77.5,0,-1,-70,0,0,0,14.0,1.0,-989.0
1776458948.838261,response,right,x,1,1776458945.278324,3.559937000274658,2,-0.012608641228225134,0.5427260543601515,3.4037839315407954,3.4343854605751476,70,252996.0,88,77.5,0,0,-70,0,0,0,3.0,20.0,-988.0
1776458948.885476,response,right,x,1,1776458945.278324,3.607152223587036,2,-0.012608641228225134,0.5427260543601515,3.4037839315407954,3.4343854605751476,70,252996.0,88,77.5,0,0,-70,0,0,0,3.0,20.0,-988.0
1776458948.9353862,response,right,x,1,1776458945.278324,3.657062292098999,2,0.10289747620692526,1.7920394900083778,3.3059440865942014,3.4010558284200005,70,252998.99999999997,88,77.5,0,0,-70,0,0,0,11.0,-3.0,-993.0
1776458948.9829628,response,right,x,1,1776458945.278324,3.704638957977295,2,0.22720070466791686,1.4131585750113604,3.4008134335022797,3.4333441682704313,70,252998.99999999997,88,77.5,0,0,-70,0,0,0,11.0,-3.0,-993.0
1776458949.0317361,response,right,x,1,1776458945.278324,3.7534122467041016,2,0.22720070466791686,1.4131585750113604,3.4008134335022797,3.4333441682704313,70,253001.00000000003,88,77.5,0,0,-70,0,0,0,-46.0,25.0,-1028.0
1776458949.0831418,response,right,x,1,1776458945.278324,3.8048179149627686,2,0.5188603523657372,0.7928949225381032,3.403576013503192,3.4491213747941485,70,253001.00000000003,88,77.5,0,0,-70,0,0,0,-46.0,25.0,-1028.0
1776458949.134698,response,right,x,1,1776458945.278324,3.8563740253448486,2,0.23020754696650308,1.4133761272861123,3.400665807327313,3.433424423285814,70,253007.00000000003,88,78.0,0,0,-70,0,0,0,-20.0,23.0,-1034.0
1776458949.186398,response,right,x,1,1776458945.278324,3.908074140548706,2,0.23020754696650308,1.4133761272861123,3.400665807327313,3.433424423285814,70,253007.00000000003,88,78.0,0,0,-70,0,0,0,-20.0,23.0,-1034.0
1776458949.238519,response,right,x,1,1776458945.278324,3.9601950645446777,2,0.3481027827444025,1.2525912925053877,3.4524472664368773,3.47913351797993,70,253000.0,88,78.0,0,0,-70,0,0,0,-26.0,25.0,-997.0
1776458949.290265,response,right,x,1,1776458945.278324,4.011941194534302,2,-0.8538696375086589,1.1210689930357753,3.304942305397232,3.4156104433817154,70,253000.0,88,78.0,0,0,-70,0,0,0,-26.0,25.0,-997.0
1776458949.341456,response,right,x,1,1776458945.278324,4.063132047653198,2,0.23321322074624534,1.4135925133398999,3.400520550786745,3.433509456772275,70,253000.0,88,78.0,0,0,-70,0,0,0,15.0,0.0,-999.0
1776458949.393555,response,right,x,1,1776458945.278324,4.115231037139893,2,0.23321322074624534,1.4135925133398999,3.400520550786745,3.433509456772275,70,253000.0,88,78.0,0,0,-70,0,0,0,15.0,0.0,-999.0
1776458949.4466481,response,right,x,1,1776458945.278324,4.16832423210144,2,0.23321322074624534,1.4135925133398999,3.400520550786745,3.433509456772275,70,253008.0,88,78.0,0,0,-70,0,0,0,-4.0,9.0,-991.0
1776458949.498791,response,right,x,1,1776458945.278324,4.2204670906066895,2,0.23321322074624534,1.4135925133398999,3.400520550786745,3.433509456772275,70,253008.0,88,78.0,0,0,-70,0,0,0,-4.0,9.0,-991.0
1776458949.549063,response,right,x,1,1776458945.278324,4.2707390785217285,2,0.5209436723831994,0.7981930681437834,3.4029925321551184,3.4485455660966435,70,253013.0,88,78.0,0,0,-70,0,0,0,-29.0,25.0,-1012.0
1776458949.599827,response,right,x,1,1776458945.278324,4.321503162384033,2,-0.0007277338565504212,1.4111105525422134,3.4130356156951125,3.4377062890845465,70,253013.0,88,78.0,0,0,-70,0,0,0,-29.0,25.0,-1012.0
1776458949.651665,response,right,x,1,1776458945.278324,4.373341083526611,2,-0.4451615707533367,1.2413018629506702,3.3725479294111254,3.4103482152581295,70,253001.00000000003,88,78.0,0,0,-70,0,0,0,12.0,-2.0,-992.0
1776458949.703516,response,right,x,1,1776458945.278324,4.42519211769104,2,0.423584252627605,0.7272184701989903,3.374117610550741,3.411525030232566,70,253001.00000000003,88,78.0,0,0,-70,0,0,0,12.0,-2.0,-992.0
1776458949.754797,response,right,x,1,1776458945.278324,4.476473093032837,2,0.423584252627605,0.7272184701989903,3.374117610550741,3.411525030232566,70,253005.00000000003,88,78.0,0,0,-70,0,0,0,0.0,12.0,-1011.0
1776458949.804945,response,right,x,1,1776458945.278324,4.526621103286743,2,0.24188385184972075,1.4149015614173717,3.4000235442569164,3.4337750661558477,70,253005.00000000003,88,78.0,0,0,-70,0,0,0,0.0,12.0,-1011.0
1776458949.854801,response,right,x,1,1776458945.278324,4.57647705078125,2,0.23621794125468698,1.4138076622408349,3.400377659557391,3.4335992667632063,70,253003.00000000003,88,78.0,0,0,-70,0,0,0,20.0,-6.0,-988.0
1776458949.905065,response,right,x,1,1776458945.278324,4.626741170883179,2,-0.030608544418936397,0.5422446914089011,3.404336628797304,3.4351105786722163,70,253003.00000000003,88,78.0,0,0,-70,0,0,0,20.0,-6.0,-988.0
1776458949.955817,response,right,x,1,1776458945.278324,4.677493095397949,2,0.24312716745060944,1.4116927849060423,3.3997829734160847,3.433238418028402,70,253005.00000000003,88,78.0,0,0,-70,0,0,0,7.0,18.0,-961.0
1776458950.0073018,response,right,x,1,1776458945.278324,4.728977918624878,2,-0.6732932735217633,0.9138324245801763,3.34768466534442,3.4158075621740704,70,253005.00000000003,88,78.0,0,0,-70,0,0,0,7.0,18.0,-961.0
1776458950.057274,response,right,x,1,1776458945.278324,4.778950214385986,2,0.7434222996299076,1.0686260695949152,3.3256557108837344,3.4084266400127587,70,252996.0,88,78.0,0,0,-70,0,0,0,-14.0,30.0,-980.0
1776458950.108326,response,right,x,1,1776458945.278324,4.830002069473267,2,0.0007891151798814959,1.407766255069168,3.4131731562927006,3.437444535743519,70,252996.0,88,78.0,0,0,-70,0,0,0,-14.0,30.0,-980.0
1776458950.160497,response,right,x,1,1776458945.278324,4.88217306137085,2,-0.44805070211274134,1.2378529759480223,3.3718680057720847,3.4098119182999618,70,253002.0,88,78.0,0,0,-70,0,0,0,-10.0,23.0,-977.0
1776458950.213283,response,right,x,1,1776458945.278324,4.934959173202515,2,-0.8563204522323316,1.1257738413527179,3.3033136277560367,3.414818399183001,70,253002.0,88,78.0,0,0,-70,0,0,0,-10.0,23.0,-977.0
1776458950.264971,response,right,x,1,1776458945.278324,4.986647129058838,2,0.5132525072447627,0.9647131789870917,3.412901187649398,3.4514587948560105,70,253007.00000000003,87,78.0,0,0,-70,0,0,0,-16.0,29.0,-994.0
1776458950.31558,response,right,x,1,1776458945.278324,5.0372560024261475,2,-0.13976326327774025,1.6612070753572683,3.370800364880828,3.4378806939952526,70,253007.00000000003,87,78.0,0,0,-70,0,0,0,-16.0,29.0,-994.0
1776458950.367074,response,right,x,1,1776458945.278324,5.088750123977661,2,-0.6758786725836082,0.9192554151766115,3.3464718836231113,3.414997179488102,70,252998.99999999997,87,78.0,0,0,-70,0,0,0,-10.0,24.0,-1004.0
1776458950.417085,response,right,x,1,1776458945.278324,5.138761043548584,2,-0.6758786725836082,0.9192554151766115,3.3464718836231113,3.414997179488102,70,252998.99999999997,87,78.0,0,0,-70,0,0,0,-10.0,24.0,-1004.0
1776458950.468081,response,right,x,1,1776458945.278324,5.1897571086883545,2,0.24060556356977308,1.410787764656479,3.3999892719974754,3.4331566632634347,70,253003.00000000003,87,78.0,0,0,-70,0,0,0,0.0,23.0,-994.0
1776458950.518183,response,right,x,1,1776458945.278324,5.239859104156494,2,0.42965482632683294,0.7322735264491435,3.3724051817396354,3.410190235786013,70,253003.00000000003,87,78.0,0,0,-70,0,0,0,0.0,23.0,-994.0
1776458950.568444,response,right,x,1,1776458945.278324,5.2901201248168945,2,0.42965482632683294,0.7322735264491435,3.3724051817396354,3.410190235786013,70,253001.00000000003,87,78.0,0,0,-70,0,0,0,-10.0,27.0,-1006.0
1776458950.617676,response,right,x,1,1776458945.278324,5.339352130889893,2,-0.24822134737270762,0.5559293254287324,3.3927364508708657,3.4306665863026593,70,253001.00000000003,87,78.0,0,0,-70,0,0,0,-10.0,27.0,-1006.0
1776458950.6659,response,right,x,1,1776458945.278324,5.387576103210449,2,0.8840918266011879,1.200460766986499,3.240250913511724,3.3646736631473493,70,253001.00000000003,87,78.0,0,0,-70,0,0,0,-14.0,23.0,-992.0
1776458950.712765,response,right,x,1,1776458945.278324,5.434441089630127,2,0.31212132022306643,1.6495738256345966,3.311765588362807,3.3892708929431135,70,253001.00000000003,87,78.0,0,0,-70,0,0,0,-14.0,23.0,-992.0
1776458950.7592041,response,right,x,1,1776458945.278324,5.480880260467529,2,0.4329860014669496,0.7334855410669532,3.371221204549061,3.4093458675071284,70,253008.0,87,78.0,0,0,-70,0,0,0,14.0,12.0,-966.0
1776458950.809938,response,right,x,1,1776458945.278324,5.531614065170288,2,0.4329860014669496,0.7334855410669532,3.371221204549061,3.4093458675071284,70,253010.0,87,78.0,0,0,-70,0,0,0,-3.0,27.0,-1000.0
1776458950.8622751,response,right,x,1,1776458945.278324,5.583951234817505,2,-0.03181363732548005,0.5483497525989174,3.40439473411573,3.434370911705992,70,253010.0,87,78.0,0,0,-70,0,0,0,-3.0,27.0,-1000.0
1776458950.911968,response,right,x,1,1776458945.278324,5.633644104003906,2,0.4329860014669496,0.7334855410669532,3.371221204549061,3.4093458675071284,70,253005.00000000003,87,78.0,0,0,-70,0,0,0,-30.0,23.0,-1025.0
1776458950.961567,response,right,x,1,1776458945.278324,5.683243036270142,2,0.4329860014669496,0.7334855410669532,3.371221204549061,3.4093458675071284,70,253005.00000000003,87,78.0,0,0,-70,0,0,0,-30.0,23.0,-1025.0
1776458951.015619,response,right,x,1,1776458945.278324,5.737295150756836,2,0.4329860014669496,0.7334855410669532,3.371221204549061,3.4093458675071284,70,253007.00000000003,87,78.0,0,0,-70,0,0,0,-22.0,32.0,-978.0
1776458951.065474,response,right,x,1,1776458945.278324,5.787150144577026,2,0.4329860014669496,0.7334855410669532,3.371221204549061,3.4093458675071284,70,253007.00000000003,87,78.0,0,0,-70,0,0,0,-22.0,32.0,-978.0
1776458951.118846,response,right,x,1,1776458945.278324,5.840522050857544,2,-0.15593905849147574,0.6472752347093185,3.3744160770102547,3.3963827244287192,70,253007.00000000003,87,78.0,0,0,-70,0,0,0,-22.0,32.0,-978.0
1776458951.17054,response,right,x,1,1776458945.278324,5.892216205596924,2,-0.15593905849147574,0.6472752347093185,3.3744160770102547,3.3963827244287192,70,253004.0,87,77.5,0,0,-70,0,0,0,3.0,-5.0,-993.0
1776458951.2206872,response,right,x,1,1776458945.278324,5.942363262176514,2,-0.4510969184899309,1.2371790415400705,3.3706410554919075,3.40895342481891,70,253007.00000000003,87,77.5,0,0,-70,0,0,0,-10.0,28.0,-1003.0
1776458951.272772,response,right,x,1,1776458945.278324,5.994448184967041,2,-0.4510969184899309,1.2371790415400705,3.3706410554919075,3.40895342481891,70,253007.00000000003,87,77.5,0,0,-70,0,0,0,-10.0,28.0,-1003.0
1776458951.324438,response,right,x,1,1776458945.278324,6.046114206314087,2,-0.4510969184899309,1.2371790415400705,3.3706410554919075,3.40895342481891,70,253008.0,87,77.5,0,0,-70,0,0,0,9.0,7.0,-986.0
1776458951.376365,response,right,x,1,1776458945.278324,6.09804105758667,2,0.6961795984811578,1.1038036021474271,3.2951913202645997,3.3695292042520304,70,253008.0,87,77.5,0,0,-70,0,0,0,9.0,7.0,-986.0
1776458951.426882,response,right,x,1,1776458945.278324,6.148558139801025,2,0.6961795984811578,1.1038036021474271,3.2951913202645997,3.3695292042520304,70,253009.0,87,77.5,0,-1,-70,0,0,0,-22.0,42.0,-1022.0
1776458951.4791481,response,right,x,1,1776458945.278324,6.20082426071167,2,0.8623379861386189,0.9042811854445316,3.256884155909995,3.3704722664361255,70,253009.0,87,77.5,0,-1,-70,0,0,0,-22.0,42.0,-1022.0
1776458951.529663,response,right,x,1,1776458945.278324,6.2513391971588135,2,0.5275816186083292,1.382294954187566,3.3328488776007674,3.395934839954287,70,253009.0,87,77.5,0,-1,-70,0,0,0,15.0,11.0,-980.0
1776458951.5807202,response,right,x,1,1776458945.278324,6.302396297454834,2,0.5275816186083292,1.382294954187566,3.3328488776007674,3.395934839954287,70,253009.0,87,77.5,0,-1,-70,0,0,0,15.0,11.0,-980.0
1776458951.631864,response,right,x,1,1776458945.278324,6.3535401821136475,2,-0.05345353945635578,0.19382876471485067,3.3019290017197473,3.3993388289312327,70,253009.0,87,77.5,0,-1,-70,0,0,0,-14.0,14.0,-1019.0
1776458951.681576,response,right,x,1,1776458945.278324,6.403252124786377,2,-0.44822632616478486,1.2405721375132446,3.371322413534144,3.4094862675794078,70,253009.0,87,77.5,0,-1,-70,0,0,0,-14.0,14.0,-1019.0
1776458951.731461,response,right,x,1,1776458945.278324,6.453137159347534,2,0.08312870223204208,1.8068550886775596,3.2575339800989647,3.3570006176286378,70,253007.00000000003,87,77.5,0,-1,-70,0,0,0,9.0,14.0,-975.0
1776458951.782918,response,right,x,1,1776458945.278324,6.504594087600708,2,0.08312870223204208,1.8068550886775596,3.2575339800989647,3.3570006176286378,70,253007.00000000003,87,77.5,0,-1,-70,0,0,0,9.0,14.0,-975.0
1776458951.8349812,response,right,x,1,1776458945.278324,6.556657314300537,2,0.17709794746657825,1.967593043316581,3.2049363811113234,3.3524941741101455,70,253004.0,87,77.5,0,-1,-70,0,0,0,15.0,8.0,-1007.0
1776458951.8863978,response,right,x,1,1776458945.278324,6.608073949813843,2,0.17709794746657825,1.967593043316581,3.2049363811113234,3.3524941741101455,70,253004.0,87,77.5,0,-1,-70,0,0,0,15.0,8.0,-1007.0
1776458951.9378219,response,right,x,1,1776458945.278324,6.659497976303101,2,0.6937110483393651,1.1029273779793858,3.296508150236858,3.3702811527087535,70,253004.0,87,77.5,0,-1,-70,0,0,0,-6.0,26.0,-1018.0
1776458951.990474,response,right,x,1,1776458945.278324,6.7121500968933105,2,0.6937110483393651,1.1029273779793858,3.296508150236858,3.3702811527087535,70,253004.0,87,77.5,0,-1,-70,0,0,0,-6.0,26.0,-1018.0
1776458952.041087,response,right,x,1,1776458945.278324,6.762763023376465,2,0.6900479304905146,1.0286677924459875,3.3005942607882597,3.372078063011941,70,253004.0,87,77.5,0,-1,-70,0,0,0,-1.0,10.0,-1003.0
1776458952.092819,response,right,x,1,1776458945.278324,6.814495086669922,2,0.8606732438944424,0.9027190358362789,3.257989660369798,3.3711598368841718,70,253004.0,87,77.5,0,-1,-70,0,0,0,-1.0,10.0,-1003.0
1776458952.145034,response,right,x,1,1776458945.278324,6.866710186004639,2,0.6909830164643243,1.1079331799547627,3.2973860182504082,3.3707360700195097,70,252992.99999999997,87,78.0,0,-1,-70,0,0,0,-2.0,8.0,-1022.0
1776458952.195384,response,right,x,1,1776458945.278324,6.917060136795044,2,0.028199219198403982,1.8088662184608697,3.2586764103050316,3.3576824898148234,70,252992.99999999997,87,78.0,0,-1,-70,0,0,0,-2.0,8.0,-1022.0
1776458952.247051,response,right,x,1,1776458945.278324,6.968727111816406,2,0.17723603481691436,1.9690974048466092,3.2049378181945887,3.352937340692776,70,253004.0,86,78.0,0,-1,-70,0,0,0,-4.0,18.0,-993.0
1776458952.298707,response,right,x,1,1776458945.278324,7.02038311958313,2,0.17723603481691436,1.9690974048466092,3.2049378181945887,3.352937340692776,70,253004.0,86,78.0,0,-1,-70,0,0,0,-4.0,18.0,-993.0
1776458952.351158,response,right,x,1,1776458945.278324,7.072834014892578,2,-0.14042031674795877,0.6383627019513235,3.373689861105265,3.3959214772459045,70,253008.0,86,78.0,0,-1,-70,0,0,0,1.0,12.0,-998.0
1776458952.40274,response,right,x,1,1776458945.278324,7.12441611289978,2,-0.14042031674795877,0.6383627019513235,3.373689861105265,3.3959214772459045,70,253008.0,86,78.0,0,-1,-70,0,0,0,1.0,12.0,-998.0
1776458952.452389,response,right,x,1,1776458945.278324,7.174065113067627,2,-0.6973470840311511,0.9526437823736349,3.297438349162771,3.370702483679615,70,252996.99999999997,86,78.0,0,-1,-70,0,0,0,-11.0,14.0,-1030.0
1776458952.5038888,response,right,x,1,1776458945.278324,7.225564956665039,2,0.6947729114629746,1.024558269356983,3.2988750012297046,3.3713333832231474,70,252996.99999999997,86,78.0,0,-1,-70,0,0,0,-11.0,14.0,-1030.0
1776458952.5558999,response,right,x,1,1776458945.278324,7.277575969696045,2,-0.6990287141319703,0.9534121518264015,3.2962163688078707,3.3698447917931458,70,253002.0,86,78.0,0,0,-70,0,0,0,30.0,2.0,-1005.0
1776458952.606708,response,right,x,1,1776458945.278324,7.328384160995483,2,0.6934106163187171,1.1089555187563427,3.2960702341514274,3.369980500885726,70,253002.0,86,78.0,0,0,-70,0,0,0,30.0,2.0,-1005.0
1776458952.656086,response,right,x,1,1776458945.278324,7.377762079238892,2,0.8623379861386189,0.9042811854445316,3.256884155909995,3.3704722664361255,70,252998.99999999997,86,78.0,0,0,-70,0,0,0,17.0,-2.0,-994.0
1776458952.7051678,response,right,x,1,1776458945.278324,7.426843881607056,2,-0.15147283692622757,0.6436235612228607,3.374602666344365,3.39674717077095,70,252998.99999999997,86,78.0,0,0,-70,0,0,0,17.0,-2.0,-994.0
1776458952.752939,response,right,x,1,1776458945.278324,7.474615097045898,2,0.6934106163187171,1.1089555187563427,3.2960702341514274,3.369980500885726,70,253004.0,86,78.0,0,0,-70,0,0,0,11.0,-1.0,-983.0
1776458952.800875,response,right,x,1,1776458945.278324,7.5225510597229,2,0.6934106163187171,1.1089555187563427,3.2960702341514274,3.369980500885726,70,253004.0,86,78.0,0,0,-70,0,0,0,11.0,-1.0,-983.0
1776458952.853943,response,right,x,1,1776458945.278324,7.575619220733643,2,-0.4475259304815953,1.2365407132869204,3.3700869398013387,3.4078903957309508,70,253002.0,86,78.0,0,0,-70,0,0,0,0.0,15.0,-966.0
1776458952.906007,response,right,x,1,1776458945.278324,7.627683162689209,2,-0.4475259304815953,1.2365407132869204,3.3700869398013387,3.4078903957309508,70,253002.0,86,78.0,0,0,-70,0,0,0,0.0,15.0,-966.0
1776458952.95561,response,right,x,1,1776458945.278324,7.677286148071289,2,0.029430202681522195,1.8067853533476868,3.2589738843811835,3.3574811276140943,70,253004.0,86,78.0,0,0,-70,0,0,0,-12.0,32.0,-997.0
1776458953.006154,response,right,x,1,1776458945.278324,7.727830171585083,2,-0.13399456217911548,1.6380911395071913,3.2908991716498663,3.3548669426635893,70,253004.0,86,78.0,0,0,-70,0,0,0,-12.0,32.0,-997.0
1776458953.0601332,response,right,x,1,1776458945.278324,7.781809329986572,2,0.08492922995552704,1.8065375211522692,3.25780173806614,3.3572292015401706,70,253002.0,86,78.0,0,0,-70,0,0,0,0.0,13.0,-1018.0
1776458953.114628,response,right,x,1,1776458945.278324,7.836304187774658,2,-0.14450035492050653,0.6379163033487985,3.3735704620493747,3.3960215868520014,70,253002.0,86,78.0,0,0,-70,0,0,0,0.0,13.0,-1018.0
1776458953.167273,response,right,x,1,1776458945.278324,7.888949155807495,2,0.501187062476266,0.8104991844195973,3.3227976487714965,3.3657218015428145,70,252996.0,86,77.5,0,0,-70,0,0,0,17.0,12.0,-983.0
1776458953.220665,response,right,x,1,1776458945.278324,7.942341089248657,2,-0.16171718088961326,0.6413780319437732,3.3736326368295377,3.3964922097435797,70,252996.0,86,77.5,0,0,-70,0,0,0,17.0,12.0,-983.0
1776458953.272915,response,right,x,1,1776458945.278324,7.994590997695923,2,0.4987080962334044,0.8098802358779998,3.3239986463469355,3.3665742663536786,70,253001.00000000003,86,77.5,0,0,-70,0,0,0,20.0,1.0,-990.0
1776458953.3247411,response,right,x,1,1776458945.278324,8.046417236328125,2,0.4987080962334044,0.8098802358779998,3.3239986463469355,3.3665742663536786,70,253001.00000000003,86,77.5,0,0,-70,0,0,0,20.0,1.0,-990.0
1776458953.3762639,response,right,x,1,1776458945.278324,8.09793996810913,2,-0.14358887456990602,0.6299250901037808,3.3736932664454677,3.39696621412319,70,253006.0,86,77.5,0,0,-70,0,0,0,6.0,17.0,-971.0
1776458953.427221,response,right,x,1,1776458945.278324,8.148897171020508,2,0.4961998029694844,0.8092349946329181,3.325206657127263,3.3674329754789665,70,253006.0,86,77.5,0,0,-70,0,0,0,6.0,17.0,-971.0
1776458953.479829,response,right,x,1,1776458945.278324,8.201505184173584,2,-0.16121370500494114,0.6333551740384934,3.3737523043369095,3.3974435827698994,70,252998.0,86,77.5,0,0,-70,0,0,0,-9.0,18.0,-1000.0
1776458953.531745,response,right,x,1,1776458945.278324,8.253421068191528,2,-0.16121370500494114,0.6333551740384934,3.3737523043369095,3.3974435827698994,70,253009.0,86,77.5,0,0,-70,0,0,0,-8.0,11.0,-1005.0
1776458953.58207,response,right,x,1,1776458945.278324,8.303746223449707,2,-0.0677743770495263,0.21535223300839657,3.2268075145676507,3.321528596971524,70,253009.0,86,77.5,0,0,-70,0,0,0,-8.0,11.0,-1005.0
1776458953.633584,response,right,x,1,1776458945.278324,8.355260133743286,2,-0.0677743770495263,0.21535223300839657,3.2268075145676507,3.321528596971524,70,253003.00000000003,86,77.5,0,0,-70,0,0,0,3.0,18.0,-1004.0
