timestamp,elapsed,master_age_s,master_seq,master_pos_x,master_pos_y,master_pos_z,master_state,pos_x,pos_y,pos_z,marker_id,received_count,crc_errors,network_condition,target_x,target_y,target_z,err_x_cm,err_y_cm,err_z_cm,err_3d_cm,cmd_lr,cmd_fb,cmd_ud,feedback,tello_height_cm,tello_baro_cm,tello_battery,tello_temp_c,tello_pitch,tello_roll,tello_yaw,tello_vgx,tello_vgy,tello_vgz
1778190666.735627,4.5299530029296875e-06,0.004032135009765625,1100,-0.18275290727615356,0.7525044083595276,3.9247231483459473,3,1.8004894542192487,1.1824704945001963,3.9185810052890804,2,1101,0,unknown,0.8172470927238464,0.7525044083595276,3.9247231483459473,-98.32423614954023,-42.996608614066865,0.6142143056866889,107.31607999696557,-30,-3,-30,ok,120,252375.0,80,71.0,0,0,5,0,0,0
1778190666.7949126,0.059290170669555664,0.003098011016845703,1103,-0.18275290727615356,0.7525044083595276,3.9247231483459473,3,1.790799392552346,1.3571436290276573,3.859572487012257,2,1104,0,unknown,0.8172470927238464,0.7525044083595276,3.9247231483459473,-97.35522998284995,-60.46392206681297,6.515066133369007,114.7883825281871,-30,-29,-30,ok,120,252375.0,80,71.0,0,0,5,0,0,0
1778190666.8531456,0.117523193359375,0.0011625289916992188,1106,-0.1893954575061798,0.753943920135498,3.942493438720703,3,1.790799392552346,1.3571436290276573,3.859572487012257,2,1107,0,unknown,0.8150329093138377,0.7529842456181844,3.9306465784708657,-97.57664832385083,-60.415938340947285,7.107409145860855,114.98609989255341,-30,-6,-30,ok,120,252385.0,80,71.0,1,0,5,0,0,0
1778190666.9210794,0.1854569911956787,0.009529352188110352,1109,-0.06462205201387405,0.7940549850463867,3.9701695442199707,3,1.7908931096679894,1.2692721369989144,3.8811545342492804,2,1110,0,unknown,0.8451191689819098,0.763251930475235,3.940527319908142,-94.57739406860797,-50.60202065236794,5.937278565886173,107.42764653328474,-30,0,1,ok,120,252369.99999999997,80,71.0,0,0,5,0,0,0
1778190666.9816008,0.24597835540771484,-0.011982202529907227,1113,-0.2155577540397644,0.8732328414916992,3.884695291519165,3,1.7878625140790498,1.346760092213267,3.8438023589373715,2,1114,0,unknown,0.8329837843775749,0.7852481126785278,3.9293609142303465,-95.48787297014749,-56.15119795347392,8.555855529297496,111.10397643564089,-30,-14,-30,ok,120,252369.99999999997,80,71.0,0,0,5,0,0,0
1778190667.0512338,0.3156113624572754,-0.00033974647521972656,1116,-0.11662770807743073,0.7265670895576477,3.963362455368042,3,1.7827836456523267,1.3505440062553875,3.842667714047615,2,1117,0,unknown,0.8413818689684073,0.7754679421583811,3.935027837753296,-94.14017766839194,-57.50760640970064,9.236012370568103,110.70140817044167,-30,-8,-30,ok,120,252367.0,80,71.0,0,-1,5,0,0,0
1778190667.1209462,0.38532376289367676,-0.010547399520874023,1120,-0.06888262927532196,0.802437424659729,3.961981773376465,3,1.787443024755765,1.263233570163346,3.864157647112771,2,1121,0,unknown,0.8542012263621603,0.7793207253728595,3.9388783999851773,-93.32417983936048,-48.39128447904864,7.4720752872406315,105.38951971291881,-30,1,-3,ok,120,252377.0,80,71.0,0,-2,5,0,0,0
1778190667.1909149,0.4552924633026123,-0.0018048286437988281,1123,-0.1860390305519104,0.7618600726127625,3.9158241748809814,3,1.7838042599826607,1.2581703206817951,3.866499312194046,2,1124,0,unknown,0.8491711942479014,0.7771381437778473,3.9359966218471527,-93.46330657347592,-48.103217690394786,6.949730965310685,105.34518493176257,-30,-2,-30,ok,120,252377.0,80,71.0,0,-2,5,0,0,0
1778190667.2538664,0.5182440280914307,0.0024933815002441406,1126,-0.03547024354338646,0.898941159248352,3.967766523361206,3,1.786777306783994,1.267085150043136,3.8821414128281777,2,1127,0,unknown,0.8675815272144973,0.7954427376389503,3.94137704372406,-91.91957795694967,-47.16424124041856,5.923563089588235,103.48315352386821,-30,0,-30,ok,120,252367.0,80,71.0,1,-3,5,0,0,0
1778190667.3190348,0.5834124088287354,0.0076067447662353516,1129,-0.06924676895141602,0.8062821626663208,3.9593350887298584,3,1.7852755938985299,1.2604158960011849,3.8642862580559765,2,1130,0,unknown,0.8817697945050895,0.8021649569272995,3.945703536272049,-90.35057993934403,-45.825093907388535,8.141727821607248,101.63392277639345,-30,-13,-30,ok,120,252367.0,80,71.0,1,-3,5,0,0,0
1778190667.3823836,0.6467611789703369,-0.009053468704223633,1133,-0.15160636603832245,0.8442099690437317,3.927260398864746,3,1.8612367636855631,1.2514716992556103,3.830698199051402,2,1134,0,unknown,0.8864934309385717,0.8134482130408287,3.9437994062900543,-97.47433327469915,-43.80234862147816,11.310120723865236,107.46073805298862,-30,-18,-26,ok,120,252369.0,80,71.0,1,-3,5,0,-1,1
1778190667.4483912,0.7127687931060791,-0.002996206283569336,1136,-0.06894927471876144,0.8117331266403198,3.9579782485961914,3,1.7824079615046031,1.25738864714768,3.8646727566154833,2,1137,0,unknown,0.8859525281004608,0.8156579807400703,3.942275494337082,-89.64554334041424,-44.17306664076097,7.760273772159865,100.23874054608861,-29,8,-30,ok,120,252367.0,80,71.0,0,-3,5,0,-1,1
1778190667.5189602,0.7833378314971924,-0.012699127197265625,1140,-0.11420445889234543,0.7248384952545166,3.96103835105896,3,1.609507285832872,1.3600455263938405,3.8649389174831064,2,1141,0,unknown,0.8986216899938881,0.7971086874604225,3.9518183767795563,-71.08855958389839,-56.29368389334179,8.687945929644991,91.09359227999188,16,-8,-30,ok,120,252367.99999999997,80,71.0,0,-2,5,0,-2,1
1778190667.5867157,0.8510932922363281,-0.004792690277099609,1143,-0.11420445889234543,0.7248384952545166,3.96103835105896,3,1.6031440842435951,1.3610984079603254,3.8643205370456437,2,1144,0,unknown,0.8989245961420238,0.7968926131725311,3.951527863740921,-70.42194881015713,-56.42057947877943,8.720732669527731,90.6564054065405,-30,-5,-30,ok,120,252367.99999999997,80,71.0,0,-2,5,0,-2,1
1778190667.651662,0.9160397052764893,-0.0017092227935791016,1146,-0.03713483735918999,0.8993138670921326,3.9649767875671387,3,1.5899709843843706,1.2699026053695395,3.8903061380222845,2,1147,0,unknown,0.9028930701315403,0.8090021684765816,3.9519022405147552,-68.70779142528303,-46.09004368929579,6.159610249247072,82.96380854471437,-30,5,1,ok,120,252367.99999999997,80,71.0,0,-2,5,0,-2,1
1778190667.7175908,0.9819684028625488,0.005861997604370117,1149,-0.03713483735918999,0.8993138670921326,3.9649767875671387,3,1.6825663646055493,1.2518511747537513,3.8830242270587667,2,1150,0,unknown,0.9215060942806304,0.8261838927865028,3.958046317100525,-76.1060270324919,-42.566728196724846,7.502209004175819,87.52335025572647,-30,-10,-21,ok,120,252365.0,80,71.0,1,-2,5,0,-2,1
1778190667.7820413,1.0464189052581787,0.010654687881469727,1152,-0.004041795153170824,0.9920059442520142,3.948366641998291,3,1.679471089053444,1.1531318241893431,3.8846061749276153,2,1153,0,unknown,0.9254346503294073,0.8378169909119606,3.9556213319301605,-75.40364387240368,-31.53148332773825,7.101515700254524,82.03886563894383,-30,-3,19,ok,110,252373.0,80,71.0,1,-1,5,0,-3,1
1778190667.838956,1.1033337116241455,0.007415056228637695,1155,-0.14027422666549683,0.8478661775588989,3.9088540077209473,3,1.6815692275016128,1.3322050462787285,3.8434527530504203,2,1156,0,unknown,0.9165562181151472,0.8430149927735329,3.9493111968040466,-76.50130093864655,-48.91900535051956,10.58584437536263,91.41979124308325,-30,-21,-30,ok,110,252369.0,80,71.5,0,-1,5,0,-3,1
1778190667.9014103,1.165787935256958,0.009865283966064453,1158,0.05440796539187431,0.8761470913887024,3.9932708740234375,3,1.6845524521030812,1.334251101051489,3.8426444817017815,2,1159,0,unknown,0.9423080095439218,0.8470071330666542,3.957562506198883,-74.22444425591594,-48.72439679848348,11.491802449710153,89.52874673544137,-30,-11,-30,ok,110,252369.0,80,71.5,0,-1,5,0,-3,1
1778190667.9628854,1.2272629737854004,0.011176824569702148,1161,0.05440796539187431,0.8761470913887024,3.9932708740234375,3,1.5801518860536874,1.1652917019766966,3.9362263535234057,2,1162,0,unknown,0.9577276645577513,0.855058878660202,3.961974084377289,-62.242422149593615,-31.02328233164946,2.5747730853883155,69.59305007052569,2,30,30,ok,110,252373.99999999997,80,71.5,0,-1,5,0,-3,1
1778190668.0222466,1.2866241931915283,0.01057124137878418,1164,-0.068857841193676,0.8118761777877808,3.9562137126922607,3,1.5877464038682452,1.257009878270611,3.896608358215397,2,1165,0,unknown,0.963395991770085,0.86593858897686,3.9613710045814514,-62.43504120981602,-39.107128929375094,6.476264636605444,73.95568881170357,-30,-20,-30,ok,110,252373.99999999997,80,71.5,0,-1,5,0,-3,1
1778190668.0868528,1.3512303829193115,-0.006429910659790039,1168,-0.06212999299168587,0.8163011074066162,3.9366888999938965,3,1.5113299469273191,1.3684157910859547,3.8942392684880507,2,1169,0,unknown,0.9699053000076674,0.8773714154958725,3.9583273231983185,-54.14246469196517,-49.10443755900822,6.408805471026779,73.37387176967489,-10,-4,-30,ok,110,252364.0,80,71.5,0,-1,5,0,-3,0
1778190668.1530223,1.4173998832702637,0.0011527538299560547,1171,-0.06212999299168587,0.8163011074066162,3.9366888999938965,3,1.5841587386418383,1.1543236766304277,3.9419229996199645,2,1172,0,unknown,0.9667809055536054,0.866994820535183,3.954791337251663,-61.73778330882329,-28.732885609524473,1.28683376316987,68.10865249343341,-30,17,30,ok,110,252373.99999999997,80,71.5,0,-1,5,0,-3,0
1778190668.2196243,1.484001874923706,-0.014316558837890625,1175,0.08952823281288147,0.9704877138137817,3.9758036136627197,3,1.5786853528771307,1.0291831762404384,3.9685323107569133,2,1176,0,unknown,0.9826137893251143,0.8758915513753891,3.956144690513611,-59.60715635520164,-15.329162486504933,-1.2387620243302422,61.559165382939106,-30,8,29,ok,110,252373.99999999997,80,71.5,0,-1,5,0,-3,0
1778190668.2968686,1.5612461566925049,0.005477190017700195,1178,-0.030161814764142036,0.9100547432899475,3.9427266120910645,3,1.4871300171344535,1.2598881770445791,3.9321463426921217,2,1179,0,unknown,0.9793487868737429,0.8656476512551308,3.9554396867752075,-50.77812302607106,-39.42405257894484,2.329334408308581,64.32806151738092,-9,-15,-30,ok,110,252371.0,80,71.5,0,-1,5,0,-3,0
1778190668.360891,1.6252686977386475,0.009047985076904297,1181,-0.05977318808436394,0.8119189143180847,3.937844753265381,3,1.4956338009449404,1.2592205008952853,3.9334013293827033,2,1182,0,unknown,0.9894114166963845,0.861154243350029,3.9590635299682617,-50.62223842485558,-39.806625754525626,2.566220058555846,64.44970102717872,-30,-3,-30,ok,110,252376.00000000003,80,71.5,0,0,5,0,-3,0
1778190668.4207819,1.68515944480896,-0.011841297149658203,1185,-0.022546332329511642,0.9028051495552063,3.926140546798706,3,1.4005168207481413,1.2886696797594437,3.953091700175281,2,1186,0,unknown,0.9797921294812113,0.864486500620842,3.9506722390651703,-42.072469126693,-42.41831791386017,-0.241946111011071,59.744998878387136,-3,9,-30,ok,110,252376.00000000003,80,71.5,0,0,5,0,-3,0
1778190668.4877882,1.7521657943725586,-0.0038208961486816406,1188,0.09398144483566284,0.9680600166320801,3.955998420715332,3,1.3651313393501026,1.1699963662812731,3.9894048693688986,2,1189,0,unknown,0.9847388144116849,0.8759756162762642,3.946013182401657,-38.03925249384177,-29.402075000500894,-4.339168696724149,48.27313051381646,-19,16,18,ok,110,252366.0,80,71.5,0,0,5,0,-3,0
1778190668.5582325,1.8226101398468018,0.006615161895751953,1191,-0.05553228035569191,0.8109332323074341,3.9190125465393066,3,1.404441657190453,1.2743329047207634,3.9637791444659025,2,1192,0,unknown,0.9864045095164329,0.8758577480912209,3.941363036632538,-41.80371476740201,-39.84751566295426,-2.2416107833364673,57.79619270996715,-30,-7,-30,ok,110,252365.0,79,71.5,0,0,5,0,-3,0
1778190668.6246977,1.8890752792358398,-0.007148027420043945,1195,-0.16902148723602295,0.7710088491439819,3.8744008541107178,3,1.4076663097979387,1.2663736570399422,3.9694940300726484,2,1196,0,unknown,0.9730430727358907,0.8701962158083916,3.9335770308971405,-43.4623237062048,-39.61774412315506,-3.5916999175507947,58.91892344271451,-30,6,-30,ok,110,252365.0,79,71.5,0,0,5,0,-3,0
1778190668.689608,1.9539856910705566,-0.002012014389038086,1198,0.006376936100423336,0.9861049056053162,3.909276008605957,3,1.3724691183060016,1.1454454854489073,4.025338919073702,2,1199,0,unknown,0.9816064388724044,0.8914216905832291,3.930150419473648,-39.08626794335972,-25.402379486567828,-9.518849960005404,47.57757591429818,-18,27,27,ok,110,252367.99999999997,79,71.5,0,0,5,0,-3,0
1778190668.7570515,2.0214290618896484,0.005298137664794922,1201,-0.020092634484171867,0.8982130885124207,3.9073269367218018,3,1.3795497322610397,1.1301559513237858,4.013334998465824,2,1202,0,unknown,0.9679038304602727,0.8823873624205589,3.9215908348560333,-41.1645901800767,-24.776858890322686,-9.174416360979087,48.914068903836146,-30,3,-23,ok,110,252367.0,79,71.5,0,0,5,0,-3,0
1778190668.826926,2.091303586959839,-0.005017280578613281,1205,0.0641094222664833,0.8702188730239868,3.9548871517181396,3,1.202937825583805,1.0446235913466984,4.076649688111729,2,1206,0,unknown,0.9796877350891009,0.8774078786373138,3.9231109023094177,-22.325009049470413,-16.72157127093845,-15.35387858023114,31.839575409927978,30,30,8,ok,110,252367.0,79,71.5,0,0,5,0,-3,0
1778190668.8937888,2.1581664085388184,1.9073486328125e-05,1208,0.0641094222664833,0.8702188730239868,3.9548871517181396,3,1.1987806617792334,1.0288995384204376,4.08498879409132,2,1209,0,unknown,0.9951730613829568,0.8846953734755516,3.9252412021160126,-20.360760039627657,-14.420416494488597,-15.97475919753073,29.626034035707676,-16,11,-10,ok,110,252364.0,79,71.5,0,0,5,0,-3,0
1778190668.9559987,2.2203762531280518,0.0039730072021484375,1211,-0.017139073461294174,0.8963863253593445,3.9084084033966064,3,1.2663934113726867,1.156370001173237,4.059823901804989,2,1212,0,unknown,0.995848968741484,0.8838930204510689,3.92302468419075,-27.05444426312027,-27.247698072216807,-13.679921761423852,40.761750011740745,-30,-1,-30,ok,110,252365.0,79,71.5,0,0,5,0,-3,0
1778190669.0158775,2.280255079269409,0.0042002201080322266,1214,-0.013345738872885704,0.8950153589248657,3.9104039669036865,3,1.2709913588151682,1.133883774492741,4.051285002156823,2,1215,0,unknown,0.9824330707779154,0.8747624382376671,3.9173253774642944,-28.85582880372528,-25.912133625507394,-13.395962469252876,41.03107767843399,-30,6,-21,ok,110,252366.0,79,71.5,-1,0,5,0,-2,0
1778190669.0752423,2.3396198749542236,0.003562450408935547,1217,-0.05123010277748108,0.8096355199813843,3.899890422821045,3,1.2215639334503887,0.9806103517563315,4.106496157568409,2,1218,0,unknown,0.9829708429751918,0.8746002241969109,3.9149351119995117,-23.859309047519695,-10.601012755942063,-19.15610455688972,32.38216239646748,-5,30,30,ok,110,252366.0,79,71.5,-1,0,5,0,-2,0
1778190669.1332188,2.3975963592529297,0.0015931129455566406,1220,0.09534954279661179,0.9688818454742432,3.9350736141204834,3,1.1134169831709608,1.348602505398459,4.011091042743843,2,1221,0,unknown,1.0160172217292711,0.8993343487381935,3.9225192070007324,-9.73997614416897,-44.92681566602654,-8.857183574311023,46.815975927530914,30,-30,-30,ok,110,252365.0,79,71.5,-1,0,5,0,-2,0
1778190669.1955361,2.459913730621338,0.003812074661254883,1223,-0.05244115740060806,0.8090289235115051,3.8994193077087402,3,0.9893877031381297,1.2654567257036922,4.045834412101969,0,1224,0,unknown,1.0086649600416422,0.8771998509764671,3.9212871193885803,1.9277256903512452,-38.82568747272251,-12.454729271338838,40.81997568947225,30,21,-12,ok,110,252365.0,79,71.5,-1,0,5,0,-2,0
1778190669.2574587,2.521836280822754,0.0056304931640625,1226,-0.05244115740060806,0.8090289235115051,3.8994193077087402,3,0.99015727726242,1.269298065780009,4.0423315030150935,0,1227,0,unknown,1.0046213946770877,0.8660518303513527,3.9202986657619476,1.4464117414667688,-40.32462354286564,-12.203283725314584,42.15551570649106,-13,6,-30,ok,110,252371.0,79,71.5,0,0,5,0,-2,0
1778190669.323713,2.588090658187866,-0.00815272331237793,1230,-0.12289504706859589,0.8452930450439453,3.852231502532959,3,0.9692700376616609,1.347003668515242,4.007775420777104,0,1231,0,unknown,0.9812458360102028,0.8629361018538475,3.9074667096138,1.19757983485419,-48.40675666613945,-10.030871116330431,49.44963765032174,-12,-2,-30,ok,110,252366.0,79,71.5,0,0,5,0,-2,0
1778190669.3937414,2.658118963241577,0.0008764266967773438,1233,-0.12289504706859589,0.8452930450439453,3.852231502532959,3,1.070731917394911,1.1927284936225435,4.0278181089230625,0,1234,0,unknown,0.9578702773433179,0.8598203733563423,3.8946347534656525,-11.286164005159316,-33.29081202662012,-13.318335545741,37.590340847777064,-30,19,20,ok,110,252366.0,79,71.5,0,0,5,0,-2,0
1778190669.4616153,2.7259929180145264,-0.010084152221679688,1237,-0.015505200251936913,0.8853408098220825,3.8906023502349854,3,1.0802668376425593,1.1062629413434957,4.0334568299167355,0,1238,0,unknown,0.9580745114944875,0.8584396839141846,3.89240899682045,-12.219232614807174,-24.78232574293111,-14.104783309628566,31.022866197936803,-23,11,3,ok,110,252366.0,79,71.5,0,1,5,0,-2,0
1778190669.5271788,2.7915563583374023,-0.0045053958892822266,1240,-0.01415284164249897,0.8844188451766968,3.891650438308716,3,0.9541243960852491,1.272745151182377,4.018423955438453,0,1241,0,unknown,0.9579736236482859,0.8571151196956635,3.8900648057460785,0.3849227563036739,-41.56300314867136,-12.83591496923746,43.50163341027875,30,2,-30,ok,110,252369.0,79,71.5,0,1,5,0,-1,0
1778190669.5877123,2.8520898818969727,-0.004052162170410156,1243,-0.014187178574502468,0.8873047232627869,3.8916914463043213,3,0.9667814225303395,1.1913047638503764,4.050442981710201,0,1244,0,unknown,0.9626039891736582,0.8668237701058388,3.889039933681488,-0.4177433356681304,-32.44809937445376,-16.140304802871253,36.24311109215807,-15,22,0,ok,110,252369.0,79,71.5,0,1,5,0,-1,0
1778190669.6557722,2.920149803161621,0.0038805007934570312,1246,0.09972582757472992,0.9595366716384888,3.9196550846099854,3,0.9601472540505241,1.1845469546430163,4.030752530484637,0,1247,0,unknown,0.963151024770923,0.8656556233763695,3.887112617492676,0.3003770720398813,-31.88913312666468,-14.363991299196144,34.97615307604501,-9,2,-30,ok,110,252364.0,79,71.5,0,0,5,0,-1,0
1778190669.7226477,2.987025260925293,-0.014877080917358398,1250,0.10098710656166077,0.9536898136138916,3.9213528633117676,3,0.857554910776041,1.2762357555372539,4.036461220950556,0,1251,0,unknown,0.9823295577662066,0.8837382346391678,3.889854311943054,12.477464699016561,-39.24975208980861,-14.66069090075015,43.71688486287624,30,10,-30,ok,110,252364.0,79,71.5,0,0,5,0,-1,0
1778190669.7953162,3.0596938133239746,0.003572702407836914,1253,-0.04775607958436012,0.7960676550865173,3.884094476699829,3,0.8533830701241321,1.176372048886725,4.0551677846331895,0,1254,0,unknown,0.9829151924932376,0.8821180760860443,3.8879387080669403,12.953212236910549,-29.425397280068076,-16.72290765662492,36.23941711501843,-2,18,5,ok,110,252366.0,79,71.5,0,0,5,0,-1,0
1778190669.8585222,3.1228997707366943,0.006716012954711914,1256,-0.008634301833808422,0.8894996047019958,3.8734829425811768,3,0.8811596602394924,0.960783903686843,4.077935830766654,0,1257,0,unknown,0.997197785647586,0.8876438960433006,3.8905951380729675,11.603812540809354,-7.314000764354233,-18.734069269368625,23.218708492349887,-10,19,30,ok,100,252367.0,79,70.5,0,0,5,0,-1,0
1778190669.9226403,3.1870179176330566,-0.009167194366455078,1260,-0.04904618859291077,0.8109655976295471,3.8808531761169434,3,0.7503348385560632,1.3671475399338169,3.98854039987575,0,1261,0,unknown,1.0064288929570466,0.8833529651165009,3.8941728472709656,25.609405440098342,-48.379457481731606,-9.436755260478424,55.54697024202293,30,-29,-30,ok,100,252363.0,79,70.5,0,0,5,1,-1,1
1778190669.989319,3.2536966800689697,-0.002491474151611328,1263,-0.017063086852431297,0.8891492486000061,3.8915905952453613,3,0.8531298912717136,1.0782349660500086,4.046914194892065,0,1264,0,unknown,1.0062341571319848,0.8838290199637413,3.8942963778972626,15.310426586027127,-19.440594608626725,-15.26178169948027,29.07349070245408,-30,30,30,ok,100,252363.0,79,70.5,0,0,5,1,-1,1
1778190670.0600386,3.324416160583496,0.00818490982055664,1266,-0.15790238976478577,0.7586547136306763,3.8423633575439453,3,0.737813931461658,1.2725498129537127,4.012969165219987,0,1267,0,unknown,0.988265463616699,0.8681085035204887,3.8881354928016663,25.0451532155041,-40.4441309433224,-12.483367241832077,49.18151975125545,30,-2,-30,ok,100,252364.0,79,70.5,0,0,5,1,-1,0
1778190670.1225662,3.386943817138672,0.010588407516479492,1269,-0.15790238976478577,0.7586547136306763,3.8423633575439453,3,0.8661824290888249,0.9681804945157791,4.0560593031739085,0,1270,0,unknown,0.9703010622179136,0.8520272523164749,3.8819694817066193,10.411863312908864,-11.615324219930423,-17.408982146728924,23.37510029424315,-30,30,30,ok,100,252364.0,79,70.5,0,0,5,1,-1,0
1778190670.186299,3.450676679611206,0.014481306076049805,1272,-0.006579365581274033,0.8809412717819214,3.877650737762451,3,0.9597008270987891,0.99160091661462,4.006940345039394,0,1273,0,unknown,0.9570129130734131,0.842202827334404,3.8767189383506775,-0.2687914025376048,-14.939808928021602,-13.022140668871618,19.820350330500023,-30,-9,-30,ok,100,252361.0,79,70.5,0,1,5,1,-1,0
1778190670.244641,3.509018659591675,-0.007378816604614258,1276,-0.006579365581274033,0.8809412717819214,3.877650737762451,3,0.7268528148136085,1.1689831220230147,4.014444192840721,0,1277,0,unknown,0.9435671040555462,0.8331092596054077,3.871256172657013,21.67142892419377,-33.5873862417607,-14.318802018370835,42.4592915321358,30,14,-30,ok,100,252361.0,79,70.5,0,1,5,1,-1,0
1778190670.3093848,3.5737624168395996,-0.0025529861450195312,1279,-0.006579365581274033,0.8809412717819214,3.877650737762451,3,0.8316340096574834,1.174081468622546,3.9920836630876684,0,1280,0,unknown,0.948714193305932,0.8437184616923332,3.8704507052898407,11.708018364844863,-33.03630069302128,-12.163295779782768,37.1001431498282,-30,0,-30,ok,100,252364.0,79,70.5,0,0,5,1,0,0
1778190670.37953,3.6439075469970703,0.007933616638183594,1282,-0.006579365581274033,0.8809412717819214,3.877650737762451,3,0.8324292483028493,1.0688400163315648,4.008966655638618,0,1283,0,unknown,0.9489710603374988,0.8426486700773239,3.8709716796875,11.654181203464953,-22.61913462542409,-13.79949759511181,28.946007058033953,-4,15,9,ok,100,252360.0,79,70.5,0,0,5,1,0,0
1778190670.4465826,3.7109601497650146,0.014724969863891602,1285,-0.18101643025875092,0.8668003678321838,3.7935030460357666,3,0.828537556338373,1.0655672970366274,3.9900360197799882,0,1286,0,baseline,0.9324747801292688,0.8496280163526535,3.860052913427353,10.393722379089576,-21.593928068397396,-12.998310635263532,27.263221997546683,-10,5,-24,ok,100,252367.99999999997,78,70.5,0,0,5,1,0,0
1778190670.5057373,3.7701148986816406,-0.006494045257568359,1289,-0.21682409942150116,0.796272337436676,3.7984659671783447,3,0.6146149616480567,1.1814027110313985,4.027257475925042,0,1290,0,baseline,0.907504653558135,0.8380184024572372,3.848412334918976,29.28896919100783,-34.33843085741613,-17.88451410060663,48.54716670039716,30,30,-30,ok,100,252367.99999999997,78,70.5,0,0,5,1,0,0
1778190670.5728111,3.837188720703125,0.0008933544158935547,1292,-0.1149662509560585,0.8282337784767151,3.8420605659484863,3,0.7195304054279255,1.1720135831310248,3.9924700734268836,0,1293,0,baseline,0.9128716709092259,0.8467157855629921,3.8483744859695435,19.334126548130047,-32.529779756803265,-14.409558745734019,40.49234993985895,-30,-3,-30,ok,100,252373.99999999997,78,70.5,0,0,5,1,0,0
1778190670.6380742,3.902451753616333,0.004956245422363281,1295,-0.1149662509560585,0.8282337784767151,3.8420605659484863,3,0.7192117705119625,1.172358407645544,3.9922575061581815,0,1296,0,baseline,0.9182386882603168,0.855413168668747,3.848336637020111,19.902691774835436,-31.694523897679705,-14.392086913807045,40.097283582797324,2,9,-30,ok,100,252378.00000000003,78,70.5,0,0,5,0,0,0
1778190670.6984448,3.962822437286377,0.005922555923461914,1298,-0.039363209158182144,0.7897192239761353,3.8719563484191895,3,0.7200232917673739,1.0600673169931873,4.0122669203104335,0,1299,0,baseline,0.9141407078132033,0.8440104126930237,3.8476248383522034,19.411741604582943,-21.605690430016367,-16.464208195823016,33.386999305061885,-1,19,9,ok,100,252378.00000000003,78,70.5,0,0,5,0,0,0
1778190670.7631328,4.027510404586792,-0.010587930679321289,1302,-0.003911118023097515,0.8800495862960815,3.8800551891326904,3,0.7142987144611349,1.2557770856823072,3.9357231553964276,0,1303,0,baseline,0.9144742387579754,0.8438989520072937,3.8479253947734833,20.01755242968405,-41.18781336750135,-8.779776062294431,46.62856252315002,3,-21,-30,ok,100,252369.0,78,70.5,0,0,5,0,0,0
1778190670.830802,4.095179557800293,-0.0013837814331054688,1305,-0.004336071666330099,0.8857910633087158,3.8788981437683105,3,0.6192130008560277,1.2785340057298598,3.962903326180617,0,1306,0,baseline,0.9147546504973434,0.844505175948143,3.8480813205242157,29.55416496413157,-43.402882978171675,-11.482200565640133,53.75034741630562,30,18,-30,ok,100,252369.0,78,70.5,0,0,5,0,0,0
1778190670.8947408,4.159118413925171,0.0008509159088134766,1308,-0.08246631175279617,0.9120728373527527,3.8511476516723633,3,0.7084278964777884,1.1623736106023772,3.95601345233088,0,1309,0,baseline,0.9052687822259031,0.8483966216444969,3.8447684347629547,19.684088574811476,-31.39769889578803,-11.124501756792515,38.691515585570855,-30,6,9,ok,100,252369.0,78,71.5,0,0,5,0,0,0
1778190670.9571562,4.22153377532959,0.004920244216918945,1311,-0.08246631175279617,0.9120728373527527,3.8511476516723633,3,0.7078718031898652,1.1624917796584677,3.956009376303033,0,1312,0,baseline,0.9175875470391475,0.854055680334568,3.8519740104675293,20.971574384928225,-30.84360993238997,-10.403536583550377,38.721683580253504,6,5,-30,ok,100,252356.0,78,71.5,0,0,5,0,0,0
1778190671.0195098,4.2838873863220215,0.007498741149902344,1314,-0.03656896576285362,0.7958899140357971,3.87126088142395,3,0.7079647743819864,1.0513124451056304,3.976105758723679,0,1315,0,baseline,0.9401194387464784,0.8540078774094582,3.86107337474823,23.215466436449205,-19.73045676961722,-11.503238397544902,32.566444384218315,11,12,13,ok,100,252356.0,78,71.5,0,0,5,0,0,0
1778190671.0853496,4.349727153778076,-0.006852626800537109,1318,-0.12033599615097046,0.8399702310562134,3.8579797744750977,3,0.707074703968419,1.0513432882041724,3.9763229430797855,0,1319,0,baseline,0.9394482205971144,0.8554749339818954,3.8630632758140564,23.237351662869543,-19.5868354222277,-11.325966726572911,32.43294862408807,3,7,-29,ok,100,252369.99999999997,78,71.5,0,0,5,0,0,1
1778190671.1561074,4.420485019683838,0.004034757614135742,1321,-0.01226529385894537,0.8888300061225891,3.8951919078826904,3,0.8273403924864302,0.958249666651848,3.962268286705625,0,1322,0,baseline,0.9522858402342536,0.8630494624376297,3.869704693555832,12.494544774782334,-9.520020421421826,-9.256359314979301,18.232515616922782,-30,0,12,ok,100,252369.99999999997,78,71.5,0,0,5,0,0,1
1778190671.2253048,4.48968243598938,-0.0068950653076171875,1325,-0.01226529385894537,0.8888300061225891,3.8951919078826904,3,0.6076169658213414,1.2673557481673585,3.92781379322091,0,1326,0,baseline,0.9556730796466582,0.8754383102059364,3.8726091384887695,34.80561138253167,-39.191743796142205,-5.520465473214031,52.705776766263654,30,-8,-30,ok,100,252369.99999999997,78,71.5,0,0,5,0,0,1
1778190671.2911289,4.555506467819214,-0.0008578300476074219,1328,-0.01226529385894537,0.8888300061225891,3.8951919078826904,3,0.6989510615319895,1.1535833524938308,3.940617057190803,0,1329,0,baseline,0.9546288076671772,0.8765358626842499,3.8745012283325195,25.56777461351877,-27.704748980958094,-6.6115828858283265,38.275021137051915,-28,9,6,ok,100,252369.99999999997,78,71.5,0,0,5,0,0,0
1778190671.3614285,4.625806093215942,-0.010312795639038086,1332,-0.01226529385894537,0.8888300061225891,3.8951919078826904,3,0.6026143702496772,1.2639804316903223,3.930020472289045,0,1333,0,baseline,0.9536376548931003,0.876915730535984,3.876537948846817,35.1023284643423,-38.706470115433824,-5.348252344222804,52.525880245389814,30,0,-30,ok,100,252367.0,78,71.5,0,0,4,0,0,0
1778190671.4288812,4.693258762359619,-0.003216266632080078,1335,-0.001705449540168047,0.887134850025177,3.899610757827759,3,0.7122737754179497,0.933459554394258,3.9711147627604784,0,1336,0,baseline,0.9637327626696788,0.8737984821200371,3.8825958371162415,25.14589872517291,-5.966107227422091,-8.851892564423691,27.317881691629204,-30,20,30,ok,100,252367.0,78,71.5,0,0,4,0,0,0
1778190671.496972,4.761349678039551,0.004228115081787109,1338,-0.005064659286290407,0.8829379677772522,3.9000210762023926,3,0.6955450297436891,1.0437504508372042,3.940814907509548,0,1339,0,baseline,0.973407969227992,0.8701566234230995,3.888705015182495,27.786293948430284,-17.359382741410467,-5.210989232705288,33.175001271058356,16,-8,-30,ok,100,252371.99999999997,78,71.5,0,0,4,0,0,0
1778190671.564967,4.8293445110321045,0.012513875961303711,1341,-0.03518477454781532,0.7950573563575745,3.893686294555664,3,0.691178556001509,1.148741478718155,3.9233099231441035,0,1342,0,baseline,0.9735809931298718,0.8700525537133217,3.8915081918239594,28.24024371283628,-27.868892500483323,-3.180173132014419,39.80326664123776,9,-4,-30,ok,100,252363.0,78,71.5,0,0,4,0,0,0
1778190671.627518,4.891895532608032,-0.004548549652099609,1345,-0.10413475334644318,0.8350907564163208,3.847559928894043,3,0.5839620154174444,1.158613787222174,3.936909359514043,0,1346,0,baseline,0.9756061484804377,0.8694426193833351,3.8902057111263275,39.16441330629933,-28.91711678388389,-4.670364838771546,48.90667868958849,30,10,-30,ok,100,252363.0,78,71.5,0,0,4,0,0,0
1778190671.699063,4.963440656661987,0.007141590118408203,1348,-0.10413475334644318,0.8350907564163208,3.847559928894043,3,0.841731887231469,0.8438100149532786,3.928934535227963,0,1349,0,baseline,0.9641224660445005,0.8627252131700516,3.8842517137527466,12.23905788130315,1.891519821677301,-4.468282147521663,13.165786357356241,-30,4,30,ok,100,252367.0,78,71.5,0,0,4,0,0,0
1778190671.7615547,5.025932312011719,-0.010452032089233398,1352,-0.07807458937168121,0.7153626084327698,3.898052453994751,3,0.6949034384835908,1.045193166926433,3.940514109076731,0,1353,0,baseline,0.9558963041054085,0.8410417884588242,3.884609282016754,26.099286562181767,-20.415137846760878,-5.59048270599769,33.603632381681436,30,9,-30,ok,100,252367.0,78,71.5,0,0,4,0,0,0
1778190671.8288276,5.093205213546753,-0.0035326480865478516,1355,-0.07807458937168121,0.7153626084327698,3.898052453994751,3,0.5841265868535552,1.1546388300305488,3.918392346071069,0,1356,0,baseline,0.9476701421663165,0.8193583637475967,3.8849668502807617,36.35435553127613,-33.52804662829521,-3.342549579030729,49.567546988849905,30,-3,-30,ok,100,252356.0,78,71.5,0,0,4,0,0,0
1778190671.8970163,5.161393880844116,0.004544496536254883,1358,-0.07807458937168121,0.7153626084327698,3.898052453994751,3,0.5799349810138109,1.04735468851828,3.9581989121515853,0,1359,0,baseline,0.9394439802272245,0.7976749390363693,3.8853244185447693,35.95089992134136,-24.967974948191074,-7.287449360681597,44.373121327581835,11,23,0,ok,100,252356.0,78,71.5,0,0,4,0,0,0
1778190671.9565518,5.220929384231567,0.003929853439331055,1361,-0.0343119353055954,0.7977261543273926,3.894686698913574,3,0.5799349810138109,1.04735468851828,3.9581989121515853,0,1362,0,baseline,0.9353681695065461,0.7864988520741463,3.884708911180496,35.54331884927352,-26.08558364441338,-7.349000097108904,44.69667763176717,11,6,-30,ok,100,252365.0,78,71.0,0,1,4,0,0,0
1778190672.024373,5.288750648498535,0.012032032012939453,1364,-0.0343119353055954,0.7977261543273926,3.894686698913574,3,0.5841415864044215,1.1553635861295517,3.918197304815507,0,1365,0,baseline,0.931712260004133,0.7758473753929138,3.884042114019394,34.75706735997115,-37.95162107366379,-3.415519079611329,51.5756245155376,9,-12,-30,ok,100,252365.0,78,71.0,0,1,4,0,0,0
1778190672.0847247,5.349102258682251,-0.007485866546630859,1368,-0.0343119353055954,0.7977261543273926,3.894686698913574,3,0.6994895027571082,0.9287674351791148,3.936036757106475,0,1369,0,baseline,0.9318213649094105,0.7761809751391411,3.8841671645641327,23.233186215230226,-15.258646003997367,-5.186959254234225,28.27563908901008,-30,12,30,ok,100,252365.0,78,71.0,0,1,4,0,0,0
1778190672.1507502,5.415127754211426,-0.0012531280517578125,1371,-0.0343119353055954,0.7977261543273926,3.894686698913574,3,0.6994895027571082,0.9287674351791148,3.936036757106475,0,1372,0,baseline,0.9405492171645164,0.771510399878025,3.890058010816574,24.105971440740824,-15.72570353010897,-4.597874628990084,29.146801912432945,9,2,-30,ok,100,252365.0,78,71.0,0,0,4,0,0,0
1778190672.2218547,5.486232280731201,0.009189367294311523,1374,-0.0343119353055954,0.7977261543273926,3.894686698913574,3,0.6857463683724473,1.0377519090547167,3.90528144651217,0,1375,0,baseline,0.9492770694196224,0.766839824616909,3.8959488570690155,26.353070104717514,-27.09120844378077,-0.9332589443154404,37.80593671826793,16,-11,-30,ok,100,252365.0,78,71.0,0,0,4,0,0,0
1778190672.2885711,5.552948713302612,-0.003906726837158203,1378,-0.0343119353055954,0.7977261543273926,3.894686698913574,3,0.6857463683724473,1.0377519090547167,3.90528144651217,0,1379,0,baseline,0.9547474011778831,0.7771352678537369,3.8955281376838684,26.900103280543586,-26.061664120097983,-0.9753308828301499,37.4670143398659,10,3,-30,ok,100,252365.0,78,71.0,0,0,4,0,0,0
1778190672.353015,5.617392539978027,-0.00020360946655273438,1381,-0.0343119353055954,0.7977261543273926,3.894686698913574,3,0.6857463683724473,1.0377519090547167,3.90528144651217,0,1382,0,baseline,0.9602177329361439,0.7874307110905647,3.8951074182987213,27.44713645636966,-25.0321197964152,-1.0174028213448594,37.16163922188496,10,3,-30,ok,100,252365.0,78,71.0,0,0,4,0,0,0
1778190672.4222178,5.686595439910889,0.009674072265625,1384,-0.0343119353055954,0.7977261543273926,3.894686698913574,3,0.6857463683724473,1.0377519090547167,3.90528144651217,0,1385,0,baseline,0.9656880646944046,0.7977261543273926,3.894686698913574,27.99416963219573,-24.002575472732413,-1.0594747598595688,36.89064447101927,11,3,-30,ok,100,252365.0,78,71.0,0,0,4,0,0,0
1778190672.4878762,5.752253770828247,-0.004799365997314453,1388,-0.0343119353055954,0.7977261543273926,3.894686698913574,3,0.6857463683724473,1.0377519090547167,3.90528144651217,0,1389,0,baseline,0.9656880646944046,0.7977261543273926,3.894686698913574,27.99416963219573,-24.002575472732413,-1.0594747598595688,36.89064447101927,9,2,-30,ok,100,252365.0,78,71.0,0,0,4,0,0,0
1778190672.5551126,5.819490194320679,0.0026121139526367188,1391,-0.0343119353055954,0.7977261543273926,3.894686698913574,3,0.5896263401228518,1.2534287933523232,3.8756937351197873,0,1392,0,baseline,0.9656880646944046,0.7977261543273926,3.894686698913574,37.60617245715528,-45.57026390249306,1.89929637937869,59.114131015831475,30,-9,-30,ok,100,252365.0,78,71.0,0,0,4,0,0,0
1778190672.6224437,5.886821269989014,-0.010483264923095703,1395,-0.0343119353055954,0.7977261543273926,3.894686698913574,3,0.5896263401228518,1.2534287933523232,3.8756937351197873,0,1396,0,baseline,0.9656880646944046,0.7977261543273926,3.894686698913574,37.60617245715528,-45.57026390249306,1.89929637937869,59.114131015831475,15,1,-30,ok,100,252371.0,78,71.0,0,1,4,0,0,0
1778190672.6906984,5.955075979232788,-0.0016574859619140625,1398,-0.0343119353055954,0.7977261543273926,3.894686698913574,3,0.6851660184735704,1.146311095522561,3.8858565400689904,0,1399,0,baseline,0.9656880646944046,0.7977261543273926,3.894686698913574,28.052204622083423,-34.85849411951685,0.8830158844583824,44.75288273945976,-28,5,0,ok,100,252371.0,78,71.0,0,1,4,0,0,0
1778190672.7503748,6.014752388000488,-0.0018315315246582031,1401,-0.0343119353055954,0.7977261543273926,3.894686698913574,3,0.8018859379139063,0.9475601209179222,3.8925181631773436,0,1402,0,baseline,0.9656880646944046,0.7977261543273926,3.894686698913574,16.380212678049833,-14.98339665905296,0.2168535736230659,22.200463245010386,-30,4,30,ok,90,252362.0,77,71.0,0,0,4,0,0,1
1778190672.8168724,6.081249952316284,0.004469871520996094,1404,-0.0343119353055954,0.7977261543273926,3.894686698913574,3,0.5926087602416122,0.7737658990198932,3.9706592043463576,0,1405,0,baseline,0.9656880646944046,0.7977261543273926,3.894686698913574,37.30793044527923,2.3960255307499345,-7.597250543278333,38.14892958224571,30,30,30,ok,90,252352.0,77,71.0,0,0,5,0,0,2
1778190672.8777292,6.142106771469116,0.004960060119628906,1407,-0.0343119353055954,0.7977261543273926,3.894686698913574,3,0.5755067005342849,0.9201507161672478,3.9403299957983533,0,1408,0,baseline,0.9656880646944046,0.7977261543273926,3.894686698913574,39.01813641601197,-12.242456183985517,-4.564329688477908,41.147609994997836,23,-6,-30,ok,90,252352.0,77,71.0,0,0,5,0,0,2
1778190672.945399,6.2097766399383545,-0.007277488708496094,1411,-0.0343119353055954,0.7977261543273926,3.894686698913574,3,0.5755067005342849,0.9201507161672478,3.9403299957983533,0,1412,0,baseline,0.9656880646944046,0.7977261543273926,3.894686698913574,39.01813641601197,-12.242456183985517,-4.564329688477908,41.147609994997836,17,5,-28,ok,90,252352.0,77,71.0,0,0,5,0,0,2
1778190673.0130715,6.277449131011963,3.7670135498046875e-05,1414,-0.0343119353055954,0.7977261543273926,3.894686698913574,3,0.570438544646675,1.0422293820711217,3.9237318952314832,0,1415,0,baseline,0.9656880646944046,0.7977261543273926,3.894686698913574,39.52495200477296,-24.450322774372914,-2.904519631790903,46.566901862181936,19,-2,-30,ok,90,252352.0,77,71.0,0,0,5,0,0,2
1778190673.0784843,6.342861890792847,0.0048596858978271484,1417,-0.10658925026655197,0.8354266285896301,3.86788272857666,3,0.5760792457567776,1.1570242596067197,3.901115046942339,0,1418,0,baseline,0.956653400324285,0.8024387136101723,3.89133620262146,38.057415456750746,-35.45855459965475,-0.9778844320878832,52.025303684908444,11,-4,-30,ok,90,252352.0,77,71.0,0,0,5,0,0,2
1778190673.1501744,6.4145519733428955,-0.0019338130950927734,1421,-0.10658925026655197,0.8354266285896301,3.86788272857666,3,0.5676776610722721,1.0398704722648184,3.906423838158541,0,1422,0,baseline,0.9476187359541655,0.807151272892952,3.8879857063293457,37.994107488189336,-23.271919937186645,-1.8438131829195292,44.59298272643822,17,6,5,ok,80,252339.0,77,71.5,0,0,5,0,0,1
1778190673.218763,6.483140707015991,0.0066890716552734375,1424,-0.10658925026655197,0.8354266285896301,3.86788272857666,3,0.6771025545348461,0.92640899444946,3.8900482360927193,0,1425,0,baseline,0.9385840715840459,0.8118638321757317,3.8846352100372314,26.148151704919975,-11.454516227372835,-0.541302605548788,28.5521415676203,-30,-2,20,ok,80,252334.0,77,71.5,0,-1,5,0,0,0
1778190673.2774742,6.541851758956909,0.004675865173339844,1427,-0.10658925026655197,0.8354266285896301,3.86788272857666,3,0.6771025545348461,0.92640899444946,3.8900482360927193,0,1428,0,baseline,0.9295494072139263,0.8165763914585114,3.881284713745117,25.244685267908018,-10.983260299094866,-0.8763522347602137,27.544402958001733,6,4,-26,ok,80,252334.0,77,71.5,0,-1,5,0,0,0
1778190673.3448005,6.609178066253662,-0.008002758026123047,1431,-0.10658925026655197,0.8354266285896301,3.86788272857666,3,0.5687320723668272,0.7726602398944672,3.9430977487181473,0,1432,0,baseline,0.9205147428438067,0.821288950741291,3.877934217453003,35.17826704769795,4.862871084682386,-6.51635312651444,36.10568993572656,30,27,30,ok,80,252334.0,77,71.5,0,-1,5,0,0,0
1778190673.4118114,6.676188945770264,-0.0006046295166015625,1434,-0.10658925026655197,0.8354266285896301,3.86788272857666,3,0.5687320723668272,0.7726602398944672,3.9430977487181473,0,1435,0,baseline,0.9114800784736872,0.8260015100240707,3.8745837211608887,34.27480061068599,5.334127012960355,-6.851402755725866,35.35755347325155,12,7,-15,ok,80,252334.0,77,71.5,0,-1,5,0,0,0
1778190673.478612,6.742989540100098,0.0058977603912353516,1437,-0.10658925026655197,0.8354266285896301,3.86788272857666,3,0.42373342454818164,1.059934588940561,3.907357751418995,0,1438,0,baseline,0.9024454141035676,0.8307140693068504,3.8712332248687744,47.871198955538595,-22.922051963371047,-3.6124526550220804,53.19889068239129,30,-8,-30,ok,80,252344.0,77,71.5,0,0,5,0,0,0
1778190673.5399976,6.804375171661377,0.007603883743286133,1440,-0.10658925026655197,0.8354266285896301,3.86788272857666,3,0.6600341175652565,0.9217050688929843,3.8816073112981635,0,1441,0,baseline,0.893410749733448,0.8354266285896301,3.86788272857666,23.33766321681915,-8.62784403033542,-1.3724582721503342,24.91926681791144,-30,-4,25,ok,80,252344.0,77,71.5,0,0,5,0,0,0
1778190673.607503,6.871880531311035,0.013752222061157227,1443,-0.10658925026655197,0.8354266285896301,3.86788272857666,3,0.6493611405999804,0.921661306136307,3.8872914180377056,0,1444,0,baseline,0.893410749733448,0.8354266285896301,3.86788272857666,24.404960913346763,-8.62346775466769,-1.9408689461045459,25.956372735105525,14,6,-27,ok,80,252344.99999999997,77,71.5,0,0,5,0,0,0
1778190673.6684716,6.932849168777466,-0.0037186145782470703,1447,-0.10658925026655197,0.8354266285896301,3.86788272857666,3,0.6406429965527265,0.916987963279482,3.872582476080637,0,1448,0,baseline,0.893410749733448,0.8354266285896301,3.86788272857666,25.276775318072154,-8.156133468985182,-0.46997475039769476,26.564238364956243,14,-2,-25,ok,80,252344.99999999997,77,71.5,0,0,5,0,0,0
1778190673.7372634,7.001641035079956,0.0043773651123046875,1450,-0.10658925026655197,0.8354266285896301,3.86788272857666,3,0.7805774315649658,0.8348347874439586,3.8680627535012038,0,1451,0,baseline,0.893410749733448,0.8354266285896301,3.86788272857666,11.283331816848218,0.059184114567156776,-0.01800249245436092,11.283501395322775,-30,0,8,ok,80,252344.99999999997,77,71.5,0,0,5,0,0,0
1778190673.8066204,7.070997953414917,0.013941764831542969,1453,-0.10658925026655197,0.8354266285896301,3.86788272857666,3,0.8184692086789017,0.7283923928198216,3.882221235507056,0,1454,0,baseline,0.893410749733448,0.8354266285896301,3.86788272857666,7.494154105454632,10.703423576980853,-1.4338506930395845,13.144639585568797,-15,9,30,ok,80,252319.0,77,71.5,0,0,5,0,0,0
1778190673.8666904,7.131067991256714,-0.005705356597900391,1457,-0.10658925026655197,0.8354266285896301,3.86788272857666,3,0.8636849264820022,0.6168641451057253,3.871672173980437,0,1458,0,baseline,0.893410749733448,0.8354266285896301,3.86788272857666,2.9725823251445793,21.856248348390483,-0.3789445403776792,22.060721577295826,-20,-1,30,ok,80,252319.0,77,71.5,0,0,5,0,0,0
1778190673.9307244,7.195101976394653,-0.0014803409576416016,1460,-0.006807925179600716,0.893338680267334,3.8966047763824463,3,0.8178626736858583,0.7245750714325987,3.885031719950498,0,1461,0,baseline,0.9058834153693169,0.8426656350493431,3.8714729845523834,8.802074168345865,11.809056361674442,-1.3558735398114585,14.790832122440777,24,7,-30,ok,80,252329.0,77,71.5,0,0,5,0,0,0
1778190673.9962046,7.260582208633423,0.003950357437133789,1463,-0.11475030332803726,0.8468471169471741,3.8332479000091553,3,0.6626125152208354,0.7981355467282012,3.9199609530705057,0,1464,0,baseline,0.9048632837366313,0.8440931960940361,3.8671436309814453,24.225076851579587,4.595764936583491,-5.281732208906043,25.21650449495058,30,20,-30,ok,80,252329.0,77,71.5,0,0,5,0,0,0
1778190674.0618706,7.3262481689453125,-0.010658740997314453,1467,-0.11475030332803726,0.8468471169471741,3.8332479000091553,3,0.6626125152208354,0.7981355467282012,3.9199609530705057,0,1468,0,baseline,0.9038431521039456,0.8455207571387291,3.862814277410507,24.12306368831102,4.73852104105279,-5.714667565999854,25.239516809097207,10,7,-16,ok,80,252329.0,77,71.5,0,0,5,0,0,0
1778190674.1290686,7.393446207046509,-0.003414630889892578,1470,-0.11475030332803726,0.8468471169471741,3.8332479000091553,3,0.7684008940570236,0.827175238073686,3.8766713477738857,0,1471,0,baseline,0.90282302047126,0.8469483181834221,3.858484923839569,13.442212641423634,1.9773080109736108,-1.8186423934316576,13.708037343934274,-30,-10,-29,ok,80,252329.0,77,71.5,0,0,5,0,0,0
1778190674.1962595,7.460637092590332,0.003798246383666992,1473,-0.0781070739030838,0.7261174321174622,3.8473899364471436,3,0.7684008940570236,0.827175238073686,3.8766713477738857,0,1474,0,baseline,0.9063832925166935,0.8332846686244011,3.8559233248233795,13.798239845966986,0.6109430550715111,-2.074802295050615,13.966727563281186,5,4,-25,ok,80,252336.0,77,71.5,0,0,5,0,0,0
1778190674.263622,7.527999639511108,-0.008970022201538086,1477,-0.0781070739030838,0.7261174321174622,3.8473899364471436,3,0.8975922319495988,0.756454307144161,3.826791486247869,0,1478,0,baseline,0.909943564562127,0.8196210190653801,3.85336172580719,1.2351332612528187,6.316671192121914,2.6570239559320807,6.963164900017296,-30,-16,5,ok,80,252336.0,77,71.5,0,0,5,0,0,0
1778190674.3324683,7.596845865249634,-0.00022172927856445312,1480,-0.0781070739030838,0.7261174321174622,3.8473899364471436,3,0.6539551902784465,0.7943374158358409,3.9054816166657145,0,1481,0,baseline,0.9135038366075605,0.8059573695063591,3.8508001267910004,25.954864632911402,1.1619953670518157,-5.468148987471411,26.550063741825358,30,30,-30,ok,70,252337.0,77,71.5,0,0,5,0,0,0
1778190674.398492,7.662869691848755,0.00576329231262207,1483,-0.0781070739030838,0.7261174321174622,3.8473899364471436,3,0.8054553505863072,0.7160363122482513,3.8731413355412685,0,1484,0,baseline,0.917064108652994,0.7922937199473381,3.848238527774811,11.16087580666868,7.625740769908685,-2.49028077664577,13.744765163809136,-30,-6,8,ok,70,252337.0,77,71.5,0,0,5,0,0,0
1778190674.4665356,7.730913162231445,-0.005852937698364258,1487,-0.0781070739030838,0.7261174321174622,3.8473899364471436,3,0.8058799754834562,0.7117964332742204,3.8738705088075647,0,1488,0,baseline,0.9081517150625587,0.7713910639286041,3.842086672782898,10.22717395791024,5.959463065438375,-3.1783836024666723,12.256117228474546,-1,7,-23,ok,70,252327.0,77,71.5,0,0,5,0,0,0
1778190674.5296361,7.794013738632202,0.015761613845825195,1489,-0.0781070739030838,0.7261174321174622,3.8473899364471436,3,0.7905706712151158,0.7032974741191683,3.8646379632890326,0,1490,0,baseline,0.9127321187406778,0.7562998533248901,3.8438544273376465,12.216144752556202,5.300237920572181,-2.0783535951386156,13.477621017690893,12,0,-19,ok,70,252329.0,76,71.5,0,0,5,0,0,0
1778190674.588345,7.852722644805908,-0.0038089752197265625,1493,-0.03963948041200638,1.024025797843933,3.8305461406707764,3,0.7888487471770768,0.7092919271262903,3.8652003846485514,0,1494,0,baseline,0.9221209716051817,0.778447188436985,3.843516707420349,13.327222442810493,6.915526131069472,-2.1683677228202303,15.170404684484359,8,4,-9,ok,70,252329.0,76,71.5,0,0,5,0,0,0
1778190674.6554163,7.9197938442230225,0.002894878387451172,1496,-0.03963948041200638,1.024025797843933,3.8305461406707764,3,0.6134621429617575,0.918883017786681,3.8715412027006297,0,1497,0,baseline,0.9315098244696856,0.8005945235490799,3.8431789875030518,31.804768150792807,-11.828849423760113,-2.836221519757798,34.05156543133974,30,7,-30,ok,70,252327.0,76,71.5,0,0,5,0,0,1
1778190674.7167058,7.981083393096924,-0.01645684242248535,1500,-0.03963948041200638,1.024025797843933,3.8305461406707764,3,0.7416694642395746,0.8179674424584666,3.8568472594109036,0,1501,0,baseline,0.9363182736560702,0.8378330692648888,3.841073513031006,19.464880941649565,1.986562680642212,-1.5773746379897702,19.629471009308585,-30,0,28,ok,70,252327.0,76,71.5,0,0,5,0,0,1
1778190674.7901125,8.054490089416504,-0.0022575855255126953,1503,-0.07855533808469772,0.9095080494880676,3.5822997093200684,3,0.7770461923520915,0.7024648316846612,3.853983693017051,0,1504,0,baseline,0.9362622406333685,0.8607568964362144,3.8079372346401215,15.9216048281277,15.829206475155322,-4.604645837692933,22.918639602444586,-7,17,30,ok,70,252332.00000000003,76,71.5,0,0,5,0,0,0
1778190674.8555772,8.119954824447632,0.003300189971923828,1506,0.03664499893784523,1.0195266008377075,3.597721815109253,3,0.7770461923520915,0.7024648316846612,3.853983693017051,0,1507,0,baseline,0.9506062497384846,0.8974330425262451,3.776728719472885,17.35600573863931,19.496821084158388,-7.725497354416566,27.222054973136416,12,19,7,ok,70,252332.00000000003,76,71.5,0,0,5,0,0,0
1778190674.919926,8.184303522109985,0.0063893795013427734,1509,-0.07226265966892242,0.8976660370826721,3.570742607116699,3,0.9151504745148343,0.6486424164052776,3.8136754399032293,0,1510,0,baseline,0.9513368015177548,0.9188766181468964,3.7421478033065796,3.618632700292046,27.02342017416187,-7.1527636596649735,28.187262522280264,-30,4,26,ok,70,252332.00000000003,76,71.5,0,0,5,0,0,0
1778190674.9882135,8.252591133117676,-0.004374504089355469,1513,0.01683414727449417,0.9475085139274597,3.59905743598938,3,0.8252577648210674,0.6005880847078562,3.840602904051672,0,1514,0,baseline,0.963204454164952,0.9465505033731461,3.711106240749359,13.794668934388465,34.596241866528985,-12.949666330231269,39.43205168845619,30,30,30,ok,70,252332.00000000003,76,71.5,0,0,5,0,0,0
1778190675.0533125,8.317690134048462,0.0008139610290527344,1516,0.01683414727449417,0.9475085139274597,3.59905743598938,3,0.8252577648210674,0.6005880847078562,3.840602904051672,0,1517,0,baseline,0.9750721068121493,0.9742243885993958,3.6800646781921387,14.98143419910819,37.363630389153954,-16.053822585953313,43.33831406666372,10,23,16,ok,70,252335.0,76,71.5,0,0,4,0,0,0
1778190675.123235,8.387612581253052,-0.011836767196655273,1520,0.01683414727449417,0.9475085139274597,3.59905743598938,3,0.7346759886817987,0.8150640261855858,3.843484706797958,0,1521,0,baseline,0.9821313102729619,0.9646597281098366,3.651128590106964,24.745532159116312,14.959570192425076,-19.235611669099395,34.7295099082084,30,26,-30,ok,70,252335.0,76,71.5,0,0,4,0,0,0
1778190675.1934643,8.457841873168945,0.0008296966552734375,1523,0.01683414727449417,0.9475085139274597,3.59905743598938,3,0.7272174478612183,0.8033254975958132,3.829299361909911,0,1524,0,baseline,0.9891905137337744,0.9550950676202774,3.6221925020217896,26.19730658725561,15.176957002446423,-20.71068598881216,36.6820311652443,18,21,-8,ok,70,252326.00000000003,76,71.5,0,0,4,0,0,0
1778190675.2602363,8.524613857269287,0.007728099822998047,1526,0.01683414727449417,0.9475085139274597,3.59905743598938,3,0.7641514944307729,0.6896480857667332,3.8246042333693513,0,1527,0,baseline,0.996249717194587,0.9455304071307182,3.593256413936615,23.20982227638141,25.588232136398503,-23.13478194327363,41.57729680402812,0,26,30,ok,70,252326.00000000003,76,71.5,0,0,4,0,0,0
1778190675.3263984,8.590775966644287,0.01403665542602539,1529,0.03337598964571953,1.01425302028656,3.599181890487671,3,0.8615674385380433,0.7335271714837166,3.7958719854748617,0,1530,0,baseline,1.0102411331608891,0.9586235284805298,3.5953666865825653,14.867369462284586,22.50963569968132,-20.05052988922964,33.6116962216924,-27,2,-16,ok,70,252331.0,76,71.5,0,0,4,0,0,0
1778190675.385414,8.649791479110718,-0.007028341293334961,1533,-0.05199269577860832,0.9677329063415527,3.5737547874450684,3,0.9066095355771557,0.6456668038308261,3.780447416733564,0,1534,0,baseline,0.9991614213213325,0.9521493166685104,3.5923708081245422,9.255188574417673,30.648251283768435,-18.807660860902196,37.13087568802757,-18,9,30,ok,70,252331.0,76,71.5,0,0,4,0,0,0
1778190675.450586,8.714963674545288,-0.0018455982208251953,1536,0.03331698477268219,1.0132784843444824,3.599940299987793,3,0.8609203084732432,0.7369297467651039,3.7765767326181567,0,1537,0,baseline,1.012358876876533,0.9666008725762367,3.596020519733429,15.143856840328985,22.96711258111328,-18.05562128847278,32.90638418949524,28,11,-30,ok,70,252334.0,76,71.5,0,1,4,0,0,0
1778190675.5178542,8.78223180770874,0.0054018497467041016,1539,-0.07817354053258896,0.8985422849655151,3.5888314247131348,3,0.722894503660144,0.7919982748541157,3.794622301676892,0,1540,0,baseline,1.0004829159006476,0.9604800939559937,3.5947422683238983,27.758841224050368,16.848181910187797,-19.988003335299354,38.130496680646,30,22,-29,ok,70,252333.0,76,71.5,0,1,4,0,0,0
1778190675.5852091,8.849586725234985,-0.007317304611206055,1543,0.02972365915775299,1.015814185142517,3.617593765258789,3,0.7315106267899123,0.788338729313937,3.809674193831308,0,1544,0,baseline,1.002094104886055,0.9690183028578758,3.5970593094825745,27.05834780961427,18.067957354393883,-21.261488434873364,38.86716042641278,11,21,-1,ok,70,252333.0,76,71.5,0,1,4,0,0,0
1778190675.6546352,8.919012784957886,0.0019116401672363281,1546,-0.08455638587474823,0.8964901566505432,3.6047232151031494,3,0.727738391693344,0.7877143480384502,3.792663601764362,0,1547,0,baseline,0.9894202882423997,0.9626410081982613,3.5977675318717957,26.16818965490557,17.492666015981108,-19.489606989256636,37.02178135581064,10,9,-8,ok,70,252335.0,76,71.5,0,0,4,1,0,0
1778190675.7280657,8.992443323135376,-0.004297733306884766,1550,-0.06550725549459457,0.9729996919631958,3.6045613288879395,3,0.8543634366714774,0.720356169761295,3.7437599918072557,0,1551,0,baseline,0.9791276128962636,0.9658274054527283,3.5984555184841156,12.47641762247862,24.547123569143324,-14.530447332314012,31.1344852516697,-30,-5,25,ok,70,252327.0,76,71.5,0,0,4,1,0,0
1778190675.7905693,9.054946899414062,-0.0018863677978515625,1553,-0.09069351106882095,0.9075149893760681,3.61678147315979,3,0.6971063887391167,0.8873538581885683,3.775368255940972,0,1554,0,baseline,0.9656866556033492,0.9608282148838043,3.600671023130417,26.85802668642325,7.347435669523605,-17.469723281055494,32.871410677411816,30,26,-30,ok,70,252325.0,76,71.5,0,0,5,1,0,0
1778190675.8555398,9.119917392730713,0.002899646759033203,1556,-0.0076926350593566895,0.9600583910942078,3.660327434539795,3,0.8193105933266607,0.8101587978234834,3.7520125723129722,0,1557,0,baseline,0.9605530775152147,0.9540538862347603,3.6083142161369324,14.124248418855402,14.389508841127686,-14.369835617603988,24.759736140827336,-30,0,19,ok,70,252325.0,76,71.5,0,0,5,1,0,0
1778190675.9196126,9.183990240097046,0.006814002990722656,1559,0.012749786488711834,1.0341172218322754,3.658996343612671,3,0.8163109293569625,0.8077229321595161,3.7359316739692248,0,1560,0,baseline,0.9686458877986297,0.9623519256711006,3.6189694106578827,15.233495844166722,15.462899351158455,-11.696226331134207,24.65689279628353,12,1,-3,ok,70,252333.0,76,72.0,0,1,5,1,0,0
1778190675.9854949,9.24987244606018,-0.007104396820068359,1563,-0.07292532920837402,0.9781711101531982,3.636051893234253,3,0.71731768093024,0.7743243360866621,3.763683444209665,0,1564,0,baseline,0.9553655985509977,0.9579635038971901,3.62348335981369,23.804791762075773,18.3639167810528,-14.020008439597476,33.17321490334646,30,21,5,ok,70,252333.0,76,72.0,0,1,5,1,0,0
1778190676.0531447,9.317522287368774,0.00048732757568359375,1566,-0.014411397278308868,0.961760938167572,3.6755783557891846,3,0.8882218715366299,0.623039012837748,3.717762184874368,0,1567,0,baseline,0.9633358664577827,0.9658658355474472,3.6343267261981964,7.511399492115278,34.28268227096992,-8.343545867617141,36.074065250085916,-30,-11,30,ok,70,252334.0,76,72.0,0,0,5,1,0,0
1778190676.1205125,9.384890079498291,-0.011757135391235352,1570,-0.016601718962192535,0.9642317891120911,3.6923162937164307,3,0.7194042387280138,0.764870641484729,3.7643031183220703,0,1571,0,baseline,0.9575451941927895,0.959418036043644,3.6436670422554016,23.814095546477564,19.45473945589149,-12.06360760666687,33.03223671628996,30,25,-30,ok,70,252331.0,76,72.0,0,0,5,1,0,0
1778190676.1879792,9.452356815338135,-0.004734516143798828,1573,-0.016601718962192535,0.9642317891120911,3.6923162937164307,3,0.7510902876536856,0.6603714796278553,3.742691971368646,0,1574,0,baseline,0.966039527556859,0.9678857401013374,3.6546161770820618,21.49492399031734,30.751426047348218,-8.80757942865844,38.53901162052776,2,-3,30,ok,70,252331.0,76,72.0,0,0,5,1,0,0
1778190676.2496808,9.514058351516724,-0.0029349327087402344,1576,-0.0171042550355196,0.9687319397926331,3.6911048889160156,3,0.6858029531772645,0.8700485922771449,3.7306151927379765,0,1577,0,baseline,0.9720899026142433,0.9673522710800171,3.6654341220855713,28.628694943697887,9.730367880287217,-6.518107065240519,30.931665861685758,30,0,-30,ok,70,252331.0,76,72.0,0,0,5,1,0,0
1778190676.3177817,9.582159280776978,-0.016618728637695312,1580,-0.043396756052970886,0.8921390175819397,3.7059166431427,3,0.8007360386268756,0.7862242926899115,3.6930977480562723,0,1581,0,baseline,0.9780019969912246,0.965430274605751,3.676576018333435,17.7265958364349,17.92059819158396,-1.6521729722837275,25.260833616942612,-26,-10,22,ok,70,252332.00000000003,76,72.0,0,0,5,1,0,0
1778190676.3906329,9.655010461807251,-0.0018970966339111328,1583,-0.0771665871143341,0.8150048851966858,3.716001272201538,3,0.7114042673104862,0.7570925185540793,3.73418007973027,0,1584,0,baseline,0.9693177529843524,0.9472985863685608,3.683535248041153,25.791348567386617,19.020606781448144,-5.0644831689117265,32.444200298776,30,20,0,ok,70,252333.0,76,72.0,0,0,4,1,0,0
1778190676.4583042,9.722681760787964,0.005572319030761719,1586,-0.04733816161751747,0.8918153047561646,3.72442364692688,3,0.7996720775375182,0.7822406898360876,3.6770659995058197,0,1587,0,baseline,0.9618067594710737,0.9295108467340469,3.691713660955429,16.213468193355553,14.72701568979593,1.4647661449609384,21.95238214508556,-25,-19,-22,ok,70,252334.0,75,72.0,0,0,4,0,0,0
1778190676.52682,9.791197538375854,-0.00580286979675293,1590,-0.05585964769124985,0.8998726606369019,3.737881898880005,3,0.7987486037535338,0.7730358101333904,3.6786732388095746,0,1591,0,baseline,0.9639399696607143,0.9197235405445099,3.704442411661148,16.51913659071804,14.66877304111195,2.576917285157343,22.241746310238213,10,-1,-6,ok,70,252334.0,75,72.0,0,0,4,0,0,0
1778190676.592066,9.856443643569946,-0.0011444091796875,1593,-0.08106453716754913,0.8216807246208191,3.7327353954315186,3,0.7991875826285462,0.7760133621773277,3.678580239049259,0,1594,0,baseline,0.9556083271745592,0.9022135138511658,3.71158704161644,15.642074454601307,12.620015167383801,3.3006802567181026,20.367468331272217,6,0,-15,ok,70,252340.0,75,72.0,0,0,4,0,0,0
1778190676.6634889,9.927866458892822,-0.009245157241821289,1597,-0.0573999285697937,0.9010593295097351,3.7384097576141357,3,0.8010203018862431,0.7745522874059547,3.678026050702142,0,1598,0,baseline,0.9505085509736091,0.8943169564008713,3.717348724603653,14.948824908736603,11.976466899491655,3.9322673901510896,19.55417736378416,6,0,-10,ok,70,252348.0,75,72.0,0,0,4,0,0,0
1778190676.733085,9.997462511062622,-0.00020503997802734375,1600,0.047146882861852646,0.9535017609596252,3.770117998123169,3,0.8057440687207906,0.7746830739710326,3.676399724673743,0,1601,0,baseline,0.9584771262016147,0.892975702881813,3.7270739376544952,15.27330574808241,11.829262891078042,5.067421298075203,19.97208270643874,10,-2,-8,ok,70,252348.0,75,72.0,0,0,4,0,0,0
1778190676.79699,10.061367511749268,0.004344463348388672,1603,-0.0922827199101448,0.8272424340248108,3.766191005706787,3,0.8836318371924886,0.798213907282641,3.6362955100640386,0,1604,0,baseline,0.9490798180922866,0.8752895146608353,3.7364597022533417,6.544798089979798,7.7075607378194295,10.016419218930306,14.232692244798073,-27,-19,-26,ok,70,252335.0,75,72.0,0,0,4,0,0,0
1778190676.8672295,10.131607055664062,-0.005352020263671875,1607,-0.032890550792217255,0.9788864850997925,3.7607192993164062,3,0.9164685672754643,0.7190313650345443,3.6271319345856923,0,1608,0,baseline,0.9503930937498808,0.8861329481005669,3.743310034275055,3.392452647441646,16.710158306602253,11.617809968936266,20.63278057051829,-10,-8,30,ok,70,252335.0,75,72.0,0,0,4,0,0,0
1778190676.9302213,10.194598913192749,-0.0022983551025390625,1610,-0.08637005090713501,0.8264569044113159,3.7498371601104736,3,0.9164685672754643,0.7190313650345443,3.6271319345856923,0,1611,0,baseline,0.9492426607757807,0.8875644505023956,3.747539520263672,3.277409350031635,16.85330854678513,12.04075856779796,20.970343056536187,1,-4,-4,ok,70,252338.0,75,71.5,0,0,4,0,0,0
1778190676.9934518,10.257829427719116,0.0004367828369140625,1613,0.013269953429698944,0.8729751706123352,3.803183078765869,3,0.7716941020994216,0.8538079216319536,3.648289764435255,0,1614,0,baseline,0.9568186751566827,0.885209433734417,3.7573844492435455,18.512457305726116,3.1401512102463336,10.909468480829032,21.71607993293785,30,1,-30,ok,70,252338.0,75,71.5,0,0,4,0,0,0
