timestamp,elapsed,target_x,target_y,target_z,pos_x,pos_y,pos_z,marker_id,publish_count,err_x_cm,err_y_cm,err_z_cm,err_3d_cm,cmd_lr,cmd_fb,cmd_ud,vel_x_pub,vel_y_pub,vel_z_pub,tello_height_cm,tello_baro_cm,tello_battery,tello_temp_c,tello_pitch,tello_roll,tello_yaw,tello_vgx,tello_vgy,tello_vgz
1778110713.76328,6.9141387939453125e-06,-0.042195981012722775,1.4059009291781954,3.8504758085982336,0.001446766700018494,1.4570840900007558,3.8153853246582803,0,0,-4.364274771274127,-5.118316082256036,3.5090483939953288,7.586664249092732,-24,-19,-29,0.0,0.0,0.0,120,249804.0,55,65.5,0,0,0,0,0,0
1778110713.834707,0.07143402099609375,-0.042195981012722775,1.4059009291781954,3.8504758085982336,0.08210186390022395,1.2539674678907842,3.9009334444939316,0,3,-12.429784491294672,15.193346128741126,-5.045763589569807,20.268128657811282,-30,30,30,1.1291945138047064,-2.843691016573958,1.197698235301104,120,249804.0,55,65.5,0,0,0,0,0,0
1778110713.9063191,0.14304614067077637,-0.042195981012722775,1.4059009291781954,3.8504758085982336,0.08210186390022395,1.2539674678907842,3.9009334444939316,0,7,-12.429784491294672,15.193346128741126,-5.045763589569807,20.268128657811282,-7,3,10,0.0,0.0,0.0,120,249796.99999999997,55,65.5,0,-1,0,0,0,0
1778110713.976039,0.21276593208312988,-0.042195981012722775,1.4059009291781954,3.8504758085982336,0.06666834463210926,1.3968567605627724,3.8494128466332356,0,10,-10.886432564483203,0.9044168615423009,0.10629619649979993,10.92445342897633,-1,-18,-30,-0.22136496618060814,2.049479635228369,-0.7389666092943479,120,249800.0,55,65.5,0,-1,0,0,0,0
1778110714.0470972,0.28382420539855957,-0.042195981012722775,1.4059009291781954,3.8504758085982336,-0.002741126391736775,1.329082500831536,3.8847363516232196,0,14,-3.9454854620985995,7.681842834665953,-3.4260543024986045,9.290608857971002,21,14,29,-0.9767964768259345,-0.9537842191912638,0.4971061544541338,120,249800.0,55,65.5,0,-1,0,0,0,0
1778110714.118491,0.35521793365478516,-0.042195981012722775,1.4059009291781954,3.8504758085982336,0.09229923997883384,1.0728647771947415,3.9539085677080026,0,17,-13.449522099155661,33.30361519834539,-10.343275910976901,37.37651383617436,-30,30,30,1.3312145014962575,-3.588798762788411,0.9688836509074045,120,249792.0,55,66.0,0,-2,0,0,0,0
1778110714.189179,0.4259059429168701,-0.042195981012722775,1.4059009291781954,3.8504758085982336,-0.24345820864137827,1.2777085514985762,3.863555801754424,0,21,20.12622276286555,12.819237767961923,-1.3079993156190461,23.897877768992135,30,-30,-30,-4.749850110721718,2.8978574505380377,-1.278190840239735,120,249801.00000000003,55,66.0,0,-2,0,0,0,0
1778110714.2593338,0.496060848236084,-0.042195981012722775,1.4059009291781954,3.8504758085982336,-0.07745647152283332,1.3972135940265473,3.848422193965387,0,24,3.5260490510110545,0.8687335151648101,0.20536146328464788,3.6372920093263033,-30,-5,-30,2.366217107174696,1.7034452827526139,-0.21571702962433023,120,249801.00000000003,55,66.0,0,-2,0,0,0,0
1778110714.3286662,0.5653932094573975,-0.042195981012722775,1.4059009291781954,3.8504758085982336,-0.07349300669235871,1.3967474163862472,3.84773116980762,0,28,3.1297025679635935,0.9153512791948204,0.2744638790613596,3.2723441978421093,0,0,1,0.0571661596497913,-0.006723810239377727,-0.009966834326633164,120,249792.0,55,66.0,0,-1,0,0,0,0
1778110714.400063,0.6367900371551514,-0.042195981012722775,1.4059009291781954,3.8504758085982336,-0.011892210543337828,1.459249504561849,3.833690033209402,0,31,-3.030377046938495,-5.334857538365356,1.6785775388831414,6.3609364527016234,-23,-5,-25,0.8627945825520033,0.8754182810501543,-0.19666331195635942,120,249785.0,55,66.0,0,0,0,0,0,0
1778110714.469816,0.70654296875,-0.042195981012722775,1.4059009291781954,3.8504758085982336,-0.1058710727786715,1.2522392557305748,3.900036314543055,0,35,6.367509176594872,15.366167344762061,-4.956050594482164,17.355884001580527,30,26,30,-1.3473105729978259,-2.9677641369063577,0.9511611887370887,120,249786.0,55,66.0,0,0,0,0,0,0
1778110714.540828,0.777554988861084,-0.042195981012722775,1.4059009291781954,3.8504758085982336,-0.015785854643401178,1.4572717271437763,3.833759467337186,0,39,-2.64101263693216,-5.137079796558086,1.6716341261047596,6.0132268572039305,-30,-24,-30,1.268591120127975,2.8872924765760715,-0.9333187128347071,120,249786.0,55,66.0,0,0,0,0,0,0
1778110714.612535,0.849261999130249,-0.042195981012722775,1.4059009291781954,3.8504758085982336,-0.00845611329901402,1.4487989682346454,3.8171052892445783,0,42,-3.373986771370875,-4.2898039056449955,3.3370519353655315,6.397039932781376,-4,-7,0,0.10221791867871312,-0.11815802774828983,-0.23225313717715038,120,249792.0,55,66.0,0,-1,0,0,0,0
1778110714.684345,0.9210720062255859,-0.042195981012722775,1.4059009291781954,3.8504758085982336,-0.00845611329901402,1.4487989682346454,3.8171052892445783,0,46,-3.373986771370875,-4.2898039056449955,3.3370519353655315,6.397039932781376,-2,-1,-2,0.0,0.0,0.0,120,249792.99999999997,55,66.0,0,-1,0,0,0,0
1778110714.757823,0.9945499897003174,-0.042195981012722775,1.4059009291781954,3.8504758085982336,0.1055022166698591,1.5602311098863688,3.7637073465066853,0,49,-14.769819768258186,-15.43301807081734,8.676846209154832,23.056740508977615,-30,-23,-30,1.5509180380278478,1.516537830546808,-0.726720307400055,120,249792.99999999997,55,66.0,0,-1,0,0,0,0
1778110714.829319,1.0660459995269775,-0.042195981012722775,1.4059009291781954,3.8504758085982336,0.09855493362499389,1.6600015893404776,3.7137272662832777,0,53,-14.075091463771667,-25.410066016228217,13.674854231495592,32.1057828578477,-6,-25,-30,-0.09717022057187077,1.3954691974559026,-0.6990611132646808,120,249787.0,55,66.0,0,-1,0,0,0,0
1778110714.900724,1.137450933456421,-0.042195981012722775,1.4059009291781954,3.8504758085982336,0.05004225143579763,1.613104572936145,3.749013400212188,0,57,-9.22382324485204,-20.720364375794965,10.146240838604559,24.84670236214361,11,6,2,-0.6794023818736756,-0.6567755731091692,0.4941694080100581,120,249784.0,55,66.0,0,-1,0,0,0,0
1778110714.971904,1.2086310386657715,-0.042195981012722775,1.4059009291781954,3.8504758085982336,-0.008397667864004577,1.5560508444919723,3.7674043587663935,0,60,-3.37983131487182,-15.014991531377685,8.307144983184012,17.48947935691543,17,1,9,-0.8210147923766378,-0.8015403781206818,0.25837217436129245,120,249784.0,55,66.0,0,-1,0,0,0,0
1778110715.0438988,1.280625820159912,-0.042195981012722775,1.4059009291781954,3.8504758085982336,0.03528790720021654,1.4982343356225232,3.801624991306614,0,64,-7.748388821293931,-9.233340644432776,4.885081729161955,13.00600370147106,-20,8,13,0.6067880776577746,-0.8030652731983716,0.47532101396829224,120,249783.0,55,66.0,0,-1,0,0,0,0
1778110715.1150951,1.3518221378326416,-0.042195981012722775,1.4059009291781954,3.8504758085982336,-0.03362945442982017,1.3066863591905316,3.887649696251543,0,67,-0.8566526582902606,9.921456998766388,-3.7173887653309645,10.629588044131117,23,30,30,-0.967990534943555,-2.690419711205945,1.2082746377468825,120,249791.0,55,66.0,0,-1,0,0,-1,0
1778110715.186194,1.4229209423065186,-0.042195981012722775,1.4059009291781954,3.8504758085982336,-0.1091186087511541,1.2446350139679971,3.936858064982318,0,71,6.692262773843133,16.12659152101983,-8.638225638408459,19.480048185260028,30,22,30,-1.0617499813104463,-0.8727480817955702,0.6921124637033106,120,249786.0,55,66.0,0,0,0,0,-1,0
1778110715.2567139,1.493440866470337,-0.042195981012722775,1.4059009291781954,3.8504758085982336,-0.18038654695819845,1.3338487298619248,3.9119049071482546,0,74,13.819056594547568,7.20521993162706,-6.142909855002099,16.751622635228696,30,-5,-26,-1.010607130567644,1.2650852500448453,-0.35384550011848015,120,249786.0,55,66.0,0,0,0,0,-1,0
1778110715.32861,1.5653369426727295,-0.042195981012722775,1.4059009291781954,3.8504758085982336,-0.12094901351758255,1.2448269707968822,3.956366409564004,0,78,7.875303250485978,16.10739583813132,-10.589060096577052,20.822987194499394,-16,21,30,0.826714566081395,-1.238200521742522,0.6184134762874574,120,249792.99999999997,55,66.0,0,0,0,0,-1,0
1778110715.39975,1.636476993560791,-0.042195981012722775,1.4059009291781954,3.8504758085982336,-0.09667003472148755,1.3938418329973619,3.9039638268346994,0,81,5.447405370876478,1.2059096180833562,-5.348801823646587,7.7290441990122485,-5,-15,-30,0.3412842483666176,2.0946690414230056,-0.7366115440620056,120,249792.99999999997,55,66.0,-2,0,0,0,0,0
1778110715.471425,1.7081520557403564,-0.042195981012722775,1.4059009291781954,3.8504758085982336,-0.24481891950912565,1.1821982130455795,3.9772032930137513,0,85,20.26229384964029,22.370271613261593,-12.672748441551773,32.73512115699469,30,30,30,-2.0669516046806495,-2.9528208768282314,1.0218263361330218,120,249792.99999999997,55,66.0,-2,0,0,0,0,0
1778110715.544925,1.7816519737243652,-0.042195981012722775,1.4059009291781954,3.8504758085982336,-0.11046211711756851,1.3988078236471408,3.9219963353742893,0,89,6.826613610484573,0.7093105531054578,-7.152052677605569,9.912498794493999,-30,-14,-30,1.8279857457907485,2.9470728205259853,-0.7511159080677245,120,249784.0,55,66.0,-1,1,0,0,0,0
1778110715.614913,1.851639986038208,-0.042195981012722775,1.4059009291781954,3.8504758085982336,-0.12213484538408673,1.2416256858166252,3.9574384962382076,0,92,7.993886437136395,16.427524336157017,-10.696268763997407,21.170166311499088,8,19,30,-0.16678182278094922,-2.2458437185738864,0.5064033066832555,120,249786.0,55,66.0,-1,0,0,0,0,0
1778110715.687385,1.92411208152771,-0.042195981012722775,1.4059009291781954,3.8504758085982336,-0.10483801264301368,1.3973463147238494,3.923095016913401,0,96,6.26420316302909,0.8554614454346021,-7.261920831516733,9.628475980940358,-2,-7,-30,0.23866886453667682,2.1486977553971967,-0.4738855568179565,120,249794.99999999997,55,66.0,-1,0,0,0,0,0
1778110715.7587042,1.9954311847686768,-0.042195981012722775,1.4059009291781954,3.8504758085982336,-0.02639654511230756,1.45569324853632,3.8911585779312268,0,99,-1.5799435900415215,-4.979231935812467,-4.06827693329932,6.621166787231944,-28,-8,-23,1.0998661503871536,0.8181108729779332,-0.44779641822289973,120,249790.0,54,66.0,0,0,0,0,0,0
1778110715.829794,2.066520929336548,-0.042195981012722775,1.4059009291781954,3.8504758085982336,-0.13478509659440302,1.243953686940257,3.97594041081953,0,103,9.258911558168025,16.194724223793845,-12.54646022212964,22.481330032544648,30,30,30,-1.5246721188963381,-2.978482520694813,1.1926028628132141,120,249790.0,54,66.0,0,0,0,0,0,0
1778110715.9006112,2.137338161468506,-0.042195981012722775,1.4059009291781954,3.8504758085982336,-0.19416896403749656,1.3327279193269874,3.931726084933835,0,107,15.19729830247738,7.3173009851208,-8.125027633560133,18.722095060314363,30,-10,-25,-0.8385510935027792,1.2535682307000091,-0.6243441681441017,120,249792.99999999997,54,66.0,0,0,0,0,0,0
1778110715.969794,2.2065210342407227,-0.042195981012722775,1.4059009291781954,3.8504758085982336,-0.1871882944681486,1.3308419251365513,3.932732118259983,0,110,14.499231345542585,7.505900404164412,-8.225630966174924,18.28188325311416,6,5,6,0.10090170138397787,-0.027260998493741518,0.014541652953040097,120,249788.0,54,66.0,0,-1,0,0,0,0
1778110716.042437,2.2791640758514404,-0.042195981012722775,1.4059009291781954,3.8504758085982336,-0.09950552524762503,1.3876276221215833,3.9061154687131765,0,114,5.730954423490226,1.827330705661212,-5.563966011494292,8.193942511943696,-26,-5,-17,1.2070360391901163,0.7817086912375902,-0.3664032914458704,120,249788.0,54,66.0,0,-1,0,0,0,0
1778110716.1123729,2.34909987449646,-0.042195981012722775,1.4059009291781954,3.8504758085982336,-0.09950552524762503,1.3876276221215833,3.9061154687131765,0,117,5.730954423490226,1.827330705661212,-5.563966011494292,8.193942511943696,3,3,2,0.0,0.0,0.0,120,249788.0,54,66.0,0,0,0,0,0,0
1778110716.1820228,2.4187498092651367,-0.042195981012722775,1.4059009291781954,3.8504758085982336,-0.19423657206403253,1.330103826355495,3.9322429081907497,0,121,15.204059105130973,7.579710282270047,-8.176709959251616,18.85401832483439,30,14,26,-1.3601024484951896,-0.8258987744516622,0.37512511051659114,120,249786.0,54,66.0,0,1,0,0,0,0
1778110716.2531,2.4898269176483154,-0.042195981012722775,1.4059009291781954,3.8504758085982336,-0.10320776709957745,1.3859052628468247,3.906358694929157,0,124,6.101178608685467,1.9995666331370732,-5.588288633092331,8.511851560159236,-27,-5,-17,1.2807049559995631,0.7850830986328623,-0.3641708821643435,120,249789.0,54,66.0,0,0,0,0,0,0
1778110716.325399,2.5621259212493896,-0.042195981012722775,1.4059009291781954,3.8504758085982336,-0.09927140367161448,1.3852163669305124,3.9066542151518058,0,128,5.70754226588917,2.0684562247683003,-5.61784065535722,8.271316914474893,2,4,2,0.05444561103058525,-0.009528428913258707,0.004087472965457328,120,249789.0,54,66.0,0,0,0,0,0,0
1778110716.396951,2.6336779594421387,-0.042195981012722775,1.4059009291781954,3.8504758085982336,-0.12198555275258686,1.2327635563531925,3.959026594571264,0,131,7.978957173986409,17.3137372825003,-10.855078597303036,21.937684190118528,13,25,30,-0.3174493648913862,-2.1306564345048846,0.7319481141595977,110,249786.0,54,66.0,0,0,0,0,0,0
1778110716.468601,2.7053279876708984,-0.042195981012722775,1.4059009291781954,3.8504758085982336,-0.22823599529981814,1.1614337310108778,3.9638550558450403,0,135,18.604001428709537,24.446719816731765,-11.33792472468067,32.745984731257316,30,9,30,-1.4829085929736336,-0.9955310152087763,0.06738952367695278,110,249785.0,54,66.0,0,0,0,0,0,0
1778110716.539913,2.776639938354492,-0.042195981012722775,1.4059009291781954,3.8504758085982336,-0.2366731282463444,1.1646149891019109,3.9623719181678076,0,138,19.447714723362164,24.128594007628458,-11.189610956957408,32.948597088712326,15,6,17,-0.11831302980283406,0.044610448326510024,-0.02079788398740075,110,249785.0,54,66.0,0,0,0,0,0,0
1778110716.610653,2.8473799228668213,-0.042195981012722775,1.4059009291781954,3.8504758085982336,-0.23614616171395705,1.163345615271898,3.9624721356185644,0,142,19.395018070123427,24.25553139062975,-11.19963270203308,33.01407732532727,12,7,18,0.007449344752054653,-0.017944219789752337,0.001416701621404181,110,249777.0,54,66.0,0,0,0,0,0,0
1778110716.680209,2.916935920715332,-0.042195981012722775,1.4059009291781954,3.8504758085982336,-0.12386804891630751,1.2305490147676097,3.959475064023602,0,146,8.167206790358474,17.535191441058572,-10.899925542536826,22.20348131406195,-30,6,-10,1.6142118044540932,0.9661769160738255,-0.04308861475167108,110,249781.0,54,66.0,0,1,0,0,0,0
1778110716.7497852,2.9865121841430664,-0.042195981012722775,1.4059009291781954,3.8504758085982336,-0.12386804891630751,1.2305490147676097,3.959475064023602,0,149,8.167206790358474,17.535191441058572,-10.899925542536826,22.20348131406195,5,7,14,0.0,0.0,0.0,110,249781.0,54,66.0,0,1,0,0,0,0
1778110716.822348,3.059075117111206,-0.042195981012722775,1.4059009291781954,3.8504758085982336,-0.10088868655792944,1.3757894744581596,3.8897728516401946,0,153,5.869270554520667,3.0111454720035846,-3.929704304196102,7.678405421319481,-3,-20,-30,0.3166818293917042,2.0015792326685706,-0.9605760066783894,110,249773.0,54,66.0,0,1,0,0,0,0
1778110716.893137,3.129863977432251,-0.042195981012722775,1.4059009291781954,3.8504758085982336,-0.12293230597478438,1.2269460466508475,3.9408999170962296,0,156,8.07363249620616,17.895488252734793,-9.042410849799598,21.61474578763624,13,24,30,-0.3113995523713999,-2.102639131810718,0.7222473313479144,110,249773.0,54,66.0,0,1,0,0,0,0
1778110716.963485,3.200212001800537,-0.042195981012722775,1.4059009291781954,3.8504758085982336,-0.15913897306332025,1.0389943546949052,3.990985405279001,0,160,11.694299205059748,36.69065744832902,-14.050959668076723,40.99256573431336,20,27,30,-0.5146792310610835,-2.671740871811512,0.7119672319518683,110,249773.0,54,66.0,0,1,0,0,0,0
1778110717.035398,3.272125005722046,-0.042195981012722775,1.4059009291781954,3.8504758085982336,-0.18406470320615384,1.3217266338779123,3.9145481879603254,0,163,14.186872219343105,8.417429530028308,-6.407237936209187,17.69669916205166,18,-21,-30,-0.34660949735932856,3.93158766516835,-1.0629123128009594,110,249775.0,54,66.0,0,0,0,0,0,0
1778110717.107656,3.3443830013275146,-0.042195981012722775,1.4059009291781954,3.8504758085982336,-0.1830635401776004,1.3221487464406265,3.9142012848197854,0,167,14.086755916487764,8.37521827375689,-6.372547622155178,17.58380893266331,9,4,8,0.013855394412264393,0.005841741930110168,-0.004800896255608759,110,249787.0,54,65.5,0,0,0,0,0,0
1778110717.178923,3.415649890899658,-0.042195981012722775,1.4059009291781954,3.8504758085982336,-0.22918955151856016,1.1680807920746161,3.960717339808467,0,170,18.699357050583735,23.78201371035793,-11.024153121023339,32.19910064366142,28,24,30,-0.6472291918151745,-2.161844796243664,0.6527021912692479,110,249790.0,54,65.5,-1,0,0,0,0,0
1778110717.2501929,3.48691987991333,-0.042195981012722775,1.4059009291781954,3.8504758085982336,-0.09450094972062578,1.3816871855674129,3.8872622669329013,0,174,5.230496870790301,2.4213743610782545,-3.678645833466776,6.837659429945068,-30,-22,-30,1.8898361521017881,2.9971436287414073,-1.0306592423000738,110,249790.0,54,65.5,-1,0,0,0,0,0
1778110717.320912,3.5576388835906982,-0.042195981012722775,1.4059009291781954,3.8504758085982336,-0.11968313407083753,1.234120954768174,3.9388015993211862,0,178,7.7487153058114755,17.177997441002148,-8.832579072295266,20.812031088818355,14,25,30,-0.3560879401680636,-2.0866559641091746,0.7287904199473155,120,249788.0,54,65.5,0,0,0,0,0,0
1778110717.390239,3.6269659996032715,-0.042195981012722775,1.4059009291781954,3.8504758085982336,-0.09308670652087996,1.3834456892740914,3.886502279596738,0,181,5.089072550815718,2.245523990410403,-3.602647099850431,6.627224422413608,-5,-15,-30,0.3836367222478145,2.1539152801168844,-0.7543847592760571,120,249784.0,54,65.5,0,0,0,0,1,0
1778110717.461615,3.6983420848846436,-0.042195981012722775,1.4059009291781954,3.8504758085982336,-0.1513232245037755,1.0502181094676066,3.988673038725161,0,185,10.912724349105272,35.56828197105888,-13.819723012692764,39.688474135948546,28,30,30,-0.81591078795259,-4.668616645097114,1.4314424603934974,120,249784.0,54,65.5,0,0,0,0,1,0
1778110717.533061,3.7697880268096924,-0.042195981012722775,1.4059009291781954,3.8504758085982336,-0.14978455749778638,1.0506232923029133,3.988450798786947,0,188,10.75885764850636,35.527763687528214,-13.79749901887135,39.6023482853407,7,9,27,0.021536100785168114,0.00567118053719164,-0.003110602677018014,120,249789.0,54,65.5,0,0,0,0,0,0
1778110717.602342,3.83906888961792,-0.042195981012722775,1.4059009291781954,3.8504758085982336,-0.08930789382870323,1.3848533547386865,3.8852247816279215,0,192,4.711191281598046,2.1047574439508887,-3.4748973029687935,6.220951571572625,-17,-30,-30,0.8729201862927891,4.824276847719647,-1.4899643707492458,120,249783.0,54,65.5,0,-1,0,0,0,0
1778110717.674174,3.9109010696411133,-0.042195981012722775,1.4059009291781954,3.8504758085982336,-0.02636757932449824,1.1358311535510937,3.959831554876609,0,195,-1.5828401688224536,27.006977562710176,-10.935574627837541,29.179941955284505,-21,30,30,0.8762133417624617,-3.4667220333169335,1.0386260478882618,120,249783.0,54,65.5,0,-1,0,0,0,0
1778110717.746175,3.9829020500183105,-0.042195981012722775,1.4059009291781954,3.8504758085982336,-0.14522038683523586,1.0517064878691076,3.987851707389158,0,199,10.30244058225131,35.419444130908786,-13.737589879092438,39.362401859890745,30,19,30,-1.6507109609910027,-1.1683822253707585,0.38916348591029687,110,249775.0,54,65.5,0,0,0,0,0,0
1778110717.818232,4.054959058761597,-0.042195981012722775,1.4059009291781954,3.8504758085982336,-0.14522038683523586,1.0517064878691076,3.987851707389158,0,202,10.30244058225131,35.419444130908786,-13.737589879092438,39.362401859890745,7,10,28,0.0,0.0,0.0,110,249775.0,54,65.5,0,0,0,0,0,0
1778110717.8922849,4.129011869430542,-0.042195981012722775,1.4059009291781954,3.8504758085982336,-0.10690742645992586,1.239738356903373,3.93570168796956,0,206,6.471144544720309,16.616257227482233,-8.52258793713263,19.763861493004793,-7,-11,-30,0.5173734802125055,2.539159112742743,-0.7042274148477072,110,249784.0,53,65.5,0,0,0,0,0,0
1778110717.962332,4.199059009552002,-0.042195981012722775,1.4059009291781954,3.8504758085982336,-0.08621053953760162,1.3879519333023427,3.884097384706413,0,210,4.401455852487884,1.7948995875852747,-3.3621576108179507,5.822248874008626,-3,-14,-30,0.2954708341616284,2.115911886509157,-0.7367082106944873,110,249784.0,53,65.5,0,0,0,0,0,0
1778110718.0330172,4.269744157791138,-0.042195981012722775,1.4059009291781954,3.8504758085982336,-0.10935911578853219,1.2413857490102456,3.9359820183268823,0,213,6.716313477580941,16.451518016794985,-8.550620972864875,19.71989936099224,13,25,30,-0.3274885435992347,-2.073507489808854,0.7340245428210427,110,249783.0,53,65.5,-1,-1,0,0,0,0
1778110718.1046069,4.341333866119385,-0.042195981012722775,1.4059009291781954,3.8504758085982336,-0.17254672825715292,1.3285985761412276,3.8927911457612403,0,217,13.035074724443014,7.730235303696786,-4.231533716300673,15.734534899847615,30,-10,-21,-0.8826354226629649,1.2182313515107663,-0.6033111961793013,120,249778.00000000003,53,66.0,0,-1,0,0,0,0
1778110718.175814,4.412540912628174,-0.042195981012722775,1.4059009291781954,3.8504758085982336,-0.10550016695391083,1.243852197157501,3.9351940361367337,0,220,6.330418594118806,16.204873202069447,-8.471822753850011,19.3505528563027,-18,22,30,0.9415720015148579,-1.1901403461982711,0.5954872790610632,120,249778.00000000003,53,66.0,0,-1,0,0,0,0
1778110718.245804,4.4825310707092285,-0.042195981012722775,1.4059009291781954,3.8504758085982336,-0.10978028865448608,1.2426273597645499,3.9353205597448553,0,224,6.758430764176331,16.327356941364556,-8.484475114662171,19.602175620481827,7,7,16,-0.06115319379073977,-0.017500137541232964,0.0018077342813695718,120,249780.00000000003,53,66.0,0,0,0,0,0,0
1778110718.317024,4.553750991821289,-0.042195981012722775,1.4059009291781954,3.8504758085982336,-0.022719607231211143,1.1417016923598573,3.9585758234060604,0,227,-1.9476373781511631,26.41992368183381,-10.810001480782683,28.612266438106897,-29,16,30,1.2224203574487236,-1.4170988373588855,0.32652751221970977,120,249780.00000000003,53,66.0,0,0,0,0,0,0
1778110718.387728,4.624454975128174,-0.042195981012722775,1.4059009291781954,3.8504758085982336,-0.08554531003601178,1.3891915843589284,3.8838386611905773,0,231,4.3349329023289,1.6709344819267002,-3.336285259234373,5.719655989792558,26,-22,-30,-0.8885737389378882,3.5003670291794142,-1.057043163906235,120,249780.00000000003,53,66.0,0,0,0,0,0,0
1778110718.459533,4.69625997543335,-0.042195981012722775,1.4059009291781954,3.8504758085982336,-0.09872135362974707,1.2407164439282359,3.936198839059346,0,234,5.65253726170243,16.518448524995954,-8.572303046111251,19.44979945095177,9,25,30,-0.1834975772959582,-2.067754888930629,0.7291996051282602,120,249782.00000000003,53,66.0,0,0,0,0,0,0
1778110718.531199,4.767925977706909,-0.042195981012722775,1.4059009291781954,3.8504758085982336,-0.10967620873213162,1.242581525050907,3.935951913289991,0,238,6.748022771940884,16.33194041272885,-8.547610469175737,19.629817464977133,9,7,15,-0.15285986039193686,0.02602462902216513,-0.0034455077933968252,120,249784.0,53,66.0,0,0,0,0,0,0
1778110718.600884,4.837610960006714,-0.042195981012722775,1.4059009291781954,3.8504758085982336,-0.10550016695391083,1.243852197157501,3.9351940361367337,0,242,6.330418594118806,16.204873202069447,-8.471822753850011,19.3505528563027,4,7,15,0.059927428269325816,0.018234518610153985,-0.010875760145803787,120,249781.0,53,66.0,0,-1,0,0,0,0
1778110718.6706991,4.907426118850708,-0.042195981012722775,1.4059009291781954,3.8504758085982336,-0.0858361590834602,1.3901991936715086,3.88381318300011,0,245,4.364017807073743,1.5701735506686854,-3.3337374401876563,5.711733687750609,-2,-14,-30,0.281658141241087,2.096206596636529,-0.7359555429994356,120,249781.0,53,66.0,0,-1,0,0,0,0
1778110718.741798,4.978524923324585,-0.042195981012722775,1.4059009291781954,3.8504758085982336,-0.16884439031003703,1.3341818111366344,3.910187280310171,0,249,12.664840929731424,7.171911804156106,-5.971147171193758,15.731786714866471,30,15,29,-1.167505302526931,-0.7878807941905135,0.3709499407933274,120,249786.0,53,66.0,0,0,0,0,0,0
1778110718.813129,5.049855947494507,-0.042195981012722775,1.4059009291781954,3.8504758085982336,-0.08612441233033392,1.3912238231653347,3.8837880511112415,0,252,4.392843131761115,1.4677106012860763,-3.3312242513007906,5.705111760679439,-24,-5,-14,1.159663399513947,0.7996802610434575,-0.3700946328212322,120,249792.99999999997,53,66.0,-1,0,0,0,0,0
1778110718.882674,5.119400978088379,-0.042195981012722775,1.4059009291781954,3.8504758085982336,-0.17262763895754663,1.335424065587902,3.9105229890957522,0,256,13.043165794482386,7.047686359029348,-6.004718049751867,15.9953335637185,30,15,29,-1.2438448281426868,-0.8023543465426197,0.3844262883517446,120,249792.99999999997,53,66.0,-1,0,0,0,0,0
1778110718.952394,5.1891210079193115,-0.042195981012722775,1.4059009291781954,3.8504758085982336,-0.08612441233033392,1.3912238231653347,3.8837880511112415,0,259,4.392843131761115,1.4677106012860763,-3.3312242513007906,5.705111760679439,-26,-5,-13,1.2407227426175584,0.8003404145515166,-0.38346136754877436,120,249792.0,53,66.0,0,0,0,0,0,0
1778110719.023672,5.260399103164673,-0.042195981012722775,1.4059009291781954,3.8504758085982336,-0.17262763895754663,1.335424065587902,3.9105229890957522,0,263,13.043165794482386,7.047686359029348,-6.004718049751867,15.9953335637185,30,15,29,-1.213601827173436,-0.7828458011588642,0.3750792988011367,120,249798.0,53,66.0,0,0,0,0,0,0
1778110719.094538,5.331264972686768,-0.042195981012722775,1.4059009291781954,3.8504758085982336,-0.17262763895754663,1.335424065587902,3.9105229890957522,0,266,13.043165794482386,7.047686359029348,-6.004718049751867,15.9953335637185,10,6,10,0.0,0.0,0.0,120,249798.0,53,66.0,0,0,0,0,0,0
1778110719.164344,5.401071071624756,-0.042195981012722775,1.4059009291781954,3.8504758085982336,-0.015721991820993063,1.4562430717474375,3.868881299436211,0,270,-2.647398919172971,-5.034214256924208,-1.8405490837977379,5.978265229289001,-30,-11,-30,2.247735506261989,1.730780089385373,-0.59653368821732,120,249788.0,53,66.5,0,0,0,0,0,0
1778110719.2355242,5.4722511768341064,-0.042195981012722775,1.4059009291781954,3.8504758085982336,-0.10604264991889804,1.2506213935509884,3.9534135092502565,0,273,6.384666890617527,15.527953562720697,-10.29377006520229,19.693730355252985,30,30,30,-1.2689031272468532,-2.8887520971160003,1.1875819734380069,120,249788.0,53,66.5,0,0,0,0,0,0
1778110719.308442,5.545169115066528,-0.042195981012722775,1.4059009291781954,3.8504758085982336,-0.009548810597851929,1.4580437295675583,3.8686455381594604,0,277,-3.264717041487085,-5.214280038936292,-1.8169729561226866,6.414708443000887,-30,-25,-30,1.3233210052302544,2.8445995737759717,-1.1625119023607446,120,249788.0,53,66.5,0,0,0,0,0,0
1778110719.378417,5.6151440143585205,-0.042195981012722775,1.4059009291781954,3.8504758085982336,-0.10532284438129537,1.253403870596455,3.9531773755804536,0,280,6.31268633685726,15.249705858174046,-10.270156698222,19.43912693909905,30,30,30,-1.3686912700480822,-2.9244752195666543,1.2080308550107026,120,249782.00000000003,53,66.5,-1,0,0,0,0,0
1778110719.448425,5.685152053833008,-0.042195981012722775,1.4059009291781954,3.8504758085982336,-0.08950759784935376,1.4025257306687409,3.900233453748072,0,284,4.731161683663099,0.3375198509454558,-4.975764514983849,6.874303094519221,0,-13,-30,0.2259061480746805,2.130067649253764,-0.7562548848646962,120,249777.0,53,66.5,0,0,0,0,0,0
1778110719.518115,5.754842042922974,-0.042195981012722775,1.4059009291781954,3.8504758085982336,-0.1042843203789853,1.2549136569469246,3.9529877008793375,0,287,6.208833936626252,15.098727223127085,-10.251189228110391,19.27713835613386,11,27,30,-0.2120350816895039,-2.1181245061074336,0.7569845801405232,120,249778.00000000003,53,66.5,0,0,0,0,0,0
1778110719.590074,5.826801061630249,-0.042195981012722775,1.4059009291781954,3.8504758085982336,-0.014645741017150098,1.3299992117312138,3.9381754178399926,0,291,-2.7550239995572676,7.59017174469816,-8.769960924175901,11.921119031522295,-30,2,-15,1.245689296104483,1.0434488425937603,-0.20584331617417273,120,249778.00000000003,53,66.5,0,0,0,0,0,0
1778110719.6606112,5.897338151931763,-0.042195981012722775,1.4059009291781954,3.8504758085982336,-0.08348038743469277,1.4037094305717361,3.8993180927667876,0,295,4.128440642197,0.21914986064592856,-4.884228416855407,6.399041805269206,29,-8,-20,-0.9758645575442105,1.0449852485471824,-0.5508779126996551,120,249782.00000000003,53,66.5,0,0,0,0,0,0
1778110719.731723,5.96845006942749,-0.042195981012722775,1.4059009291781954,3.8504758085982336,-0.01804598363148102,1.3295469892243723,3.938775584947174,0,298,-2.4149997381241755,7.635393995382311,-8.829977634894037,11.920569207575157,-21,21,30,0.9201608690574699,-1.0428975052152063,0.5548646917411127,120,249784.0,52,66.5,0,0,0,0,0,0
1778110719.802391,6.039118051528931,-0.042195981012722775,1.4059009291781954,3.8504758085982336,-0.08221556646620021,1.4027938419581152,3.8991681011244608,0,302,4.001958545347743,0.310708722008024,-4.86922925262272,6.310436246663974,27,-8,-20,-0.9080432315529668,1.0364927730439593,-0.5604728286405373,120,249784.0,52,66.5,0,0,0,0,0,0
1778110719.874881,6.111608028411865,-0.042195981012722775,1.4059009291781954,3.8504758085982336,-0.013096969905179617,1.3313870514134458,3.9379072024377715,0,305,-2.9099011107543156,7.45138777647496,-8.74313938395379,11.850451069770024,-23,21,30,0.9534917726990246,-0.9850574329742929,0.5344063135220917,120,249782.00000000003,52,66.5,0,0,0,0,0,0
1778110719.9446778,6.1814048290252686,-0.042195981012722775,1.4059009291781954,3.8504758085982336,-0.07714747434406351,1.4108010079472089,3.915527029423982,0,309,3.4951493331340733,-0.49000787690134384,-6.505122082574832,7.400864131271135,27,-1,-23,-0.9176710662377274,1.1377879191573275,-0.32064754855671485,120,249782.00000000003,52,66.5,0,0,0,0,0,0
1778110720.015607,6.252334117889404,-0.042195981012722775,1.4059009291781954,3.8504758085982336,-0.011186924893819922,1.330728793761697,3.937541420686443,0,312,-3.100905611890285,7.517213541649848,-8.70656120882094,11.913367413437816,-22,15,30,0.9299479877288813,-1.1289019736104975,0.31037095697701683,120,249771.99999999997,52,66.5,0,0,0,0,0,0
1778110720.086845,6.3235719203948975,-0.042195981012722775,1.4059009291781954,3.8504758085982336,-0.014259530941611413,1.1622826189417772,3.9923677411421035,0,316,-2.7936450071111363,24.361831023641823,-14.18919325438699,28.3308395297523,1,30,30,-0.04313167924508286,-2.3645616357541464,0.7696239710851949,120,249786.0,52,66.0,0,0,0,0,0,0
1778110720.1583738,6.395100831985474,-0.042195981012722775,1.4059009291781954,3.8504758085982336,-0.07924203624357307,1.4042915654308903,3.8987263722560743,0,319,3.704605523085029,0.1609363747305137,-4.825056365784075,6.085324274956671,27,-26,-30,-0.9084788773791854,3.3833724169374526,-1.3091401337409174,120,249786.0,52,66.0,0,0,0,0,0,0
1778110720.229502,6.46622896194458,-0.042195981012722775,1.4059009291781954,3.8504758085982336,-0.08336091293929333,1.4046148060955792,3.8992691449091748,0,323,4.116493192657056,0.12861230826162195,-4.879333631094118,6.385135395162296,6,6,5,-0.057907844590998306,0.004544484226912159,0.007630914146238443,120,249785.0,52,66.0,-1,0,0,0,0,0
1778110720.3013918,6.538118839263916,-0.042195981012722775,1.4059009291781954,3.8504758085982336,-0.09673425148751494,1.2570799016783107,3.9522568347432556,0,327,5.4538270474792165,14.88210274998847,-10.178102614502205,18.83653324145308,10,27,30,-0.18602533551166084,-2.052234750129231,0.7370674677703056,120,249773.99999999997,52,66.0,-1,0,0,0,0,0
1778110720.37377,6.610496997833252,-0.042195981012722775,1.4059009291781954,3.8504758085982336,-0.09553862283326053,1.2584785021421492,3.9521711315943646,0,330,5.334264182053776,14.742242703604624,-10.169532299613104,18.68709398191168,5,9,15,0.016519191395412903,0.019323515429017522,-0.0011841023671374882,120,249773.99999999997,52,66.0,-1,0,0,0,0,0
1778110720.4445388,6.681265830993652,-0.042195981012722775,1.4059009291781954,3.8504758085982336,-0.09423876886183868,1.2585387693857735,3.952110703717978,0,334,5.204278784911591,14.736215979242196,-10.163489511974433,18.642346904774843,5,9,16,0.018367604966379455,0.0008516071402179549,-0.0008538769637440932,120,249781.0,52,66.0,0,0,0,0,0,0
1778110720.514095,6.750822067260742,-0.042195981012722775,1.4059009291781954,3.8504758085982336,-0.07606138224149439,1.4135589319563069,3.916283775657544,0,337,3.3865401228771614,-0.7658002778111461,-6.580796705931036,7.440563779321112,-1,-5,-30,0.26133367180111244,2.2287025706116355,-0.5150785894001181,120,249779.0,52,66.0,0,0,0,0,0,0
1778110720.5844412,6.8211681842803955,-0.042195981012722775,1.4059009291781954,3.8504758085982336,-0.004746924849268436,1.3353490347546204,3.9366024860689435,0,341,-3.7449056163454344,7.055189442357501,-8.61266774707099,11.7464063382945,-24,15,30,1.0137653706216947,-1.1117869829238218,0.28883911823765474,120,249779.0,52,66.0,0,0,0,0,0,0
1778110720.65451,6.891237020492554,-0.042195981012722775,1.4059009291781954,3.8504758085982336,0.0009154563577718263,1.4750431317339965,3.8826640539758084,0,344,-4.31114373704946,-6.914220255580106,-3.218824537757481,8.7608922758498,-2,-13,-30,0.08081169194669367,1.9936694332470821,-0.7697920360746023,120,249788.0,52,66.0,-1,0,0,0,0,0
1778110720.725315,6.9620420932769775,-0.042195981012722775,1.4059009291781954,3.8504758085982336,-0.06875776556500975,1.416645321662708,3.915384395368199,0,348,2.656178455228697,-1.0744392484512533,-6.490858676996547,7.095135661097325,28,18,26,-0.9840145512583774,-0.8247687316004746,0.46211860401602045,120,249785.0,52,66.0,0,0,0,0,0,0
1778110720.794455,7.031182050704956,-0.042195981012722775,1.4059009291781954,3.8504758085982336,-0.0014138454871623378,1.3393888326629364,3.936306239746991,0,351,-4.078213552556044,6.651209651525902,-8.583043114875721,11.59909672003034,-24,16,30,0.9740231637833738,-1.1173927765322655,0.3026013488739206,120,249786.0,52,66.0,0,-1,0,0,0,0
1778110720.8653738,7.102100849151611,-0.042195981012722775,1.4059009291781954,3.8504758085982336,0.006111880302044748,1.3468160984275,3.953110198956234,0,355,-4.830786131476753,5.908483075069548,-10.263439035800026,12.79002923132059,-3,15,7,0.10611750275024603,0.10472915400773869,0.2369464736755642,120,249786.0,52,66.0,0,-1,0,0,0,0
1778110720.936074,7.1728010177612305,-0.042195981012722775,1.4059009291781954,3.8504758085982336,0.01014862955283381,1.48420337480526,3.89932561693683,0,358,-5.234461056555658,-7.830244562706468,-4.8849808338596645,10.610153166263354,-2,-12,-30,0.05709674149546285,1.9432383129998345,-0.7607419200989844,120,249789.0,52,66.0,0,-1,0,0,0,0
1778110721.007643,7.244369983673096,-0.042195981012722775,1.4059009291781954,3.8504758085982336,0.0036040289957713274,1.3477830535231694,3.9538706334908094,0,362,-4.5800010008494105,5.811787565502602,-10.339482489257579,12.714487092288715,1,28,30,-0.09144467121576043,-1.9061379404319985,0.7621322434803584,120,249789.0,52,66.0,0,0,0,0,0,0
1778110721.080145,7.316871881484985,-0.042195981012722775,1.4059009291781954,3.8504758085982336,-0.0011414567059477385,1.1802170179136255,4.008803027347706,0,365,-4.105452430677504,22.568391126456987,-15.83272187494722,27.872246046322324,1,30,30,-0.06545326184469684,-2.3111951640811332,0.7576683578603924,120,249789.0,52,66.0,0,0,0,0,0,0
1778110721.149919,7.386646032333374,-0.042195981012722775,1.4059009291781954,3.8504758085982336,0.0123139510630135,1.4842313195192873,3.899243278072486,0,369,-5.450993207573627,-7.8330390341091904,-4.876746947425259,10.716925316904735,-5,-30,-30,0.19284230055623774,4.35711933300701,-1.5702054119337194,120,249784.0,52,66.5,-1,-1,0,0,0,0
1778110721.2211242,7.45785117149353,-0.042195981012722775,1.4059009291781954,3.8504758085982336,-0.06304406444788847,1.417637724660255,3.9154005956169047,0,373,2.0848083435165696,-1.1736795482059525,-6.49247870186711,6.919265076962384,30,13,28,-1.058322705351435,-0.9352357939958311,0.22691223884946143,120,249786.0,52,66.5,0,0,0,0,0,0
1778110721.29189,7.528616905212402,-0.042195981012722775,1.4059009291781954,3.8504758085982336,0.007883000115778062,1.4839509183966286,3.8998842276635024,0,376,-5.007898112850084,-7.80499892184332,-4.940841906526883,10.507567293334601,-25,1,-22,1.0022797876361373,0.9370805650064082,-0.21926386031752984,120,249786.0,52,66.5,0,0,0,0,0,0
1778110721.362189,7.598916053771973,-0.042195981012722775,1.4059009291781954,3.8504758085982336,0.007883000115778062,1.4839509183966286,3.8998842276635024,0,380,-5.007898112850084,-7.80499892184332,-4.940841906526883,10.507567293334601,0,6,0,0.0,0.0,0.0,120,249782.00000000003,52,66.5,-1,0,0,0,0,0
1778110721.4320362,7.668763160705566,-0.042195981012722775,1.4059009291781954,3.8504758085982336,-0.06709723440556212,1.418149762136879,3.9161554382320642,0,383,2.490125339283934,-1.224883295868362,-6.567962963383067,7.1301613433507205,30,13,28,-1.0734909119804588,-0.9420741838643252,0.23295468177417128,120,249775.0,52,66.5,0,0,0,0,0,0
1778110721.503693,7.74042010307312,-0.042195981012722775,1.4059009291781954,3.8504758085982336,0.08134617820920316,1.4219422799880146,3.9328732018929187,0,387,-12.354215922192594,-1.6041350809819166,-8.23973932946851,14.936304918813889,-30,14,3,2.0715845207760433,0.052926035159055286,0.23330277721177553,120,249775.0,52,66.5,0,0,0,0,0,0
1778110721.575087,7.811814069747925,-0.042195981012722775,1.4059009291781954,3.8504758085982336,-0.06716513376246702,1.4169712350532553,3.9161544875809615,0,390,2.4969152749744246,-1.107030587505986,-6.5678678982727945,7.1131562151577095,30,1,7,-2.080166138521627,-0.06962836169899513,-0.23417545054065855,120,249784.0,52,66.5,0,0,0,0,0,0
1778110721.643469,7.8801960945129395,-0.042195981012722775,1.4059009291781954,3.8504758085982336,0.006116668060281061,1.3465332024962775,3.9538089198592647,0,394,-4.831264907300384,5.936772668191792,-10.333311126103117,12.859382144844586,-27,23,30,1.0716529976199278,-1.0300664947993032,0.5506481039088483,120,249781.0,52,66.5,0,0,0,0,0,0
1778110721.712783,7.949510097503662,-0.042195981012722775,1.4059009291781954,3.8504758085982336,-0.10456788068611089,1.0903623850593087,4.041453409880522,0,397,6.237189967338812,31.553854411888672,-19.097760128228856,37.40685376840327,30,30,30,-1.596856969308302,-3.695801806039914,1.264455755541751,120,249782.00000000003,51,66.5,0,0,0,0,0,0
1778110721.782186,8.01891303062439,-0.042195981012722775,1.4059009291781954,3.8504758085982336,0.008956537277722625,1.4839531571819369,3.8998646081379826,0,401,-5.1152518290445395,-7.805222800374145,-4.938879953974906,10.558401367527146,-30,-30,-30,1.6357293972915514,5.671097090925113,-2.0400982404625965,120,249782.00000000003,51,66.5,0,0,0,0,0,0
1778110721.8522801,8.089007139205933,-0.042195981012722775,1.4059009291781954,3.8504758085982336,0.0019557823166347554,1.1786113266474345,4.008779991727195,0,404,-4.415176332935753,22.728960253076092,-15.830418312896155,28.04820065883205,2,30,30,-0.09987651034813635,-4.356169679785389,1.5538450490815123,120,249786.0,51,66.5,-1,0,0,0,0,0
1778110721.921846,8.158572912216187,-0.042195981012722775,1.4059009291781954,3.8504758085982336,-0.145942607528617,1.3650223644483204,3.9629481039034653,0,408,10.374662651589423,4.0878564729875055,-11.247229530523173,15.83806704715897,30,-5,-30,-2.126022373437175,2.6796372660648666,-0.658828125391121,120,249787.0,51,66.5,-1,0,0,0,0,0
1778110721.991122,8.227849006652832,-0.042195981012722775,1.4059009291781954,3.8504758085982336,-0.18780227305707156,1.2045220704938915,3.995232365222396,0,411,14.560629204434877,20.137885868430395,-14.475655662416242,28.759189434610533,26,24,30,-0.6042440161914168,-2.316820762769903,0.4660231149210548,120,249787.0,51,66.5,-1,0,0,0,0,0
1778110722.061831,8.298557996749878,-0.042195981012722775,1.4059009291781954,3.8504758085982336,-0.05857890048911695,1.4254191684175819,3.933642160183306,0,415,1.6382919476394178,-1.9518239239386448,-8.316635158507246,8.69827784653251,-30,-12,-30,1.827538088022464,3.1240312953206653,-0.8710378263719976,120,249789.0,51,66.5,-1,0,0,0,0,0
1778110722.132977,8.369704008102417,-0.042195981012722775,1.4059009291781954,3.8504758085982336,-0.05008092996675199,1.5518063182823911,3.8790809014866023,0,418,0.7884948954029213,-14.590538910419571,-2.8605092888368766,14.889192835344234,0,-13,-30,0.11944408914585888,1.7764474418466292,-0.7668913219371435,120,249796.0,51,66.0,0,0,0,0,0,0
1778110722.2022011,8.438928127288818,-0.042195981012722775,1.4059009291781954,3.8504758085982336,0.08192735980893334,1.417589914103902,3.9160295570668335,0,422,-12.412334082165613,-1.168898492570647,-6.555374846859996,14.085641640907548,-30,21,30,1.906969584115958,-1.938867633939576,0.5337540732116606,120,249796.0,51,66.0,0,0,0,0,0,0
1778110722.272832,8.509558916091919,-0.042195981012722775,1.4059009291781954,3.8504758085982336,0.007382692978539509,1.3491040797079146,3.953795124656983,0,425,-4.957867399126228,5.679684947028085,-10.331931605874933,12.790155626625246,25,23,30,-1.055413200016838,-0.9696314533157372,0.5346898743468588,120,249798.0,51,66.0,0,0,0,0,0,0
1778110722.343214,8.579941034317017,-0.042195981012722775,1.4059009291781954,3.8504758085982336,0.008648230619243693,1.485868402122823,3.899236844922832,0,429,-5.084421163196646,-7.996747294462758,-4.876103632459827,10.657189708865433,-1,-12,-30,0.017980954148846633,1.9431686039557057,-0.7751724601362744,120,249789.0,51,66.0,0,0,0,0,0,0
1778110722.414154,8.650881052017212,-0.042195981012722775,1.4059009291781954,3.8504758085982336,0.010065607084256235,1.4862042878260646,3.8998534860123013,0,432,-5.226158809697901,-8.03033586478692,-4.937767741406773,10.77870958294839,-1,7,0,0.019979928268450936,0.004734784598745414,0.008692429315079844,120,249789.0,51,66.0,0,0,0,0,0,0
1778110722.4838421,8.720569133758545,-0.042195981012722775,1.4059009291781954,3.8504758085982336,0.015598830310672017,1.4853053030451266,3.8992139875306298,0,436,-5.7794811323394795,-7.940437386693122,-4.873817893239618,10.963897523578218,-3,7,1,0.07939984984740867,-0.012900122351979904,-0.009176583221866133,120,249796.0,51,66.0,0,0,0,0,0,0
1778110722.552897,8.789623975753784,-0.042195981012722775,1.4059009291781954,3.8504758085982336,0.01370347103108175,1.3493558128445118,3.9529836564764915,0,439,-5.589945204380452,5.654511633368364,-10.250784787825795,12.973032720462665,0,30,30,-0.027447159747624007,-1.968717707152055,0.7786516831009291,120,249788.0,51,66.0,-1,-1,0,0,0,0
1778110722.623481,8.86020803451538,-0.042195981012722775,1.4059009291781954,3.8504758085982336,0.015598830310672017,1.4853053030451266,3.8992139875306298,0,443,-5.7794811323394795,-7.940437386693122,-4.873817893239618,10.963897523578218,-1,-11,-30,0.02685251192471086,1.9260650717153454,-0.7617820495060101,120,249788.0,51,66.0,-1,-1,0,0,0,0
1778110722.692863,8.929589986801147,-0.042195981012722775,1.4059009291781954,3.8504758085982336,0.015598830310672017,1.4853053030451266,3.8992139875306298,0,446,-5.7794811323394795,-7.940437386693122,-4.873817893239618,10.963897523578218,-1,7,0,0.0,0.0,0.0,120,249787.0,51,66.0,-1,0,0,0,0,0
1778110722.763674,9.000401020050049,-0.042195981012722775,1.4059009291781954,3.8504758085982336,0.010047640533023375,1.4850650942960582,3.8998555984429544,0,450,-5.224362154574615,-7.916416511786273,-4.93797898447208,10.693327207250405,0,7,0,-0.07839441853836765,-0.003392250304047361,0.009060889001144098,120,249787.0,51,66.0,0,0,0,0,0,0
1778110722.8352919,9.07201886177063,-0.042195981012722775,1.4059009291781954,3.8504758085982336,0.0035503046427191724,1.180151395208206,4.008781838719141,0,453,-4.574628565544195,22.574953396998932,-15.83060301209076,27.949306594543334,1,30,30,-0.09072230793625051,-4.257510304170867,1.520937208652077,120,249787.0,51,66.0,0,0,0,0,0,0
1778110722.907423,9.144150018692017,-0.042195981012722775,1.4059009291781954,3.8504758085982336,0.08198564348493724,1.4163927063145643,3.9160281151946905,0,457,-12.418162449766001,-1.049177713636884,-6.555230659645694,14.081284795952733,-30,-23,-30,1.087398874354699,3.2751632053237336,-1.2859037270889717,120,249790.0,51,66.0,-1,0,0,0,0,0
1778110722.977358,9.214085102081299,-0.042195981012722775,1.4059009291781954,3.8504758085982336,0.08204292134235541,1.4152135824783687,3.91602658795373,0,460,-12.42389023550782,-0.9312653300173279,-6.555077935549658,14.077973946558107,-5,8,6,0.0008190146438997541,-0.01686026210381649,-2.1837980114541408e-05,120,249798.0,51,66.0,-1,0,0,0,0,0
1778110723.0471559,9.283882856369019,-0.042195981012722775,1.4059009291781954,3.8504758085982336,-0.08100717423700893,1.2621747563415378,3.9522098465510433,0,464,3.8811193224286153,14.372617283665768,-10.173403795280977,18.031454726657362,30,24,30,-2.3360364132525033,-2.1926038695453665,0.5184014724622639,120,249794.99999999997,51,66.0,-1,0,0,0,0,0
1778110723.117731,9.354458093643188,-0.042195981012722775,1.4059009291781954,3.8504758085982336,0.004208266946143475,1.1715397431102224,3.9911988422286853,0,467,-4.6404247958866245,23.436118606797308,-14.072303363045169,27.727511961582895,-30,27,30,1.2074410866251624,-1.2842324975715982,0.5524458320441472,120,249794.99999999997,51,66.0,-1,0,0,0,0,0
1778110723.187925,9.424652099609375,-0.042195981012722775,1.4059009291781954,3.8504758085982336,0.0931049755305998,1.2615379054602949,3.951669103104759,0,471,-13.530095654332259,14.436302371790056,-10.119329450652526,22.223211809186704,-30,-2,-15,1.266443015480256,1.2821345798874328,-0.5631497815207823,120,249781.0,51,66.5,-1,0,0,0,0,0
1778110723.257092,9.493818998336792,-0.042195981012722775,1.4059009291781954,3.8504758085982336,0.09217774258885768,1.2600304759094252,3.9521895106185783,0,474,-13.437372360158045,14.587045326877025,-10.171370202034469,22.28904751443495,-5,11,17,-0.01340573249346199,-0.021794089060005222,0.00752393881168982,120,249780.00000000003,51,66.5,-1,-1,0,0,0,0
1778110723.328681,9.565407991409302,-0.042195981012722775,1.4059009291781954,3.8504758085982336,0.006801372034356003,1.4674405386575762,3.865306878864592,0,478,-4.899735304707878,-6.153960947938075,-1.4831070266358548,8.004888997194422,28,-24,-30,-1.192590744613871,2.8972339719609304,-1.2136311467041592,120,249780.00000000003,51,66.5,-1,-1,0,0,0,0
1778110723.400504,9.63723111152649,-0.042195981012722775,1.4059009291781954,3.8504758085982336,0.09084736413652882,1.2599084669962926,3.952294421358612,0,482,-13.30433451492516,14.599246218190288,-10.181861276037862,22.221917245567532,-30,30,30,1.1701801866173778,-2.8894883892912437,1.2111356670677926,120,249779.0,51,66.5,-1,0,0,0,0,0
1778110723.4722502,9.708977222442627,-0.042195981012722775,1.4059009291781954,3.8504758085982336,0.007874974972309639,1.3332471145722256,3.918491805508,0,485,-5.007095598503241,7.265381460596987,-6.801599690976623,11.140849718797496,27,-2,-13,-1.1564722896437356,1.0221968360299944,-0.47114213466042026,120,249779.0,51,66.5,-2,-2,0,0,0,0
1778110723.543725,9.780452013015747,-0.042195981012722775,1.4059009291781954,3.8504758085982336,-0.06402039681760646,1.4046450997281013,3.8811215078260686,0,489,2.182441580488369,0.12558294500941702,-3.0645699227835,3.764360654872361,28,-6,-17,-1.0058843294737005,0.9989254194852681,-0.5228458507157244,120,249780.00000000003,51,66.5,-1,-1,0,0,0,0
1778110723.614294,9.85102105140686,-0.042195981012722775,1.4059009291781954,3.8504758085982336,-0.0663323566041971,1.403541686144285,3.8811150329738235,0,492,2.413637559147433,0.23592430339103299,-3.063922437558997,3.907547472166549,3,7,7,-0.03276167338113801,-0.015635944728348627,-9.175202599680364e-05,120,249792.99999999997,51,66.5,-1,0,0,0,0,0
1778110723.6839108,9.920637845993042,-0.042195981012722775,1.4059009291781954,3.8504758085982336,0.07344873890951359,1.4015354766448227,3.8824482090204526,0,496,-11.564471992223636,0.4365452533372727,-3.197240042221905,12.006245379165101,-30,7,8,2.0078645726882707,-0.02881789532809965,0.019150207281932303,120,249792.99999999997,51,66.5,-1,0,0,0,0,0
1778110723.7547882,9.991515159606934,-0.042195981012722775,1.4059009291781954,3.8504758085982336,-0.05711517941320842,1.5204302241652,3.812510293216422,0,499,1.4919198400485647,-11.452929498700449,3.79655153818117,12.157681624939814,30,-21,-30,-1.8421115539730633,1.6774725431618847,-0.986746142567165,120,249780.00000000003,50,66.5,-1,0,0,0,0,0
1778110723.826654,10.06338095664978,-0.042195981012722775,1.4059009291781954,3.8504758085982336,-0.0042194421728427535,1.3219984448852222,3.885108467486257,0,503,-3.7976538839880023,8.39024842929732,-3.463265888802347,9.839342170309823,-18,30,30,0.7360349347942112,-2.7611435125623367,1.0101909010561985,120,249787.0,50,66.5,0,0,0,0,0,0
1778110723.897218,10.133944988250732,-0.042195981012722775,1.4059009291781954,3.8504758085982336,-0.07582588593074101,1.391106424506431,3.8483919499298898,0,506,3.362990491801823,1.4794504671764352,0.20838586683438187,3.6799325268643654,28,-7,-16,-1.0147725708593447,0.9793655216870623,-0.5203290787579073,120,249787.0,50,66.5,0,0,0,0,0,0
1778110723.969027,10.205754041671753,-0.042195981012722775,1.4059009291781954,3.8504758085982336,-0.09100604805484631,1.2540755696057009,3.9164430564598853,0,510,4.8810067042123535,15.182535957249454,-6.596724786165176,17.258342980835227,9,30,30,-0.21139621539227324,-1.9082671107960525,0.9476675055303698,120,249787.0,50,66.5,0,0,0,0,0,0
1778110724.0404081,10.277135133743286,-0.042195981012722775,1.4059009291781954,3.8504758085982336,-0.016858773260817347,1.1582052831296203,3.9384721201358186,0,513,-2.5337207751905426,24.769564604857507,-8.799631153758503,26.40804006591628,-26,18,30,1.0387523172064066,-1.3430767685650697,0.3086120292732039,120,249787.0,50,66.5,0,0,0,0,0,0
1778110724.11098,10.347707033157349,-0.042195981012722775,1.4059009291781954,3.8504758085982336,-0.006063106596575482,1.4477802292958937,3.8171946153784737,0,517,-3.6132874416147294,-4.187930011769825,3.3281193219759864,6.455306510191675,-4,-30,-30,0.15297401308275782,4.103261334476301,-1.7184956868707795,120,249787.0,50,66.5,0,0,0,0,0,0
1778110724.181726,10.418452978134155,-0.042195981012722775,1.4059009291781954,3.8504758085982336,-0.06772995640057605,1.5062564876745959,3.7813087720261684,0,521,2.553397538785328,-10.035555849640044,6.916703657206513,12.452831392255073,25,-11,-20,-0.871666211034674,0.8265669275867762,-0.5072494736492683,120,249790.0,50,67.0,0,0,0,0,0,0
1778110724.258928,10.495655059814453,-0.042195981012722775,1.4059009291781954,3.8504758085982336,-0.07984159267015344,1.3866306529667076,3.831430873891294,0,524,3.764561165743066,1.9270276211487802,1.9044934706939465,4.638151744305806,7,20,30,-0.15688224988197824,-1.5495156620681774,0.6492325177536883,120,249775.0,50,67.0,-1,0,0,0,0,0
1778110724.3291469,10.565873861312866,-0.042195981012722775,1.4059009291781954,3.8504758085982336,-0.16574854653657753,1.3342018708986814,3.8581010827763333,0,528,12.355256552385475,7.169905827951406,-0.7625274178099772,14.305291402829504,30,15,30,-1.2234181164195113,-0.7466487742490325,0.3798157803311692,120,249779.0,50,67.0,-1,0,0,0,0,0
1778110724.399956,10.636682987213135,-0.042195981012722775,1.4059009291781954,3.8504758085982336,-0.08017053976670391,1.386757200749158,3.8329528928430765,0,531,3.7974558753981134,1.9143728429037443,1.7522915755157076,4.5995674006221865,-26,-4,-10,1.2085731278536946,0.7422112500654,-0.3551546444546842,120,249779.0,50,67.0,-1,0,0,0,0,0
1778110724.470345,10.707072019577026,-0.042195981012722775,1.4059009291781954,3.8504758085982336,-0.015779615045955524,1.4440716974211014,3.801543111027049,0,535,-2.641636596676725,-3.8170768242905995,4.893269757118457,6.744806024443426,-22,-8,-15,0.9147863318800196,0.8142532259236571,-0.44623119200797806,120,249776.00000000003,50,67.0,0,0,0,0,0,0
1778110724.5422819,10.779008865356445,-0.042195981012722775,1.4059009291781954,3.8504758085982336,-0.13771495260260344,1.454970388978392,3.7920121388822765,0,539,9.551897158988067,-4.906945980019661,5.846366971595707,12.22689105837132,30,-1,0,-1.6950331396311162,0.15150360624247333,-0.132490826383985,120,249782.00000000003,50,67.0,0,0,0,0,0,0
1778110724.613628,10.85035490989685,-0.042195981012722775,1.4059009291781954,3.8504758085982336,-0.026659050306446948,1.152431170795297,3.904727738418572,0,542,-1.5536930706275827,25.346975838289843,-5.425192982033833,25.96759259532686,-30,30,30,1.5565810692316995,-4.24044836867948,1.5798437076979281,120,249782.00000000003,50,67.0,0,0,0,0,0,0
1778110724.683954,10.92068099975586,-0.042195981012722775,1.4059009291781954,3.8504758085982336,-0.084610265392253,1.3826973880807056,3.8162846848293412,0,546,4.241428437953022,2.320354109748979,3.419112376889233,5.921493716512982,25,-28,-30,-0.824035791012807,3.2742644692325586,-1.2576136931051212,120,249779.0,50,67.0,-1,1,0,0,0,0
1778110724.752825,10.989552021026611,-0.042195981012722775,1.4059009291781954,3.8504758085982336,-0.10001983181134025,1.2502966692874753,3.882647599249987,0,549,5.782385079861747,15.560425989072012,-3.217179065175335,16.90896434766476,10,30,30,-0.22374528698373408,-1.9224445398119585,0.9635825517927754,120,249794.0,50,67.0,0,0,0,0,0,0
1778110724.8218439,11.058570861816406,-0.042195981012722775,1.4059009291781954,3.8504758085982336,-0.01690493052736161,1.316913057845123,3.852768614268646,0,553,-2.5291050485361164,8.898787133307252,-0.22928056704123456,9.25404529753709,-29,-5,-10,1.2042349644369563,0.9651913563795681,-0.43291055948535856,120,249794.0,50,67.0,0,0,0,0,0,0
1778110724.8919628,11.128689765930176,-0.042195981012722775,1.4059009291781954,3.8504758085982336,-0.1381018868075414,1.45979931625891,3.7919425358037677,0,556,9.590590579481862,-5.389838708071459,5.853327279446585,12.461590155457097,30,-19,-30,-1.7284490938924966,2.037770843964573,-0.8674704665404709,120,249784.0,50,67.0,-1,0,0,0,0,0
1778110724.962152,11.19887900352478,-0.042195981012722775,1.4059009291781954,3.8504758085982336,-0.08030620017094717,1.389029601539987,3.8152133654810476,0,560,3.8110219158224394,1.6871327638208422,3.526244311718596,5.459368457208622,-16,11,30,0.8234266194827146,-1.0082701728101282,0.3315441294815936,120,249798.99999999997,50,67.0,-1,0,0,0,0,0
1778110725.0340638,11.270790815353394,-0.042195981012722775,1.4059009291781954,3.8504758085982336,-0.007674795247258728,1.4513521350614287,3.8009874015901546,0,563,-3.452118576546405,-4.545120588323326,4.948840700807899,7.554221873291132,-25,-2,-17,1.010006604989875,0.8666522499804951,-0.1978251351085081,120,249788.0,50,67.0,-1,0,0,0,0,0
1778110725.106118,11.34284496307373,-0.042195981012722775,1.4059009291781954,3.8504758085982336,-0.1438459428931751,1.4624281500043184,3.792749556018209,0,567,10.164996188045231,-5.652722082612294,5.772625258002462,12.984745542965207,30,-1,0,-1.8898446786774326,0.15371793704199946,-0.11432854086234003,120,249788.0,50,67.0,-1,0,0,0,0,0
1778110725.17727,11.413996934890747,-0.042195981012722775,1.4059009291781954,3.8504758085982336,-0.08574580454225057,1.3907023207509823,3.8160042312851674,0,570,4.35498235295278,1.51986084272131,3.447157731306616,5.758363022619766,-15,11,30,0.8165639948860753,-1.008065235884049,0.32683107260559296,120,249790.0,50,66.0,0,0,0,0,0,0
1778110725.2478342,11.484561204910278,-0.042195981012722775,1.4059009291781954,3.8504758085982336,-0.1381521232408103,1.4557144561591984,3.7763322652377855,0,574,9.595614222808752,-4.981352698100294,7.414354336044804,13.109627654371694,26,-13,-18,-0.7426749923729723,0.9213180465159145,-0.5622103939628541,120,249784.0,50,66.0,0,0,0,0,0,0
1778110725.318729,11.555455923080444,-0.042195981012722775,1.4059009291781954,3.8504758085982336,-0.0861535824372071,1.3919328014976895,3.8155079040487454,0,577,4.395760142448432,1.3968127680505926,3.496790454948817,5.788033917035091,-13,16,30,0.7334614220313705,-0.8996672292062164,0.5525889632134231,120,249784.0,50,66.0,0,0,0,0,0,0
1778110725.389447,11.626173973083496,-0.042195981012722775,1.4059009291781954,3.8504758085982336,-0.08179747755693587,1.390263621430147,3.81534201218054,0,581,3.960149654421309,1.5637307748048501,3.5133796417693652,5.520133669458053,2,2,9,0.06159820413717923,-0.02360331015165921,-0.0023458207373976262,120,249778.00000000003,50,66.0,0,0,0,0,0,0
1778110725.459925,11.696651935577393,-0.042195981012722775,1.4059009291781954,3.8504758085982336,-0.16412365150778466,1.3376803007123574,3.841361964541742,0,584,12.192767049506188,6.8220628465837985,0.9113844056491516,14.00124035009482,30,13,30,-1.1681122869858558,-0.7460959264017215,0.36919274395106855,120,249792.0,50,66.0,0,0,0,0,0,0
1778110725.530422,11.767148971557617,-0.042195981012722775,1.4059009291781954,3.8504758085982336,-0.16412365150778466,1.3376803007123574,3.841361964541742,0,588,12.192767049506188,6.8220628465837985,0.9113844056491516,14.00124035009482,9,4,12,0.0,0.0,0.0,120,249792.0,50,66.0,0,0,0,0,0,0
1778110725.601013,11.837739944458008,-0.042195981012722775,1.4059009291781954,3.8504758085982336,-0.08708660901584452,1.3905521401137033,3.8161601748628957,0,592,4.489062800312174,1.5348789064492108,3.431563373533786,5.8551827699216945,-22,-5,-10,1.0913157777361338,0.7489886770076419,-0.3570115078936231,120,249790.0,50,66.0,0,0,0,0,0,0
1778110725.672245,11.908972024917603,-0.042195981012722775,1.4059009291781954,3.8504758085982336,-0.08708660901584452,1.3905521401137033,3.8161601748628957,0,595,4.489062800312174,1.5348789064492108,3.431563373533786,5.8551827699216945,4,2,8,0.0,0.0,0.0,120,249787.0,50,66.0,-1,0,0,0,0,0
1778110725.743401,11.980128049850464,-0.042195981012722775,1.4059009291781954,3.8504758085982336,-0.16885834897610164,1.3363632566343053,3.8423480636564578,0,599,12.666236796337888,6.9537672543890094,0.8127744941775816,14.472354196449947,30,13,30,-1.1491892645410162,-0.7615501783654646,0.3680347351931394,120,249782.00000000003,49,66.0,-1,0,0,0,0,0
1778110725.8128471,12.049574136734009,-0.042195981012722775,1.4059009291781954,3.8504758085982336,-0.08708660901584452,1.3905521401137033,3.8161601748628957,0,602,4.489062800312174,1.5348789064492108,3.431563373533786,5.8551827699216945,-24,-6,-10,1.1774852065801957,0.7803014670973191,-0.3770966798673173,120,249782.00000000003,49,66.0,-1,0,0,0,0,0
1778110725.88231,12.11903691291809,-0.042195981012722775,1.4059009291781954,3.8504758085982336,-0.08024776290539203,1.3967115646694364,3.832568159757539,0,606,3.805178189266925,0.9189364508759068,1.7907648840694623,4.3047257895059285,2,9,6,0.09845339455378214,0.08867230614869266,0.23621262777002655,120,249791.0,49,66.0,-1,0,0,0,0,0
1778110725.95348,12.19020700454712,-0.042195981012722775,1.4059009291781954,3.8504758085982336,-0.073779216633976,1.5172399229361822,3.781773161570981,0,609,3.158323562125323,-11.133899375798674,6.870264702725271,13.45879861350926,1,-17,-30,0.09088854775026983,1.6935254052361737,-0.7137126990270756,120,249787.0,49,66.0,-1,0,0,0,0,0
1778110726.022926,12.259653091430664,-0.042195981012722775,1.4059009291781954,3.8504758085982336,-0.08520583893833016,1.3992892287677126,3.8316869747513342,0,613,4.300985792560738,0.6611700410482868,1.8788833846899333,4.739813011528304,9,21,30,-0.16453946963945726,-1.6984498257801437,0.7187419107437186,120,249787.0,49,66.0,-1,0,0,0,0,0
1778110726.094367,12.331094026565552,-0.042195981012722775,1.4059009291781954,3.8504758085982336,-0.07905716176325998,1.3982373534890433,3.832402249225887,0,616,3.686118075053721,0.7663575689152102,1.8073559372346448,4.176278950277233,2,4,8,0.08606658302359634,-0.014723705347406043,0.0100121096287776,120,249790.0,49,66.0,-1,0,0,0,0,0
1778110726.164087,12.400814056396484,-0.042195981012722775,1.4059009291781954,3.8504758085982336,-0.0727648122213097,1.5186012010069465,3.7815969021803606,0,620,3.056883120858693,-11.270027182875108,6.887890641787298,13.557325865027945,2,-17,-30,0.09025167598477644,1.7263883536736737,-0.7287051822657966,120,249785.0,49,66.0,-1,0,0,0,0,0
