timestamp,phase,command,axis,repeat,t_send,t_since_cmd,marker_id,n_markers,pos_x,pos_y,pos_z,marker_dist,tello_height_cm,tello_baro_cm,tello_battery,tello_temp_c,tello_pitch,tello_roll,tello_yaw,tello_vgx,tello_vgy,tello_vgz,tello_agx,tello_agy,tello_agz
1777585320.826807,init_hover,none,-,0,,,4,1,2.5488482849317102,0.7847859209523497,2.3839034544986335,2.4763461642521123,70,254915.0,86,65.5,0,0,-98,0,0,0,10.0,-29.0,-1002.0
1777585321.053175,init_hover,none,-,0,,,4,1,2.7151741092931223,0.7997357821824882,2.329884138644711,2.469741444295023,70,254919.99999999997,86,65.5,0,0,-98,0,0,0,4.0,-27.0,-1020.0
1777585321.1035469,init_hover,none,-,0,,,4,1,2.7478832564872864,0.7930192715726123,2.317969171639284,2.4671389490321785,70,254919.99999999997,86,65.5,0,0,-98,0,0,0,4.0,-27.0,-1020.0
1777585321.1521778,init_hover,none,-,0,,,4,1,2.7248840513133326,0.8071685199427063,2.32418566659363,2.4684169227016817,70,254913.0,86,65.5,0,0,-98,0,0,0,-2.0,-1.0,-1014.0
1777585321.200675,init_hover,none,-,0,,,4,1,2.818282268267136,0.7812982408877893,2.288925550107281,2.4605191307930228,70,254913.0,86,65.5,0,0,-98,0,0,0,-2.0,-1.0,-1014.0
1777585321.249442,init_hover,none,-,0,,,4,1,2.8263005978851723,0.7760402390213781,2.2862855442683037,2.459935066085864,70,254916.0,86,65.5,0,0,-97,0,0,0,-9.0,-16.0,-988.0
1777585321.298634,init_hover,none,-,0,,,4,1,2.8602831828396007,0.7892282435423382,2.2704686763029787,2.45898633390279,70,254916.0,86,65.5,0,0,-97,0,0,0,-9.0,-16.0,-988.0
1777585321.349756,init_hover,none,-,0,,,4,1,2.896882034745623,0.7642230795741679,2.2623355485354826,2.4607352499022084,70,254909.0,86,65.5,0,0,-97,0,0,0,-8.0,14.0,-997.0
1777585321.4103549,init_hover,none,-,0,,,4,1,2.901547371774761,0.7930346457712207,2.254114406979496,2.459328293677567,70,254914.0,86,65.5,0,-1,-97,4,-2,0,0.0,15.0,-995.0
1777585321.460652,init_hover,none,-,0,,,4,1,2.886074679533825,0.7990171711158722,2.264081475551196,2.4638197922109413,70,254914.0,86,65.5,0,-1,-97,4,-2,0,0.0,15.0,-995.0
1777585321.512846,init_hover,none,-,0,,,4,1,2.905974066424661,0.8064432643598812,2.2661203810739123,2.4741234241031966,70,254916.0,86,65.5,2,-6,-98,4,-1,0,3.0,-27.0,-1003.0
1777585321.563391,init_hover,none,-,0,,,4,1,2.928336058232014,0.8198537410418999,2.249822176755391,2.469774246343378,70,254916.0,86,65.5,2,-6,-98,4,-1,0,3.0,-27.0,-1003.0
1777585321.614034,init_hover,none,-,0,,,4,1,2.9931187280042133,0.8048639772499422,2.2173385054557997,2.4630854016384225,70,254910.0,86,65.0,2,-6,-97,2,-1,0,8.0,0.0,-980.0
1777585321.6671941,init_hover,none,-,0,,,4,1,3.0215124616368576,0.8244508702030807,2.20162074393509,2.46389532054851,70,254910.0,86,65.0,2,-6,-97,2,-1,0,8.0,0.0,-980.0
1777585321.7166772,init_hover,none,-,0,,,4,1,3.0309276023055842,0.8140516750734752,2.2031935490687333,2.467450572044914,70,254914.0,86,65.0,1,-4,-97,1,-1,0,8.0,-21.0,-1009.0
1777585321.766604,init_hover,none,-,0,,,4,1,3.0395270743908447,0.8330629028144184,2.1928649524734123,2.4651200206018085,70,254914.0,86,65.0,1,-4,-97,1,-1,0,8.0,-21.0,-1009.0
1777585321.816423,init_hover,none,-,0,,,4,1,3.0516149208460535,0.8121265821327983,2.191881167192119,2.465782900528349,70,254921.99999999997,86,65.0,1,-3,-97,1,0,0,-3.0,-2.0,-1012.0
1777585321.866965,init_hover,none,-,0,,,,,,,,,70,254921.99999999997,86,65.0,1,-3,-97,1,0,0,-3.0,-2.0,-1012.0
1777585321.917464,init_hover,none,-,0,,,,,,,,,70,254919.0,86,65.0,0,-2,-97,0,0,0,11.0,7.0,-1001.0
1777585321.96821,init_hover,none,-,0,,,,,,,,,70,254919.0,86,65.0,0,-2,-97,0,0,0,11.0,7.0,-1001.0
1777585322.019077,init_hover,none,-,0,,,,,,,,,70,254926.00000000003,86,65.0,0,-1,-97,0,0,0,-1.0,29.0,-1022.0
1777585322.0688,init_hover,none,-,0,,,,,,,,,70,254926.00000000003,86,65.0,0,-1,-97,0,0,0,-1.0,29.0,-1022.0
1777585322.118547,init_hover,none,-,0,,,,,,,,,70,254916.0,86,65.0,0,-1,-97,0,0,0,5.0,-12.0,-997.0
1777585322.167684,init_hover,none,-,0,,,,,,,,,70,254916.0,86,65.0,0,-1,-97,0,0,0,5.0,-12.0,-997.0
1777585322.217559,init_hover,none,-,0,,,,,,,,,70,254919.0,86,65.0,0,-2,-97,0,0,0,12.0,-7.0,-984.0
1777585322.267831,init_hover,none,-,0,,,,,,,,,70,254919.0,86,65.0,0,-2,-97,0,0,0,12.0,-7.0,-984.0
1777585322.31759,init_hover,none,-,0,,,,,,,,,70,254923.0,86,65.0,0,-2,-97,0,0,0,17.0,8.0,-964.0
1777585322.3678138,init_hover,none,-,0,,,,,,,,,70,254923.0,86,65.0,0,-2,-97,0,0,0,17.0,8.0,-964.0
1777585322.4175591,init_hover,none,-,0,,,,,,,,,70,254927.0,86,65.0,0,-2,-97,0,0,0,0.0,30.0,-977.0
1777585322.467478,init_hover,none,-,0,,,,,,,,,70,254927.0,86,65.0,0,-2,-97,0,0,0,0.0,30.0,-977.0
1777585322.516404,init_hover,none,-,0,,,,,,,,,70,254919.99999999997,86,65.0,0,-2,-97,0,0,0,-10.0,8.0,-998.0
1777585322.56674,init_hover,none,-,0,,,,,,,,,70,254919.99999999997,86,65.0,0,-2,-97,0,0,0,-10.0,8.0,-998.0
1777585322.6165812,init_hover,none,-,0,,,,,,,,,70,254917.99999999997,86,65.5,0,-1,-98,0,0,0,19.0,0.0,-1013.0
1777585322.666396,init_hover,none,-,0,,,,,,,,,70,254917.99999999997,86,65.5,0,-1,-98,0,0,0,19.0,0.0,-1013.0
1777585322.716516,init_hover,none,-,0,,,,,,,,,70,254917.99999999997,86,65.5,0,-1,-98,0,0,0,19.0,0.0,-1013.0
1777585322.766568,init_hover,none,-,0,,,,,,,,,70,254925.0,86,65.5,1,-1,-98,0,0,0,10.0,-5.0,-988.0
1777585322.816836,init_hover,none,-,0,,,,,,,,,70,254925.0,86,65.5,1,-1,-98,0,0,0,10.0,-5.0,-988.0
1777585322.8672152,init_hover,none,-,0,,,,,,,,,70,254919.99999999997,85,65.5,0,-1,-98,0,0,0,0.0,28.0,-1005.0
1777585322.91748,init_hover,none,-,0,,,,,,,,,70,254919.99999999997,85,65.5,0,-1,-98,0,0,0,0.0,28.0,-1005.0
1777585322.968286,init_hover,none,-,0,,,,,,,,,70,254921.0,85,65.5,0,-1,-98,0,0,0,6.0,21.0,-979.0
1777585323.018134,init_hover,none,-,0,,,,,,,,,70,254921.0,85,65.5,0,-1,-98,0,0,0,6.0,21.0,-979.0
1777585323.0676942,init_hover,none,-,0,,,,,,,,,70,254925.0,85,65.5,0,-1,-98,0,0,0,7.0,21.0,-976.0
1777585323.118685,init_hover,none,-,0,,,,,,,,,70,254925.0,85,65.5,0,-1,-98,0,0,0,7.0,21.0,-976.0
1777585323.168354,init_hover,none,-,0,,,,,,,,,70,254914.0,85,65.5,0,-1,-98,0,0,0,2.0,22.0,-983.0
1777585323.218326,init_hover,none,-,0,,,,,,,,,70,254914.0,85,65.5,0,-1,-98,0,0,0,2.0,22.0,-983.0
1777585323.268184,init_hover,none,-,0,,,,,,,,,70,254927.0,85,65.5,0,-1,-98,0,0,0,5.0,15.0,-991.0
1777585323.317975,init_hover,none,-,0,,,,,,,,,70,254927.0,85,65.5,0,-1,-98,0,0,0,5.0,15.0,-991.0
1777585323.367475,init_hover,none,-,0,,,,,,,,,70,254926.00000000003,85,65.5,0,-1,-97,0,0,0,9.0,4.0,-1012.0
1777585323.417436,init_hover,none,-,0,,,,,,,,,70,254926.00000000003,85,65.5,0,-1,-97,0,0,0,9.0,4.0,-1012.0
1777585323.467475,init_hover,none,-,0,,,,,,,,,70,254915.0,85,65.5,0,-1,-97,0,0,0,-4.0,15.0,-1021.0
1777585323.51741,init_hover,none,-,0,,,,,,,,,70,254915.0,85,65.5,0,-1,-97,0,0,0,-4.0,15.0,-1021.0
1777585323.567724,init_hover,none,-,0,,,,,,,,,70,254921.0,85,65.5,0,-1,-97,0,0,0,-3.0,28.0,-994.0
1777585323.617634,init_hover,none,-,0,,,,,,,,,70,254921.0,85,65.5,0,-1,-97,0,0,0,-3.0,28.0,-994.0
1777585323.667692,init_hover,none,-,0,,,,,,,,,70,254925.0,85,66.0,0,-1,-97,0,0,0,7.0,19.0,-980.0
1777585323.7175481,init_hover,none,-,0,,,,,,,,,70,254925.0,85,66.0,0,-1,-97,0,0,0,7.0,19.0,-980.0
1777585323.767526,init_hover,none,-,0,,,,,,,,,70,254921.0,85,66.0,0,-1,-97,0,0,0,1.0,28.0,-995.0
1777585323.817811,init_hover,none,-,0,,,,,,,,,70,254921.0,85,66.0,0,-1,-97,0,0,0,1.0,28.0,-995.0
1777585323.867918,init_hover,none,-,0,,,,,,,,,70,254932.00000000003,85,66.0,0,-1,-97,0,0,0,3.0,40.0,-967.0
1777585323.9175448,init_hover,none,-,0,,,,,,,,,70,254932.00000000003,85,66.0,0,-1,-97,0,0,0,3.0,40.0,-967.0
1777585323.967679,init_hover,none,-,0,,,,,,,,,70,254917.0,85,66.0,0,-1,-97,0,0,0,-4.0,8.0,-1011.0
1777585324.0175428,init_hover,none,-,0,,,,,,,,,70,254917.0,85,66.0,0,-1,-97,0,0,0,-4.0,8.0,-1011.0
1777585324.0677838,init_hover,none,-,0,,,,,,,,,70,254927.0,85,66.0,0,-1,-97,0,0,0,5.0,-6.0,-984.0
1777585324.11805,init_hover,none,-,0,,,,,,,,,70,254927.0,85,66.0,0,-1,-97,0,0,0,5.0,-6.0,-984.0
1777585324.166816,init_hover,none,-,0,,,,,,,,,70,254931.0,85,66.0,0,-1,-97,0,0,0,12.0,4.0,-1012.0
1777585324.215629,init_hover,none,-,0,,,,,,,,,70,254931.0,85,66.0,0,-1,-97,0,0,0,12.0,4.0,-1012.0
1777585324.264631,init_hover,none,-,0,,,,,,,,,70,254921.0,85,66.0,0,-1,-97,0,0,0,0.0,27.0,-1011.0
1777585324.315892,init_hover,none,-,0,,,,,,,,,70,254921.0,85,66.0,0,-1,-97,0,0,0,0.0,27.0,-1011.0
1777585324.36797,init_hover,none,-,0,,,,,,,,,70,254917.99999999997,85,66.0,0,-1,-97,0,0,0,11.0,5.0,-1002.0
1777585324.418224,init_hover,none,-,0,,,,,,,,,70,254917.99999999997,85,66.0,0,-1,-97,0,0,0,11.0,5.0,-1002.0
1777585324.479808,init_hover,none,-,0,,,,,,,,,70,254927.0,85,66.0,0,-1,-97,0,0,0,1.0,40.0,-994.0
1777585324.529825,init_hover,none,-,0,,,,,,,,,70,254927.0,85,66.0,0,-1,-97,0,0,0,1.0,40.0,-994.0
1777585324.580972,init_hover,none,-,0,,,,,,,,,70,254919.99999999997,85,66.0,0,-1,-97,0,0,0,11.0,29.0,-994.0
1777585324.631718,init_hover,none,-,0,,,,,,,,,70,254919.99999999997,85,66.0,0,-1,-97,0,0,0,11.0,29.0,-994.0
1777585324.681888,init_hover,none,-,0,,,,,,,,,60,254919.0,85,66.0,0,-1,-97,0,0,0,2.0,31.0,-1000.0
1777585324.7320168,init_hover,none,-,0,,,,,,,,,60,254919.0,85,66.0,0,-1,-97,0,0,0,2.0,31.0,-1000.0
1777585324.781462,init_hover,none,-,0,,,,,,,,,60,254917.0,85,66.0,0,-1,-97,0,0,0,5.0,21.0,-1006.0
1777585324.83152,init_hover,none,-,0,,,,,,,,,60,254917.0,85,66.0,0,-1,-97,0,0,0,5.0,21.0,-1006.0
1777585324.881505,init_hover,none,-,0,,,,,,,,,60,254928.00000000003,84,66.0,0,-1,-97,0,0,0,14.0,10.0,-1005.0
1777585324.9314308,init_hover,none,-,0,,,,,,,,,60,254928.00000000003,84,66.0,0,-1,-97,0,0,0,14.0,10.0,-1005.0
1777585324.9814851,init_hover,none,-,0,,,,,,,,,60,254917.99999999997,84,66.0,1,-1,-97,0,0,0,19.0,-13.0,-1041.0
1777585325.0316029,init_hover,none,-,0,,,,,,,,,60,254917.99999999997,84,66.0,1,-1,-97,0,0,0,19.0,-13.0,-1041.0
1777585325.080904,init_hover,none,-,0,,,,,,,,,60,254925.0,84,66.0,1,0,-97,0,0,0,8.0,3.0,-1031.0
1777585325.1305878,init_hover,none,-,0,,,,,,,,,60,254925.0,84,66.0,1,0,-97,0,0,0,8.0,3.0,-1031.0
1777585325.179789,init_hover,none,-,0,,,,,,,,,60,254919.99999999997,84,66.0,1,0,-97,0,0,0,4.0,5.0,-1025.0
1777585325.2293582,init_hover,none,-,0,,,,,,,,,60,254919.99999999997,84,66.0,1,0,-97,0,0,0,4.0,5.0,-1025.0
1777585325.2793941,init_hover,none,-,0,,,,,,,,,60,254919.99999999997,84,66.0,1,0,-97,0,0,0,0.0,29.0,-1003.0
1777585325.329477,init_hover,none,-,0,,,,,,,,,60,254919.99999999997,84,66.0,1,0,-97,0,0,0,0.0,29.0,-1003.0
1777585325.379383,init_hover,none,-,0,,,,,,,,,60,254915.0,84,66.0,1,0,-97,0,0,0,1.0,31.0,-995.0
1777585325.4289799,init_hover,none,-,0,,,,,,,,,60,254921.99999999997,84,66.0,0,-1,-97,0,0,0,0.0,21.0,-999.0
1777585325.478863,init_hover,none,-,0,,,,,,,,,60,254921.99999999997,84,66.0,0,-1,-97,0,0,0,0.0,21.0,-999.0
1777585325.5289779,init_hover,none,-,0,,,,,,,,,60,254919.0,84,66.0,0,-1,-97,0,0,0,20.0,-8.0,-1009.0
1777585325.578342,init_hover,none,-,0,,,,,,,,,60,254919.0,84,66.0,0,-1,-97,0,0,0,20.0,-8.0,-1009.0
1777585325.628086,init_hover,none,-,0,,,,,,,,,60,254919.0,84,66.0,0,-1,-97,0,0,0,20.0,-8.0,-1009.0
1777585325.67792,init_hover,none,-,0,,,,,,,,,60,254914.0,84,66.0,0,-1,-97,0,0,0,6.0,28.0,-1013.0
1777585325.7277539,init_hover,none,-,0,,,,,,,,,60,254914.0,84,66.0,0,-1,-97,0,0,0,6.0,28.0,-1013.0
1777585325.777571,init_hover,none,-,0,,,,,,,,,60,254909.0,84,66.0,1,-1,-97,0,0,0,11.0,-9.0,-1016.0
1777585331.872735,pre_hover,right,x,1,,,,,,,,,60,254915.0,81,67.0,1,-1,-97,0,0,0,13.0,-11.0,-992.0
1777585331.922668,pre_hover,right,x,1,,,,,,,,,60,254914.0,81,67.0,1,-1,-97,0,0,0,12.0,8.0,-1022.0
1777585331.972747,pre_hover,right,x,1,,,,,,,,,60,254914.0,81,67.0,1,-1,-97,0,0,0,12.0,8.0,-1022.0
1777585332.022688,pre_hover,right,x,1,,,,,,,,,60,254916.0,81,67.0,1,-1,-97,0,0,0,11.0,38.0,-978.0
1777585332.072483,pre_hover,right,x,1,,,,,,,,,60,254916.0,81,67.0,1,-1,-97,0,0,0,11.0,38.0,-978.0
1777585332.122942,pre_hover,right,x,1,,,,,,,,,60,254917.0,81,67.0,1,-1,-97,0,0,0,25.0,-2.0,-953.0
1777585332.173045,pre_hover,right,x,1,,,,,,,,,60,254917.0,81,67.0,1,-1,-97,0,0,0,25.0,-2.0,-953.0
1777585332.222176,pre_hover,right,x,1,,,,,,,,,60,254923.99999999997,81,67.0,1,-1,-98,0,0,0,19.0,-2.0,-1004.0
1777585332.2719119,pre_hover,right,x,1,,,,,,,,,60,254923.99999999997,81,67.0,1,-1,-98,0,0,0,19.0,-2.0,-1004.0
1777585332.321373,pre_hover,right,x,1,,,,,,,,,60,254926.00000000003,81,67.0,1,-1,-98,0,0,0,14.0,17.0,-1013.0
1777585332.371205,pre_hover,right,x,1,,,,,,,,,60,254926.00000000003,81,67.0,1,-1,-98,0,0,0,14.0,17.0,-1013.0
1777585332.421601,pre_hover,right,x,1,,,,,,,,,60,254917.99999999997,81,67.0,1,-1,-98,0,0,0,13.0,8.0,-991.0
1777585332.4718888,pre_hover,right,x,1,,,,,,,,,60,254917.99999999997,81,67.0,1,-1,-98,0,0,0,13.0,8.0,-991.0
1777585332.5229309,pre_hover,right,x,1,,,,,,,,,60,254921.0,81,67.0,1,-1,-98,0,0,0,4.0,1.0,-999.0
1777585332.57314,pre_hover,right,x,1,,,,,,,,,60,254921.0,81,67.0,1,-1,-98,0,0,0,4.0,1.0,-999.0
1777585332.622907,pre_hover,right,x,1,,,,,,,,,60,254921.99999999997,81,67.0,1,-1,-98,0,0,0,20.0,2.0,-1022.0
1777585332.67347,pre_hover,right,x,1,,,,,,,,,60,254921.99999999997,81,67.0,1,-1,-98,0,0,0,20.0,2.0,-1022.0
1777585332.723329,pre_hover,right,x,1,,,,,,,,,60,254921.99999999997,81,67.0,1,-1,-98,0,0,0,20.0,2.0,-1022.0
1777585332.7732852,pre_hover,right,x,1,,,,,,,,,60,254921.99999999997,81,67.0,1,-1,-98,0,0,0,10.0,8.0,-1014.0
1777585332.823791,pre_hover,right,x,1,,,,,,,,,60,254921.99999999997,81,67.0,1,-1,-98,0,0,0,10.0,8.0,-1014.0
1777585332.874105,pre_hover,right,x,1,,,,,,,,,60,254917.0,80,67.0,0,-1,-98,0,0,0,12.0,16.0,-1012.0
1777585332.924414,pre_hover,right,x,1,,,,,,,,,60,254923.0,80,67.0,0,-1,-97,0,0,0,8.0,21.0,-998.0
1777585332.974236,pre_hover,right,x,1,,,,,,,,,60,254923.0,80,67.0,0,-1,-97,0,0,0,8.0,21.0,-998.0
1777585333.024308,pre_hover,right,x,1,,,,,,,,,60,254919.0,80,67.0,0,-1,-97,0,0,0,2.0,-2.0,-1034.0
1777585333.07506,pre_hover,right,x,1,,,,,,,,,60,254919.0,80,67.0,0,-1,-97,0,0,0,2.0,-2.0,-1034.0
1777585333.125822,pre_hover,right,x,1,,,,,,,,,60,254919.0,80,67.0,0,-1,-97,0,0,0,2.0,-2.0,-1034.0
1777585333.176121,pre_hover,right,x,1,,,,,,,,,60,254917.99999999997,80,67.0,0,-1,-97,0,0,0,3.0,35.0,-1007.0
1777585333.226463,pre_hover,right,x,1,,,,,,,,,60,254917.99999999997,80,67.0,0,-1,-97,0,0,0,3.0,35.0,-1007.0
1777585333.276182,pre_hover,right,x,1,,,,,,,,,60,254923.0,80,67.0,1,-1,-97,0,0,0,11.0,19.0,-993.0
1777585333.326895,pre_hover,right,x,1,,,,,,,,,60,254923.0,80,67.0,1,-1,-97,0,0,0,11.0,19.0,-993.0
1777585333.377271,pre_hover,right,x,1,,,,,,,,,60,254910.0,80,67.0,1,-1,-97,0,0,0,-5.0,6.0,-1005.0
1777585333.4279418,pre_hover,right,x,1,,,,,,,,,60,254910.0,80,67.0,1,-1,-97,0,0,0,-5.0,6.0,-1005.0
1777585333.4777422,pre_hover,right,x,1,,,,,,,,,60,254917.0,80,67.0,1,-1,-98,0,0,0,3.0,10.0,-1021.0
1777585333.528595,pre_hover,right,x,1,,,,,,,,,60,254917.0,80,67.0,1,-1,-98,0,0,0,3.0,10.0,-1021.0
1777585333.578615,pre_hover,right,x,1,,,,,,,,,60,254917.0,80,67.0,1,-1,-98,0,0,0,4.0,33.0,-1012.0
1777585333.628843,pre_hover,right,x,1,,,,,,,,,60,254917.0,80,67.0,1,-1,-98,0,0,0,4.0,33.0,-1012.0
1777585333.679185,pre_hover,right,x,1,,,,,,,,,60,254921.99999999997,80,67.0,1,-1,-98,0,0,0,12.0,-18.0,-1013.0
1777585333.7297962,pre_hover,right,x,1,,,,,,,,,60,254921.99999999997,80,67.0,1,-1,-98,0,0,0,12.0,-18.0,-1013.0
1777585333.780344,pre_hover,right,x,1,,,,,,,,,60,254926.00000000003,80,67.5,1,-1,-98,0,0,0,-10.0,24.0,-1023.0
1777585333.830443,pre_hover,right,x,1,,,,,,,,,60,254926.00000000003,80,67.5,1,-1,-98,0,0,0,-10.0,24.0,-1023.0
1777585333.8809521,pre_hover,right,x,1,,,,,,,,,60,254921.99999999997,80,67.5,1,-1,-98,0,0,0,29.0,1.0,-990.0
1777585333.93179,pre_hover,right,x,1,,,,,,,,,60,254917.0,80,67.5,1,-1,-98,0,0,0,-5.0,6.0,-994.0
1777585333.981481,pre_hover,right,x,1,,,,,,,,,60,254917.0,80,67.5,1,-1,-98,0,0,0,-5.0,6.0,-994.0
1777585334.0323572,pre_hover,right,x,1,,,,,,,,,60,254921.99999999997,80,67.5,1,-1,-98,0,0,0,23.0,13.0,-977.0
1777585334.08251,pre_hover,right,x,1,,,,,,,,,60,254921.99999999997,80,67.5,1,-1,-98,0,0,0,23.0,13.0,-977.0
1777585334.133294,pre_hover,right,x,1,,,,,,,,,60,254921.99999999997,80,67.5,1,-1,-98,0,0,0,13.0,-5.0,-1013.0
1777585334.183151,pre_hover,right,x,1,,,,,,,,,60,254921.99999999997,80,67.5,1,-1,-98,0,0,0,13.0,-5.0,-1013.0
1777585334.233324,pre_hover,right,x,1,,,,,,,,,60,254914.0,80,67.5,1,-1,-98,0,0,0,-9.0,23.0,-1011.0
1777585334.2838311,pre_hover,right,x,1,,,,,,,,,60,254914.0,80,67.5,1,-1,-98,0,0,0,-9.0,23.0,-1011.0
1777585334.33465,pre_hover,right,x,1,,,,,,,,,60,254919.0,80,67.5,1,-1,-98,0,0,0,30.0,3.0,-975.0
1777585334.385767,pre_hover,right,x,1,,,,,,,,,60,254919.0,80,67.5,1,-1,-98,0,0,0,30.0,3.0,-975.0
1777585334.437344,pre_hover,right,x,1,,,,,,,,,60,254923.0,80,67.5,1,-1,-98,0,0,0,15.0,0.0,-1028.0
1777585334.487252,pre_hover,right,x,1,,,,,,,,,60,254923.0,80,67.5,1,-1,-98,0,0,0,15.0,0.0,-1028.0
1777585334.538135,pre_hover,right,x,1,,,,,,,,,60,254919.0,80,67.5,1,-1,-98,0,0,0,15.0,29.0,-1018.0
1777585334.588629,pre_hover,right,x,1,,,,,,,,,60,254919.0,80,67.5,1,-1,-98,0,0,0,15.0,29.0,-1018.0
1777585334.638283,pre_hover,right,x,1,,,,,,,,,60,254915.0,80,67.5,1,-1,-98,0,0,0,10.0,12.0,-985.0
1777585334.688448,pre_hover,right,x,1,,,,,,,,,60,254915.0,80,67.5,1,-1,-98,0,0,0,10.0,12.0,-985.0
1777585334.738848,pre_hover,right,x,1,,,,,,,,,60,254923.99999999997,80,67.5,1,-1,-98,0,0,0,-11.0,22.0,-1021.0
1777585334.7891462,pre_hover,right,x,1,,,,,,,,,60,254923.99999999997,80,67.5,1,-1,-98,0,0,0,-11.0,22.0,-1021.0
1777585334.839139,pre_hover,right,x,1,,,,,,,,,60,254921.99999999997,79,67.5,1,-1,-98,0,0,0,-7.0,48.0,-990.0
1777585334.889188,response,right,x,1,1777585334.888899,0.00028896331787109375,,,,,,,60,254921.99999999997,79,67.5,1,-1,-98,0,0,0,-7.0,48.0,-990.0
1777585334.938868,response,right,x,1,1777585334.888899,0.04996895790100098,,,,,,,60,254926.00000000003,79,67.5,1,-1,-98,0,0,0,-2.0,38.0,-995.0
1777585334.989295,response,right,x,1,1777585334.888899,0.10039591789245605,,,,,,,60,254926.00000000003,79,67.5,1,-1,-98,0,0,0,-2.0,38.0,-995.0
1777585335.038819,response,right,x,1,1777585334.888899,0.14991998672485352,,,,,,,60,254916.0,79,67.5,1,0,-97,0,0,0,11.0,-9.0,-1022.0
1777585335.088323,response,right,x,1,1777585334.888899,0.19942402839660645,,,,,,,60,254916.0,79,67.5,1,0,-97,0,0,0,11.0,-9.0,-1022.0
1777585335.137996,response,right,x,1,1777585334.888899,0.24909687042236328,,,,,,,60,254928.00000000003,79,67.5,0,4,-97,0,0,0,18.0,37.0,-953.0
1777585335.1874719,response,right,x,1,1777585334.888899,0.2985727787017822,,,,,,,60,254928.00000000003,79,67.5,0,4,-97,0,0,0,18.0,37.0,-953.0
1777585335.237719,response,right,x,1,1777585334.888899,0.3488199710845947,,,,,,,60,254915.0,79,67.5,0,4,-97,1,0,0,13.0,12.0,-991.0
1777585335.287203,response,right,x,1,1777585334.888899,0.3983039855957031,,,,,,,60,254915.0,79,67.5,0,4,-97,1,0,0,13.0,12.0,-991.0
1777585335.3378618,response,right,x,1,1777585334.888899,0.4489626884460449,,,,,,,60,254923.99999999997,79,67.5,1,2,-97,1,0,0,-11.0,24.0,-1030.0
1777585335.3880699,response,right,x,1,1777585334.888899,0.49917078018188477,,,,,,,60,254923.99999999997,79,67.5,1,2,-97,1,0,0,-11.0,24.0,-1030.0
1777585335.438842,response,right,x,1,1777585334.888899,0.5499429702758789,,,,,,,60,254925.0,79,67.5,0,0,-97,2,0,0,-3.0,21.0,-980.0
1777585335.4885278,response,right,x,1,1777585334.888899,0.5996286869049072,,,,,,,60,254925.0,79,67.5,0,0,-97,2,0,0,-3.0,21.0,-980.0
1777585335.539037,response,right,x,1,1777585334.888899,0.6501379013061523,,,,,,,60,254921.99999999997,79,67.5,1,0,-97,2,0,0,6.0,9.0,-1020.0
1777585335.588577,response,right,x,1,1777585334.888899,0.6996779441833496,,,,,,,60,254921.99999999997,79,67.5,1,0,-97,2,0,0,6.0,9.0,-1020.0
1777585335.638405,response,right,x,1,1777585334.888899,0.7495059967041016,,,,,,,60,254917.99999999997,79,67.5,1,0,-97,2,0,0,16.0,9.0,-998.0
1777585335.688868,response,right,x,1,1777585334.888899,0.799968957901001,,,,,,,60,254917.99999999997,79,67.5,1,0,-97,2,0,0,16.0,9.0,-998.0
1777585335.739004,response,right,x,1,1777585334.888899,0.850104808807373,,,,,,,60,254919.0,79,67.5,0,0,-97,2,0,0,0.0,0.0,-1034.0
1777585335.789514,response,right,x,1,1777585334.888899,0.9006149768829346,,,,,,,60,254919.0,79,67.5,0,0,-97,2,0,0,0.0,0.0,-1034.0
1777585335.840121,response,right,x,1,1777585334.888899,0.9512219429016113,,,,,,,60,254921.0,79,67.5,0,0,-97,2,0,0,-9.0,25.0,-1003.0
1777585335.889535,response,right,x,1,1777585334.888899,1.0006358623504639,,,,,,,60,254921.0,79,67.5,0,0,-97,2,0,0,-9.0,25.0,-1003.0
1777585335.9401789,response,right,x,1,1777585334.888899,1.0512797832489014,,,,,,,60,254929.0,79,67.5,0,0,-97,2,0,0,1.0,-13.0,-1006.0
1777585335.989815,response,right,x,1,1777585334.888899,1.1009159088134766,,,,,,,60,254929.0,79,67.5,0,0,-97,2,0,0,1.0,-13.0,-1006.0
1777585336.040577,response,right,x,1,1777585334.888899,1.1516778469085693,,,,,,,60,254917.99999999997,79,67.5,1,0,-97,2,0,0,8.0,-10.0,-968.0
1777585336.089926,response,right,x,1,1777585334.888899,1.2010269165039062,,,,,,,60,254917.99999999997,79,67.5,1,0,-97,2,0,0,8.0,-10.0,-968.0
1777585336.1397219,response,right,x,1,1777585334.888899,1.2508227825164795,,,,,,,60,254919.0,79,67.5,0,-2,-97,2,0,0,-2.0,10.0,-968.0
1777585336.18866,response,right,x,1,1777585334.888899,1.2997608184814453,,,,,,,60,254919.0,79,67.5,0,-2,-97,2,0,0,-2.0,10.0,-968.0
1777585336.238324,response,right,x,1,1777585334.888899,1.3494248390197754,,,,,,,60,254919.0,79,67.5,0,-2,-97,2,0,0,-2.0,10.0,-968.0
1777585336.288954,response,right,x,1,1777585334.888899,1.400054931640625,,,,,,,60,254919.0,79,67.5,0,-6,-97,1,0,0,11.0,-7.0,-1043.0
1777585336.339117,response,right,x,1,1777585334.888899,1.4502179622650146,,,,,,,60,254919.0,79,67.5,0,-6,-97,1,0,0,11.0,-7.0,-1043.0
1777585336.389081,response,right,x,1,1777585334.888899,1.5001819133758545,,,,,,,60,254919.99999999997,79,67.5,0,-4,-97,1,0,0,10.0,-6.0,-1010.0
1777585336.439113,response,right,x,1,1777585334.888899,1.5502138137817383,,,,,,,60,254919.99999999997,79,67.5,0,-4,-97,1,0,0,10.0,-6.0,-1010.0
1777585336.488812,response,right,x,1,1777585334.888899,1.5999128818511963,,,,,,,60,254919.0,79,67.5,0,-2,-97,0,0,0,25.0,-12.0,-995.0
1777585336.5397398,response,right,x,1,1777585334.888899,1.6508407592773438,,,,,,,60,254919.0,79,67.5,0,-2,-97,0,0,0,25.0,-12.0,-995.0
1777585336.589843,response,right,x,1,1777585334.888899,1.700943946838379,,,,,,,60,254923.0,79,67.5,1,-1,-97,0,0,0,13.0,0.0,-1019.0
1777585336.640009,response,right,x,1,1777585334.888899,1.7511098384857178,,,,,,,60,254923.0,79,67.5,1,-1,-97,0,0,0,13.0,0.0,-1019.0
1777585336.689712,response,right,x,1,1777585334.888899,1.8008129596710205,,,,,,,60,254912.0,79,67.5,1,-1,-97,0,0,0,18.0,4.0,-965.0
1777585336.740151,response,right,x,1,1777585334.888899,1.8512518405914307,,,,,,,60,254912.0,79,67.5,1,-1,-97,0,0,0,18.0,4.0,-965.0
1777585336.79037,response,right,x,1,1777585334.888899,1.9014708995819092,,,,,,,60,254919.99999999997,79,68.0,1,-1,-97,0,0,0,9.0,-5.0,-981.0
1777585336.840169,response,right,x,1,1777585334.888899,1.9512698650360107,,,,,,,60,254919.99999999997,79,68.0,1,-1,-97,0,0,0,9.0,-5.0,-981.0
1777585336.8895411,response,right,x,1,1777585334.888899,2.0006420612335205,,,,,,,60,254913.0,78,68.0,1,-1,-97,0,0,0,-3.0,11.0,-1002.0
1777585336.9398751,response,right,x,1,1777585334.888899,2.050976037979126,,,,,,,60,254913.0,78,68.0,1,-1,-97,0,0,0,-3.0,11.0,-1002.0
1777585336.989305,response,right,x,1,1777585334.888899,2.1004059314727783,,,,,,,60,254921.99999999997,78,68.0,1,-1,-97,0,0,0,4.0,0.0,-972.0
1777585337.039465,response,right,x,1,1777585334.888899,2.1505658626556396,,,,,,,60,254921.99999999997,78,68.0,1,-1,-97,0,0,0,4.0,0.0,-972.0
1777585337.088778,response,right,x,1,1777585334.888899,2.1998789310455322,,,,,,,60,254921.0,78,68.0,1,-1,-97,0,0,0,-1.0,32.0,-1014.0
1777585337.1381812,response,right,x,1,1777585334.888899,2.249282121658325,,,,,,,60,254921.0,78,68.0,1,-1,-97,0,0,0,-1.0,32.0,-1014.0
1777585337.188299,response,right,x,1,1777585334.888899,2.2993998527526855,,,,,,,60,254926.00000000003,78,68.0,1,-1,-97,0,0,0,3.0,-3.0,-1035.0
1777585337.239359,response,right,x,1,1777585334.888899,2.3504598140716553,,,,,,,60,254926.00000000003,78,68.0,1,-1,-97,0,0,0,3.0,-3.0,-1035.0
1777585337.2893372,response,right,x,1,1777585334.888899,2.400438070297241,,,,,,,60,254919.99999999997,78,68.0,1,-1,-97,0,0,0,1.0,19.0,-1012.0
1777585337.339663,response,right,x,1,1777585334.888899,2.4507639408111572,,,,,,,60,254919.99999999997,78,68.0,1,-1,-97,0,0,0,1.0,19.0,-1012.0
1777585337.389025,response,right,x,1,1777585334.888899,2.5001258850097656,,,,,,,60,254927.0,78,68.0,1,-1,-97,0,0,0,15.0,8.0,-968.0
1777585337.439262,response,right,x,1,1777585334.888899,2.5503628253936768,,,,,,,60,254927.0,78,68.0,1,-1,-97,0,0,0,15.0,8.0,-968.0
1777585337.489425,response,right,x,1,1777585334.888899,2.6005258560180664,,,,,,,60,254916.0,78,68.0,1,-1,-97,0,0,0,6.0,-4.0,-997.0
1777585337.539336,response,right,x,1,1777585334.888899,2.6504368782043457,,,,,,,60,254916.0,78,68.0,1,-1,-97,0,0,0,6.0,-4.0,-997.0
1777585337.588732,response,right,x,1,1777585334.888899,2.6998329162597656,,,,,,,60,254919.99999999997,78,68.0,1,-1,-97,0,0,0,3.0,34.0,-1015.0
1777585337.6379771,response,right,x,1,1777585334.888899,2.7490780353546143,,,,,,,60,254921.99999999997,78,68.0,1,-1,-97,0,0,0,-3.0,12.0,-1002.0
1777585337.687745,response,right,x,1,1777585334.888899,2.7988460063934326,,,,,,,60,254921.99999999997,78,68.0,1,-1,-97,0,0,0,-3.0,12.0,-1002.0
1777585337.738014,response,right,x,1,1777585334.888899,2.8491148948669434,,,,,,,60,254921.99999999997,78,68.0,1,-1,-97,0,0,0,-3.0,12.0,-1002.0
1777585337.787657,response,right,x,1,1777585334.888899,2.8987579345703125,,,,,,,60,254923.0,78,67.5,1,-1,-97,0,0,0,10.0,-1.0,-987.0
1777585337.837708,response,right,x,1,1777585334.888899,2.9488089084625244,,,,,,,60,254923.0,78,67.5,1,-1,-97,0,0,0,10.0,-1.0,-987.0
1777585337.886197,response,right,x,1,1777585334.888899,2.997298002243042,,,,,,,60,254921.0,78,67.5,1,-1,-97,0,0,0,18.0,22.0,-998.0
1777585337.9368682,response,right,x,1,1777585334.888899,3.047969102859497,,,,,,,60,254921.0,78,67.5,1,-1,-97,0,0,0,18.0,22.0,-998.0
1777585337.98608,response,right,x,1,1777585334.888899,3.0971808433532715,,,,,,,60,254925.0,78,67.5,1,-1,-97,0,0,0,12.0,-16.0,-1010.0
1777585338.0360792,response,right,x,1,1777585334.888899,3.1471800804138184,,,,,,,60,254925.0,78,67.5,1,-1,-97,0,0,0,12.0,-16.0,-1010.0
1777585338.0858722,response,right,x,1,1777585334.888899,3.1969730854034424,,,,,,,60,254919.0,78,67.5,1,0,-97,0,0,0,11.0,-2.0,-1030.0
1777585338.1362,response,right,x,1,1777585334.888899,3.247300863265991,,,,,,,60,254917.0,78,67.5,1,-1,-97,0,0,0,13.0,7.0,-997.0
1777585338.185676,response,right,x,1,1777585334.888899,3.2967770099639893,,,,,,,60,254917.0,78,67.5,1,-1,-97,0,0,0,13.0,7.0,-997.0
1777585338.236254,response,right,x,1,1777585334.888899,3.3473548889160156,,,,,,,60,254908.0,78,67.5,1,-1,-97,0,0,0,-1.0,42.0,-1007.0
1777585338.2861362,response,right,x,1,1777585334.888899,3.3972370624542236,,,,,,,60,254908.0,78,67.5,1,-1,-97,0,0,0,-1.0,42.0,-1007.0
1777585338.336791,response,right,x,1,1777585334.888899,3.4478919506073,,,,,,,60,254919.0,78,67.5,1,-1,-97,0,0,0,7.0,2.0,-1019.0
1777585338.38644,response,right,x,1,1777585334.888899,3.4975409507751465,,,,,,,60,254919.0,78,67.5,1,-1,-97,0,0,0,7.0,2.0,-1019.0
1777585338.437037,response,right,x,1,1777585334.888899,3.548137903213501,,,,,,,60,254916.0,78,67.5,1,-1,-97,0,0,0,2.0,0.0,-1013.0
1777585338.486558,response,right,x,1,1777585334.888899,3.59765887260437,,,,,,,60,254916.0,78,67.5,1,-1,-97,0,0,0,2.0,0.0,-1013.0
1777585338.536673,response,right,x,1,1777585334.888899,3.6477739810943604,,,,,,,60,254919.0,78,67.5,1,-1,-97,0,0,0,0.0,11.0,-982.0
1777585338.586973,response,right,x,1,1777585334.888899,3.6980738639831543,,,,,,,60,254919.0,78,67.5,1,-1,-97,0,0,0,0.0,11.0,-982.0
1777585338.6375868,response,right,x,1,1777585334.888899,3.748687744140625,,,,,,,60,254917.99999999997,78,67.5,1,-1,-97,0,0,0,27.0,4.0,-976.0
1777585338.6880891,response,right,x,1,1777585334.888899,3.799190044403076,,,,,,,60,254917.99999999997,78,67.5,1,-1,-97,0,0,0,27.0,4.0,-976.0
1777585338.736597,response,right,x,1,1777585334.888899,3.8476979732513428,,,,,,,60,254917.99999999997,78,67.5,1,-1,-97,0,0,0,27.0,4.0,-976.0
1777585338.7863538,response,right,x,1,1777585334.888899,3.8974547386169434,,,,,,,60,254916.0,77,67.5,1,-1,-97,0,0,0,15.0,14.0,-1026.0
1777585338.837491,response,right,x,1,1777585334.888899,3.948591947555542,,,,,,,60,254916.0,77,67.5,1,-1,-97,0,0,0,15.0,14.0,-1026.0
1777585338.886359,response,right,x,1,1777585334.888899,3.997459888458252,,,,,,,60,254919.99999999997,77,67.5,1,-1,-97,0,0,0,12.0,32.0,-1022.0
1777585338.937025,response,right,x,1,1777585334.888899,4.048125982284546,,,,,,,60,254919.99999999997,77,67.5,1,-1,-97,0,0,0,12.0,32.0,-1022.0
1777585338.9861948,response,right,x,1,1777585334.888899,4.097295761108398,,,,,,,60,254923.0,77,67.5,1,-1,-97,0,0,0,0.0,21.0,-1011.0
1777585339.037419,response,right,x,1,1777585334.888899,4.148519992828369,,,,,,,60,254923.0,77,67.5,1,-1,-97,0,0,0,0.0,21.0,-1011.0
1777585339.0872462,response,right,x,1,1777585334.888899,4.198347091674805,,,,,,,60,254921.99999999997,77,67.5,1,-1,-97,0,0,0,10.0,17.0,-1023.0
1777585339.137625,response,right,x,1,1777585334.888899,4.248725891113281,,,,,,,60,254921.99999999997,77,67.5,1,-1,-97,0,0,0,10.0,17.0,-1023.0
1777585339.188123,response,right,x,1,1777585334.888899,4.299223899841309,,,,,,,60,254915.0,77,67.5,1,-1,-97,0,0,0,14.0,0.0,-989.0
1777585339.238903,response,right,x,1,1777585334.888899,4.350003957748413,,,,,,,60,254915.0,77,67.5,1,-1,-97,0,0,0,14.0,0.0,-989.0
1777585339.289102,response,right,x,1,1777585334.888899,4.400202989578247,,,,,,,60,254927.0,77,67.5,1,-1,-97,0,0,0,6.0,29.0,-977.0
1777585339.338937,response,right,x,1,1777585334.888899,4.450037956237793,,,,,,,60,254927.0,77,67.5,1,-1,-97,0,0,0,6.0,29.0,-977.0
1777585339.38935,response,right,x,1,1777585334.888899,4.500450849533081,,,,,,,60,254917.99999999997,77,67.5,0,-1,-97,0,0,0,3.0,25.0,-984.0
1777585339.439428,response,right,x,1,1777585334.888899,4.5505290031433105,,,,,,,60,254917.99999999997,77,67.5,0,-1,-97,0,0,0,3.0,25.0,-984.0
1777585339.492394,response,right,x,1,1777585334.888899,4.603494882583618,,,,,,,60,254925.0,77,67.5,1,-1,-97,0,0,0,-7.0,11.0,-1005.0
1777585339.5413198,response,right,x,1,1777585334.888899,4.65242075920105,,,,,,,60,254925.0,77,67.5,1,-1,-97,0,0,0,-7.0,11.0,-1005.0
1777585339.590524,response,right,x,1,1777585334.888899,4.701624870300293,,,,,,,60,254925.0,77,67.5,1,-1,-97,0,0,0,17.0,26.0,-991.0
1777585339.6399739,response,right,x,1,1777585334.888899,4.75107479095459,,,,,,,60,254925.0,77,67.5,1,-1,-97,0,0,0,17.0,26.0,-991.0
1777585339.689114,response,right,x,1,1777585334.888899,4.800215005874634,,,,,,,60,254928.00000000003,77,67.5,1,-1,-97,0,0,0,0.0,15.0,-1018.0
1777585339.738923,response,right,x,1,1777585334.888899,4.850023984909058,,,,,,,60,254928.00000000003,77,67.5,1,-1,-97,0,0,0,0.0,15.0,-1018.0
1777585339.7887669,response,right,x,1,1777585334.888899,4.89986777305603,,,,,,,60,254930.00000000003,77,67.5,1,-1,-97,0,0,0,8.0,10.0,-966.0
1777585339.838624,response,right,x,1,1777585334.888899,4.949724912643433,,,,,,,60,254930.00000000003,77,67.5,1,-1,-97,0,0,0,8.0,10.0,-966.0
1777585339.887993,response,right,x,1,1777585334.888899,4.999094009399414,,,,,,,60,254927.0,77,67.5,1,-1,-97,0,0,0,9.0,10.0,-989.0
1777585339.9369721,response,right,x,1,1777585334.888899,5.048073053359985,,,,,,,60,254927.0,77,67.5,1,-1,-97,0,0,0,9.0,10.0,-989.0
1777585339.986304,response,right,x,1,1777585334.888899,5.097404956817627,,,,,,,60,254929.0,77,67.5,1,-1,-97,0,0,0,8.0,2.0,-1004.0
1777585340.0364878,response,right,x,1,1777585334.888899,5.147588729858398,,,,,,,60,254929.0,77,67.5,1,-1,-97,0,0,0,8.0,2.0,-1004.0
1777585340.086059,response,right,x,1,1777585334.888899,5.197160005569458,,,,,,,60,254919.99999999997,77,67.5,1,-1,-97,0,0,0,13.0,-6.0,-1040.0
1777585340.135846,response,right,x,1,1777585334.888899,5.246946811676025,,,,,,,60,254919.99999999997,77,67.5,1,-1,-97,0,0,0,13.0,-6.0,-1040.0
1777585340.185738,response,right,x,1,1777585334.888899,5.296838998794556,,,,,,,60,254921.99999999997,77,67.5,1,-1,-97,0,0,0,19.0,-13.0,-998.0
1777585340.2352908,response,right,x,1,1777585334.888899,5.346391677856445,,,,,,,60,254921.99999999997,77,67.5,1,-1,-97,0,0,0,19.0,-13.0,-998.0
1777585340.2848089,response,right,x,1,1777585334.888899,5.395909786224365,,,,,,,60,254923.99999999997,77,67.5,1,-1,-97,0,0,0,5.0,8.0,-1001.0
1777585340.334408,response,right,x,1,1777585334.888899,5.44550895690918,,,,,,,60,254923.99999999997,77,67.5,1,-1,-97,0,0,0,5.0,8.0,-1001.0
1777585340.3838122,response,right,x,1,1777585334.888899,5.494913101196289,,,,,,,60,254927.0,77,67.5,1,-1,-97,0,0,0,11.0,9.0,-993.0
1777585340.433635,response,right,x,1,1777585334.888899,5.544735908508301,,,,,,,60,254927.0,77,67.5,1,-1,-97,0,0,0,11.0,9.0,-993.0
1777585340.483191,response,right,x,1,1777585334.888899,5.594291925430298,,,,,,,60,254932.00000000003,77,67.5,1,-1,-97,0,0,0,10.0,26.0,-947.0
1777585340.531198,response,right,x,1,1777585334.888899,5.642298936843872,,,,,,,60,254932.00000000003,77,67.5,1,-1,-97,0,0,0,10.0,26.0,-947.0
1777585340.577873,response,right,x,1,1777585334.888899,5.688973903656006,,,,,,,60,254932.00000000003,77,67.5,1,-1,-97,0,0,0,10.0,26.0,-947.0
1777585340.626206,response,right,x,1,1777585334.888899,5.737306833267212,,,,,,,60,254919.99999999997,77,67.5,1,-1,-97,0,0,0,13.0,24.0,-1013.0
1777585340.6745532,response,right,x,1,1777585334.888899,5.785654067993164,,,,,,,60,254919.99999999997,77,67.5,1,-1,-97,0,0,0,13.0,24.0,-1013.0
1777585340.723238,response,right,x,1,1777585334.888899,5.834338903427124,,,,,,,60,254932.00000000003,77,67.5,1,-1,-97,0,0,0,8.0,11.0,-990.0
1777585340.771775,response,right,x,1,1777585334.888899,5.882875919342041,,,,,,,60,254932.00000000003,77,67.5,1,-1,-97,0,0,0,8.0,11.0,-990.0
1777585340.8211179,response,right,x,1,1777585334.888899,5.932218790054321,,,,,,,60,254932.00000000003,76,68.0,1,-1,-97,0,0,0,9.0,11.0,-1023.0
1777585340.870503,response,right,x,1,1777585334.888899,5.9816038608551025,,,,,,,60,254932.00000000003,76,68.0,1,-1,-97,0,0,0,9.0,11.0,-1023.0
1777585340.920034,response,right,x,1,1777585334.888899,6.031134843826294,,,,,,,60,254935.0,76,68.0,1,-1,-97,0,0,0,11.0,-8.0,-993.0
1777585340.970102,response,right,x,1,1777585334.888899,6.081202983856201,,,,,,,60,254935.0,76,68.0,1,-1,-97,0,0,0,11.0,-8.0,-993.0
1777585341.019808,response,right,x,1,1777585334.888899,6.130908966064453,,,,,,,60,254926.00000000003,76,68.0,1,-1,-97,0,0,0,4.0,1.0,-1018.0
1777585341.070248,response,right,x,1,1777585334.888899,6.18134880065918,,,,,,,60,254926.00000000003,76,68.0,1,-1,-97,0,0,0,4.0,1.0,-1018.0
1777585341.120717,response,right,x,1,1777585334.888899,6.231817960739136,,,,,,,60,254923.99999999997,76,68.0,1,-1,-97,0,0,0,26.0,9.0,-983.0
1777585341.1708171,response,right,x,1,1777585334.888899,6.281918048858643,,,,,,,60,254923.99999999997,76,68.0,1,-1,-97,0,0,0,26.0,9.0,-983.0
1777585341.220279,response,right,x,1,1777585334.888899,6.3313798904418945,,,,,,,60,254921.99999999997,76,68.0,1,-1,-97,0,0,0,-8.0,10.0,-1004.0
1777585341.271688,response,right,x,1,1777585334.888899,6.382788896560669,,,,,,,60,254921.99999999997,76,68.0,1,-1,-97,0,0,0,-8.0,10.0,-1004.0
1777585341.32154,response,right,x,1,1777585334.888899,6.43264102935791,,,,,,,60,254929.0,76,68.0,1,-1,-97,0,0,0,20.0,-2.0,-979.0
1777585341.3721228,response,right,x,1,1777585334.888899,6.4832236766815186,,,,,,,60,254929.0,76,68.0,1,-1,-97,0,0,0,20.0,-2.0,-979.0
1777585341.423657,response,right,x,1,1777585334.888899,6.534757852554321,,,,,,,60,254925.0,76,68.0,1,-1,-97,0,0,0,-1.0,18.0,-1035.0
1777585341.47299,response,right,x,1,1777585334.888899,6.584090948104858,,,,,,,60,254925.0,76,68.0,1,-1,-97,0,0,0,-1.0,18.0,-1035.0
1777585341.5228832,response,right,x,1,1777585334.888899,6.633984088897705,,,,,,,60,254928.00000000003,76,68.0,1,-1,-97,0,0,0,6.0,34.0,-1016.0
1777585341.572478,response,right,x,1,1777585334.888899,6.683578968048096,,,,,,,60,254928.00000000003,76,68.0,1,-1,-97,0,0,0,6.0,34.0,-1016.0
1777585341.622682,response,right,x,1,1777585334.888899,6.733783006668091,,,,,,,60,254926.00000000003,76,68.0,1,-1,-97,0,0,0,10.0,0.0,-1007.0
1777585341.672439,response,right,x,1,1777585334.888899,6.7835400104522705,,,,,,,60,254921.99999999997,76,68.0,1,-1,-97,0,0,0,-1.0,38.0,-991.0
1777585341.721225,response,right,x,1,1777585334.888899,6.8323259353637695,,,,,,,60,254921.99999999997,76,68.0,1,-1,-97,0,0,0,-1.0,38.0,-991.0
1777585341.770476,response,right,x,1,1777585334.888899,6.881577014923096,,,,,,,60,254921.99999999997,76,68.0,1,-1,-97,0,0,0,-1.0,38.0,-991.0
1777585341.819923,response,right,x,1,1777585334.888899,6.931023836135864,,,,,,,60,254921.0,76,68.0,1,-1,-97,0,0,0,18.0,8.0,-968.0
1777585341.8702981,response,right,x,1,1777585334.888899,6.981399059295654,,,,,,,60,254921.0,76,68.0,1,-1,-97,0,0,0,18.0,8.0,-968.0
1777585341.92004,response,right,x,1,1777585334.888899,7.0311408042907715,,,,,,,60,254926.00000000003,76,68.0,1,-1,-97,0,0,0,3.0,29.0,-1016.0
1777585341.969525,response,right,x,1,1777585334.888899,7.080626010894775,,,,,,,60,254927.0,76,68.0,1,-1,-97,0,0,0,20.0,-10.0,-983.0
1777585342.0197911,response,right,x,1,1777585334.888899,7.130892038345337,,,,,,,60,254927.0,76,68.0,1,-1,-97,0,0,0,20.0,-10.0,-983.0
1777585342.070388,response,right,x,1,1777585334.888899,7.181488990783691,,,,,,,60,254917.0,76,68.0,0,-1,-97,0,0,0,3.0,23.0,-1007.0
1777585342.120864,response,right,x,1,1777585334.888899,7.231964826583862,,,,,,,60,254917.0,76,68.0,0,-1,-97,0,0,0,3.0,23.0,-1007.0
1777585342.1713831,response,right,x,1,1777585334.888899,7.28248405456543,,,,,,,60,254919.0,76,68.0,1,-1,-97,0,0,0,-2.0,33.0,-1000.0
1777585342.221848,response,right,x,1,1777585334.888899,7.332948923110962,,,,,,,60,254919.0,76,68.0,1,-1,-97,0,0,0,-2.0,33.0,-1000.0
