timestamp,elapsed,target_x,target_y,target_z,pos_x,pos_y,pos_z,marker_id,publish_count,err_x_cm,err_y_cm,err_z_cm,err_3d_cm,cmd_lr,cmd_fb,cmd_ud,vel_x_pub,vel_y_pub,vel_z_pub,tello_height_cm,tello_baro_cm,tello_battery,tello_temp_c,tello_pitch,tello_roll,tello_yaw,tello_vgx,tello_vgy,tello_vgz
1778185300.430401,6.9141387939453125e-06,0.007865572182852448,0.6961706514546145,3.753674842297277,-0.09280952577547041,0.658271090400673,3.7136253434119975,2,0,10.067509795832287,3.7899561053941544,4.004949888527953,11.478595052514638,30,-22,21,0.0,0.0,0.0,40,252192.99999999997,81,71.0,0,0,0,0,0,0
1778185300.501771,0.07137680053710938,0.007865572182852448,0.6961706514546145,3.753674842297277,0.014714162797241581,0.6916868656649381,3.756232798578956,2,3,-0.6848590614389133,0.4483785789676453,-0.2557956281679097,0.8576168652153767,-30,15,-11,1.5065694230283926,0.4682055268768624,0.5969948575953501,40,252192.0,81,71.0,0,0,0,0,0,0
1778185300.573071,0.14267683029174805,0.007865572182852448,0.6961706514546145,3.753674842297277,0.014714162797241581,0.6916868656649381,3.756232798578956,2,7,-0.6848590614389133,0.4483785789676453,-0.2557956281679097,0.8576168652153767,0,0,0,0.0,0.0,0.0,40,252187.0,81,71.0,0,0,0,0,0,0
1778185300.6450539,0.2146596908569336,0.007865572182852448,0.6961706514546145,3.753674842297277,0.014714162797241581,0.6916868656649381,3.756232798578956,2,10,-0.6848590614389133,0.4483785789676453,-0.2557956281679097,0.8576168652153767,0,0,0,0.0,0.0,0.0,40,252187.0,81,71.0,0,0,0,0,0,0
1778185300.7169092,0.2865149974822998,0.007865572182852448,0.6961706514546145,3.753674842297277,-0.09448148951461532,0.6631781688530765,3.712056004990433,2,14,10.234706169746776,3.2992482601538087,4.161883730684401,11.530634225874836,30,-17,12,-1.5196602372205157,-0.3967514460761838,-0.6148021024925654,40,252189.0,81,71.0,0,0,0,0,0,0
1778185300.7876952,0.3573009967803955,0.007865572182852448,0.6961706514546145,3.753674842297277,-0.1395502354801148,0.5969638469447469,3.7066213409784554,2,18,14.741580766296725,9.920680450986763,4.705350131882158,18.381360775618433,24,-4,30,-0.6366901140394288,-0.9354155138714112,-0.07677597358046717,40,252196.99999999997,81,71.0,0,0,0,0,0,0
1778185300.859404,0.42900991439819336,0.007865572182852448,0.6961706514546145,3.753674842297277,-0.03409217727842284,0.6221790148888964,3.7521719027787817,2,21,4.195774946127529,7.399163656571817,0.15029395184953387,8.50733439375973,-30,15,-3,1.4706407753046005,0.35163224856556985,0.6352147447421628,40,252188.0,81,71.0,0,0,0,0,0,0
1778185300.9294112,0.49901700019836426,0.007865572182852448,0.6961706514546145,3.753674842297277,0.015089455209237879,0.6931656696974474,3.7559192893523483,2,25,-0.722388302638543,0.30049817571671245,-0.22444470550713191,0.8139529711403791,-17,1,-24,0.7025236363651157,1.0139924265834495,0.0535286754295593,40,252188.0,81,71.0,0,0,0,0,0,0
1778185301.0025651,0.5721709728240967,0.007865572182852448,0.6961706514546145,3.753674842297277,0.05349105276553623,0.7737962344097761,3.76981819620586,2,28,-4.562548058268378,-7.762558295516153,-1.6143353908582903,9.147690136284284,-15,5,-30,0.524942066410626,1.1022035006198185,0.18999524365710996,40,252194.0,81,71.0,0,0,0,0,0,0
1778185301.075708,0.6453137397766113,0.007865572182852448,0.6961706514546145,3.753674842297277,0.016351636762394595,0.6929587208621449,3.7570691700650043,2,32,-0.8486064579542146,0.3211930592469603,-0.3394327767727301,0.9687685542675638,12,-4,28,-0.5077660792796242,-1.1052017433263364,-0.17430330669787836,40,252190.0,81,71.0,0,0,0,0,0,0
1778185301.147775,0.7173807621002197,0.007865572182852448,0.6961706514546145,3.753674842297277,0.011327898136084369,0.6923583657255451,3.7733416608693897,2,36,-0.3462325953231921,0.38122857290694423,-1.966681857211272,2.032990349792364,1,6,0,-0.0697092576373105,-0.008330511199755362,0.2257966304104495,40,252190.0,81,71.0,0,0,0,0,0,0
1778185301.2205791,0.7901849746704102,0.007865572182852448,0.6961706514546145,3.753674842297277,0.009184987728786287,0.6942575684021741,3.7707418497864738,2,39,-0.1319415545933839,0.1913083052440423,-1.7067007489196762,1.7224502570021722,0,0,0,-0.029433879327135162,0.02608643936362887,-0.03570962436286891,40,252194.99999999997,81,71.0,0,0,0,0,0,0
1778185301.2906072,0.860213041305542,0.007865572182852448,0.6961706514546145,3.753674842297277,-0.10159504488723603,0.6659494212868546,3.726611432808024,2,43,10.946061707008848,3.0221230167759905,2.7063409489252788,11.673635926908224,30,-17,12,-1.5819376135745828,-0.404240020830702,-0.6301818556320118,50,252198.99999999997,81,71.0,0,0,0,0,0,0
1778185301.3622,0.9318058490753174,0.007865572182852448,0.6961706514546145,3.753674842297277,-0.0650751747611964,0.738491882763114,3.742930698185873,2,46,7.294074694404884,-4.23212313084994,1.0744144111404008,8.501103350101031,-8,5,-28,0.510105292189104,1.0132646523591835,0.22794559797581157,50,252198.99999999997,81,71.0,0,0,0,0,0,0
1778185301.4340029,1.0036087036132812,0.007865572182852448,0.6961706514546145,3.753674842297277,0.04289477258569119,0.7888968513651915,3.7791965536388896,2,50,-3.5029200402838736,-9.272619991057695,-2.552171134161263,10.235502323053382,-30,14,-23,1.5036999300605984,0.7019911523911246,0.5050753996673213,50,252194.0,81,71.0,0,0,0,0,0,0
1778185301.5055842,1.0751900672912598,0.007865572182852448,0.6961706514546145,3.753674842297277,0.1628371480952031,0.8393595672643863,3.8139977314312143,2,53,-15.497157591235066,-14.318891580977178,-6.032288913393735,21.94495520729096,-30,15,-27,1.6756089762287012,0.7049700272016375,0.4861765130500168,50,252196.0,81,71.0,0,0,0,0,0,0
1778185301.577885,1.1474907398223877,0.007865572182852448,0.6961706514546145,3.753674842297277,-0.029130297242068837,0.815670002615626,3.735400002820812,2,57,3.699586942492129,-11.949935116101152,1.8274839476465132,12.642293716054512,30,-28,0,-2.655126689929798,-0.32765344801683677,-1.0870954011743592,50,252196.99999999997,81,71.0,0,0,0,0,0,0
1778185301.6479201,1.2175259590148926,0.007865572182852448,0.6961706514546145,3.753674842297277,0.04085151244369101,0.7917838365699629,3.776231348871161,2,61,-3.2985940260838555,-9.561318511534832,-2.255650657388397,10.362793740884332,-26,15,1,0.9992373907391047,-0.3410593458700771,0.583011612173534,50,252196.99999999997,81,71.0,0,0,0,0,0,0
1778185301.7187788,1.2883846759796143,0.007865572182852448,0.6961706514546145,3.753674842297277,0.11879378086986525,0.7528423400215364,3.8200289553591946,2,64,-11.092820868701281,-5.667168856692184,-6.635411306191763,14.113687005091686,-30,19,9,1.0999672554751343,-0.5495653635362073,0.6180976507073802,50,252198.0,81,71.0,0,0,0,0,0,0
1778185301.7882109,1.3578166961669922,0.007865572182852448,0.6961706514546145,3.753674842297277,0.043828901135997356,0.7871942915552552,3.777230675215821,2,68,-3.5963328953144904,-9.102364010064068,-2.3555832918543906,10.066549235487516,24,-13,-18,-1.0796874342926837,0.4947566186467334,-0.6164055147448243,50,252192.99999999997,81,71.0,-1,-2,0,0,0,0
1778185301.858763,1.4283688068389893,0.007865572182852448,0.6961706514546145,3.753674842297277,0.080068767454891,0.6585212684468273,3.8084452408539815,2,71,-7.220319527203856,3.7649383007787196,-5.477039855670451,9.813548800724153,-17,14,30,0.5136609801424078,-1.8238011858587762,0.4424327683586938,50,252192.99999999997,81,71.0,-1,-2,0,0,0,0
1778185301.930101,1.499706745147705,0.007865572182852448,0.6961706514546145,3.753674842297277,-0.0008985527288840611,0.7111786797988634,3.779492830470913,2,75,0.8764124911736509,-1.5008028344248858,-2.5817988173635786,3.1122649527061395,29,-8,-19,-1.1349826207955152,0.7381403584185521,-0.4058487120524399,40,252198.0,81,71.0,0,-1,0,0,0,0
1778185302.005218,1.5748238563537598,0.007865572182852448,0.6961706514546145,3.753674842297277,-0.04291236927043718,0.6298856530450224,3.76152651572085,2,78,5.077794145328963,6.628499840959212,-0.7851673423572958,8.38674497522357,17,-5,30,-0.5593108662859051,-1.0822171599603325,-0.2391773919630536,40,252198.0,81,71.0,0,-1,0,0,0,0
1778185302.074684,1.6442897319793701,0.007865572182852448,0.6961706514546145,3.753674842297277,-0.04215397322151926,0.6340949497654665,3.7618429249815475,2,82,5.001954540437171,6.2075701689148,-0.8168082684270495,8.013778907230455,2,0,2,0.010917533855116596,0.06059517255825476,0.0045548876746741,40,252198.0,81,71.0,0,-1,0,0,0,0
1778185302.146765,1.7163708209991455,0.007865572182852448,0.6961706514546145,3.753674842297277,0.0030822067938167663,0.7047005333988704,3.763571190505405,2,86,0.47833653890356814,-0.8529881944255857,-0.9896348208128014,1.3913201582830788,-15,1,-25,0.6275734819007176,0.979529923778389,0.023976684416953956,40,252192.0,81,71.0,0,0,0,0,0,0
1778185302.218581,1.78818678855896,0.007865572182852448,0.6961706514546145,3.753674842297277,-0.06904391593563464,0.7402764763373915,3.7382567368918354,2,89,7.690948811848708,-4.410582488277692,1.541810540544164,8.998950564110904,30,-9,-15,-1.0043187494393726,0.495376503963278,-0.35249060165464763,40,252196.99999999997,81,71.0,0,0,0,0,0,0
1778185302.288408,1.8580138683319092,0.007865572182852448,0.6961706514546145,3.753674842297277,0.11814234043429928,0.7482001342476357,3.8212128096361444,2,93,-11.027676825144683,-5.202948279302111,-6.753796733886741,13.938941756086978,-30,30,-6,2.6807115087526436,0.11347543010546726,1.1880215099077645,40,252194.0,80,71.0,0,0,0,0,0,0
1778185302.361705,1.9313108921051025,0.007865572182852448,0.6961706514546145,3.753674842297277,-0.06934356989844526,0.7390165829677022,3.738570041445614,2,96,7.72091420812977,-4.284593151308769,1.5104800851663214,8.958337165413356,30,-28,0,-2.5578925402604553,-0.12529228073912718,-1.1275051009745807,40,252194.0,80,71.0,0,0,0,0,0,0
1778185302.4333599,2.0029656887054443,0.007865572182852448,0.6961706514546145,3.753674842297277,0.03776577934475711,0.7877118810131869,3.775296454493406,2,100,-2.990020716190466,-9.154122955857236,-2.1621612196129014,9.869809122460197,-30,14,-23,1.4947966406297977,0.6795818333988878,0.5125464698844325,50,252198.99999999997,80,71.0,0,0,0,0,0,0
1778185302.5135539,2.0831596851348877,0.007865572182852448,0.6961706514546145,3.753674842297277,-0.005340565548428877,0.7011346183556024,3.780004633045727,2,104,1.3206137731281324,-0.4963966900987882,-2.6329790748449877,2.9871406428704224,14,3,26,-0.5375258350057663,-1.0795978067230665,0.05870986310631412,50,252192.0,80,71.0,0,0,0,0,0,0
1778185302.582796,2.152401924133301,0.007865572182852448,0.6961706514546145,3.753674842297277,0.11841252099885247,0.7406670993990254,3.8217170421310667,2,107,-11.054694881600003,-4.449644794441088,-6.804219983378967,13.722355020337568,-30,19,-17,1.7872484821023416,0.5709301376624897,0.6024127712897293,50,252192.0,80,71.0,0,0,0,0,0,0
1778185302.653322,2.2229278087615967,0.007865572182852448,0.6961706514546145,3.753674842297277,-0.0713342539028714,0.7420427071878727,3.7368123366447747,2,111,7.919982608572385,-4.587205573325814,1.6862505652502247,9.306557927657634,30,-30,-4,-2.6904557936674927,0.019505005801733036,-1.203880049626872,50,252194.99999999997,80,71.0,0,0,0,0,0,0
1778185302.723937,2.2935428619384766,0.007865572182852448,0.6961706514546145,3.753674842297277,-0.07205715940677893,0.7368404686956422,3.7370739941210798,2,114,7.992273158963137,-4.066981724102769,1.6600848176197225,9.119904176764141,5,0,-1,-0.010237271960933814,-0.07367038978501707,0.00370540648959946,50,252192.99999999997,80,71.0,0,0,0,0,0,0
1778185302.793073,2.3626787662506104,0.007865572182852448,0.6961706514546145,3.753674842297277,-0.11723499990919706,0.670213237219003,3.733671683013304,2,118,12.51005720920495,2.5957414235611487,2.0003159283973115,12.932156383564653,23,-2,25,-0.6534642303722515,-0.9637138927963033,-0.049211927458346176,50,252192.99999999997,80,71.0,0,0,0,0,0,0
1778185302.864817,2.434422731399536,0.007865572182852448,0.6961706514546145,3.753674842297277,-0.006427162755190841,0.7037021335533299,3.778045943110773,2,121,1.4292734938043288,-0.7531482098715347,-2.437110081349614,2.923963148663172,-30,17,-12,1.5444900058700664,0.4667834606689321,0.6185086091263199,50,252196.99999999997,80,71.0,0,0,0,0,0,0
1778185302.934968,2.5045738220214844,0.007865572182852448,0.6961706514546145,3.753674842297277,-0.1156248396414381,0.6653227283619804,3.7352623130540685,2,125,12.349041182429055,3.0847923092634177,1.8412529243208464,12.860986511459357,30,-16,15,-1.5566069738633896,-0.5470963437786058,-0.6098783308625974,50,252198.99999999997,80,71.0,0,0,0,0,0,0
1778185303.005753,2.5753588676452637,0.007865572182852448,0.6961706514546145,3.753674842297277,0.0287582730303102,0.7794966573416457,3.7916098921976,2,128,-2.089270084745775,-8.332600588703121,-3.7935049900323037,9.390844592861134,-30,22,-30,2.0397403349733056,1.6129668063858698,0.7960379010422264,50,252196.99999999997,80,71.0,0,0,0,0,0,0
1778185303.0750568,2.644662618637085,0.007865572182852448,0.6961706514546145,3.753674842297277,-0.009496031998563303,0.6991779811592492,3.7774241924319343,2,132,1.7361604181415753,-0.3007329704634687,-2.3749350134657288,2.9571962456405854,15,-3,28,-0.5519802966132091,-1.1589369266877796,-0.20468877315659062,50,252189.0,80,71.0,0,0,0,0,0,0
1778185303.144725,2.7143309116363525,0.007865572182852448,0.6961706514546145,3.753674842297277,0.10577678723885142,0.7496385000626526,3.8326091547608643,2,135,-9.791121505599898,-5.34678486080381,-7.893431246358729,13.666031813446578,-30,24,-22,1.6545951432831372,0.724296760133536,0.7921101544645304,50,252189.0,80,71.0,0,0,0,0,0,0
1778185303.217033,2.7866387367248535,0.007865572182852448,0.6961706514546145,3.753674842297277,0.025622014911336866,0.7812262402111786,3.7881811608165847,2,139,-1.7756442728484416,-8.505558875656405,-3.4506318519307744,9.349026930569625,26,-12,-17,-1.108521411471156,0.4368509232557363,-0.6144285751908872,50,252194.0,80,71.0,0,0,0,0,0,0
1778185303.2877781,2.857383966445923,0.007865572182852448,0.6961706514546145,3.753674842297277,0.025622014911336866,0.7812262402111786,3.7881811608165847,2,143,-1.7756442728484416,-8.505558875656405,-3.4506318519307744,9.349026930569625,0,2,-6,0.0,0.0,0.0,50,252198.0,80,71.0,0,0,0,0,0,0
1778185303.3591008,2.928706645965576,0.007865572182852448,0.6961706514546145,3.753674842297277,0.05775004694785435,0.8665921250809515,3.794959718673503,2,146,-4.98844747650019,-17.0421473626337,-4.128487637622591,18.23084762509759,-14,5,-30,0.45046024985172417,1.1968967717519632,0.09504070658268385,50,252198.0,80,71.0,0,0,0,0,0,0
1778185303.4288971,2.9985029697418213,0.007865572182852448,0.6961706514546145,3.753674842297277,0.024809467286289966,0.782642604997204,3.786827524439843,2,150,-1.6943895103437516,-8.64719535425894,-3.3152682142565837,9.414666570831939,10,0,23,-0.47195293217972567,-1.2027785353405593,-0.11651321722517183,50,252198.0,80,71.0,-1,-1,0,0,0,0
1778185303.500315,3.069920778274536,0.007865572182852448,0.6961706514546145,3.753674842297277,-0.1334869266873584,0.6735442316444717,3.761639218037687,2,153,14.135249887021084,2.2626419810142795,-0.7964375740410201,14.337334163369498,30,-8,30,-2.2164834965656564,-1.527607407650387,-0.3526894330651081,50,252194.99999999997,80,71.0,-1,0,0,0,0,0
1778185303.571336,3.140941858291626,0.007865572182852448,0.6961706514546145,3.753674842297277,-0.17343947504934976,0.6026368849666206,3.739671719975156,2,157,18.13050472322022,9.353376648799394,1.4003122322121087,20.44900316887597,25,-8,30,-0.5625449282435236,-0.9983985974416141,-0.30930954664791405,50,252203.00000000003,80,71.0,0,0,0,0,0,0
1778185303.641782,3.211387872695923,0.007865572182852448,0.6961706514546145,3.753674842297277,-0.09115171592488558,0.744623151209796,3.7625088672329263,2,160,9.901728810773802,-4.845249975518151,-0.8834024935649332,11.058981903095933,-22,8,-30,1.1680967308129928,2.0155329928007246,0.3241794081735511,50,252203.00000000003,80,71.0,0,0,0,0,0,0
1778185303.713098,3.2827038764953613,0.007865572182852448,0.6961706514546145,3.753674842297277,-0.024713543713782427,0.7075920393026788,3.806368414793057,2,164,3.257911589663488,-1.1421387848064235,-5.269357249578022,6.299570997576202,-20,18,11,0.9316025670471776,-0.5192538831993394,0.6150028776637121,50,252198.99999999997,80,71.0,0,0,0,0,0,0
1778185303.784459,3.35406494140625,0.007865572182852448,0.6961706514546145,3.753674842297277,0.09613451213824065,0.7535842896850189,3.8464905870311257,2,167,-8.826893995538821,-5.741363823040436,-9.281574473384868,14.036557300919139,-30,20,-20,1.693473268692539,0.6445006172451662,0.5622417811193061,50,252200.0,80,71.0,0,0,0,0,0,0
1778185303.8546329,3.424238681793213,0.007865572182852448,0.6961706514546145,3.753674842297277,0.018118654667061085,0.7869934304582283,3.80177760550071,2,171,-1.0253082484208638,-9.08227790036138,-4.8102763203432986,10.328493943539302,27,-12,-19,-1.111752872812144,0.4760917771944262,-0.6371754061256029,50,252200.0,80,71.0,0,0,0,0,0,0
1778185303.925589,3.495194911956787,0.007865572182852448,0.6961706514546145,3.753674842297277,-0.09174815038454986,0.7459415324286818,3.761246136225291,2,174,9.96137225674023,-4.977088097406723,-0.7571293928013922,11.161253875982997,30,-13,10,-1.5483743259518836,-0.5785524109004989,-0.5712179068981335,50,252196.0,80,71.0,0,0,0,0,0,0
1778185303.9972632,3.566869020462036,0.007865572182852448,0.6961706514546145,3.753674842297277,-0.0260822130641436,0.7086805218297313,3.8029015517343803,2,178,3.394778524699605,-1.250987037511675,-4.922670943710328,6.109188081884024,-20,17,11,0.9161737577189013,-0.5198670953294339,0.5811780066443204,50,252208.0,80,71.0,-1,-1,0,0,0,0
1778185304.069237,3.638842821121216,0.007865572182852448,0.6961706514546145,3.753674842297277,0.01854257967840567,0.7901633961528861,3.7998206830534915,2,182,-1.0677007495553221,-9.399274469827157,-4.614584075621453,10.525242592963103,-15,2,-30,0.6200143987652225,1.1321185428153755,-0.042805418814517035,50,252208.0,80,71.0,-1,-1,0,0,0,0
1778185304.1402931,3.7098989486694336,0.007865572182852448,0.6961706514546145,3.753674842297277,-0.02647190005909361,0.714672425742344,3.801718127873489,2,185,3.4337472241946063,-1.8501774287729478,-4.804328557621185,6.188323634650946,18,4,24,-0.6335059521355569,-1.062413236062082,0.026703465070056578,50,252196.0,80,71.0,-1,-1,0,0,0,0
1778185304.2093818,3.7789876461029053,0.007865572182852448,0.6961706514546145,3.753674842297277,-0.0260822130641436,0.7086805218297313,3.8029015517343803,2,189,3.394778524699605,-1.250987037511675,-4.922670943710328,6.109188081884024,2,3,0,0.005640387059334227,-0.086727701276791,0.01712905156492489,50,252196.99999999997,80,71.0,0,0,0,0,0,0
1778185304.280612,3.850217819213867,0.007865572182852448,0.6961706514546145,3.753674842297277,0.016259717461809764,0.7884707015135972,3.7994919148279167,2,192,-0.8394145278957316,-9.230005005898267,-4.581707253063971,10.33874511298777,-14,2,-30,0.5944381246974281,1.1201738841708175,-0.04786787336810278,50,252196.99999999997,80,71.0,0,0,0,0,0,0
1778185304.350892,3.9204978942871094,0.007865572182852448,0.6961706514546145,3.753674842297277,-0.05936517938629948,0.8263700995003138,3.7719636794280587,2,196,6.7230751569151925,-13.019944804569928,-1.8288837130781666,14.766973891611654,30,-8,-23,-1.0760503139658995,0.5392623435194093,-0.39169331238149036,50,252205.00000000003,79,71.0,-1,0,0,0,0,0
1778185304.422713,3.992318868637085,0.007865572182852448,0.6961706514546145,3.753674842297277,-0.09357073405717964,0.746299068165307,3.7593331325823245,2,199,10.143630624003208,-5.012841671069246,-0.5658290285047496,11.328812221275568,18,-3,23,-0.4762613565251887,-1.1148697446630231,-0.17586153571499777,50,252205.00000000003,79,71.0,0,0,0,0,0,0
1778185304.492363,4.061968803405762,0.007865572182852448,0.6961706514546145,3.753674842297277,0.09473346796056492,0.7494292339722561,3.84451208641685,2,203,-8.686789577771247,-5.32585825176416,-9.083724411957306,13.650609088196344,-30,30,-6,2.7035804504791794,0.04494140328121093,1.22295812792107,50,252194.0,79,71.0,0,0,0,0,0,0
1778185304.562412,4.1320178508758545,0.007865572182852448,0.6961706514546145,3.753674842297277,0.13333533971823786,0.8425747156569732,3.834164549928375,2,206,-12.54697675353854,-14.640406420235863,-8.04897076310982,20.89387604416463,-20,1,-30,0.5510691886874534,1.3297180339887593,-0.1477184467482261,50,252194.0,79,71.0,0,0,0,0,0,0
1778185304.633578,4.203183889389038,0.007865572182852448,0.6961706514546145,3.753674842297277,0.013300241524221268,0.7952800660779253,3.7967110346389115,2,210,-0.543466934136882,-9.91094146233108,-4.303619234163447,10.81865312739599,30,-9,8,-1.6866907404404692,-0.6645676865979612,-0.5262835486132253,50,252196.99999999997,79,71.0,0,0,0,0,0,0
1778185304.705442,4.275047779083252,0.007865572182852448,0.6961706514546145,3.753674842297277,-0.09391477295950712,0.7452009909337828,3.7596098629934747,2,213,10.178034514235957,-4.903033947916824,-0.5935020696197668,11.313017863242598,30,-11,12,-1.4919177759502882,-0.6968600691840187,-0.51627001827072,50,252200.0,79,71.0,0,0,0,0,0,0
1778185304.7755678,4.345173597335815,0.007865572182852448,0.6961706514546145,3.753674842297277,-0.054604183180329446,0.8243941507374595,3.7537768913118437,2,217,6.24697553631819,-12.822349928284494,-0.010204901456667415,14.26315060478396,-9,-1,-30,0.5605722793507748,1.129301044566161,-0.08317866125459103,50,252200.0,79,71.0,0,0,0,0,0,0
1778185304.8453171,4.4149229526519775,0.007865572182852448,0.6961706514546145,3.753674842297277,-0.023343483703414325,0.7084695175937009,3.7846220323103394,2,220,3.1209055886266777,-1.2298866139086373,-3.0947190013062453,4.563984933502608,-8,13,30,0.44818621383976415,-1.6620172705294791,0.44222833112478155,50,252203.00000000003,79,71.0,0,-1,0,0,0,0
1778185304.915005,4.4846107959747314,0.007865572182852448,0.6961706514546145,3.753674842297277,-0.023343483703414325,0.7084695175937009,3.7846220323103394,2,224,3.1209055886266777,-1.2298866139086373,-3.0947190013062453,4.563984933502608,2,2,-2,0.0,0.0,0.0,50,252202.0,79,71.0,0,0,0,0,0,0
1778185304.986005,4.55561089515686,0.007865572182852448,0.6961706514546145,3.753674842297277,0.017947796033668362,0.787704912197376,3.800511076734452,2,227,-1.0082223850815915,-9.15342607427615,-4.683623443717488,10.33141083480655,-14,9,-30,0.5815665078320893,1.1159899143298533,0.22378904546814754,50,252202.0,79,71.0,0,0,0,0,0,0
1778185305.058749,4.628354787826538,0.007865572182852448,0.6961706514546145,3.753674842297277,0.014919454687130518,0.787381388598626,3.7988900098448855,2,231,-0.705388250427807,-9.12107371440115,-4.521516754760846,10.204688728764062,1,2,-7,-0.041630180010976583,-0.004447433136676813,-0.022284577166189288,50,252203.00000000003,79,71.0,0,0,0,0,0,0
1778185305.1314838,4.70108962059021,0.007865572182852448,0.6961706514546145,3.753674842297277,0.021869567574875348,0.7842676021286756,3.783586550548391,2,235,-1.40039953920229,-8.809695067406109,-2.9911708251114,9.408450932809032,-2,-2,-6,0.09555411930796563,-0.042810113829059776,-0.21040069406934722,50,252198.99999999997,79,71.0,0,0,0,0,0,0
1778185305.205611,4.775216817855835,0.007865572182852448,0.6961706514546145,3.753674842297277,-0.08448068726336189,0.7455306742946255,3.7437249207808616,2,239,9.234625944621433,-4.936002284001095,0.9949921516415383,10.518195865573505,30,-12,7,-1.4346995267761868,-0.5225737551528016,-0.5377463500298076,50,252192.99999999997,79,71.0,0,0,0,0,0,0
1778185305.282613,4.852218866348267,0.007865572182852448,0.6961706514546145,3.753674842297277,0.02111065958410796,0.7855960991614583,3.7823082568900044,2,242,-1.3245087401255513,-8.94254477068438,-2.863341459272739,9.482729284902826,-30,15,-21,1.371279711576091,0.5203163506847586,0.5010689567945071,50,252192.99999999997,79,71.0,0,0,0,0,0,0
1778185305.355283,4.924888849258423,0.007865572182852448,0.6961706514546145,3.753674842297277,0.02344065175803678,0.7903399889757138,3.781746248010836,2,246,-1.5575079575184332,-9.416933752109923,-2.807140571355893,9.949095964795628,-1,2,-10,0.032062649262068046,0.06527990821355269,-0.007733714205812995,50,252205.00000000003,79,71.0,0,-1,0,0,0,0
1778185305.429017,4.998622894287109,0.007865572182852448,0.6961706514546145,3.753674842297277,0.02448220461912054,0.7902229927700049,3.7826824038032067,2,250,-1.661663243626809,-9.40523413153903,-2.9007561505929758,9.981680221760767,0,2,-8,0.014125806615906407,-0.0015867325014301383,0.012696384580645407,50,252196.0,79,71.0,0,0,0,0,0,0
1778185305.502698,5.072303771972656,0.007865572182852448,0.6961706514546145,3.753674842297277,-0.08588523189929265,0.7531710013064241,3.7419834973750463,2,253,9.375080408214508,-5.700034985180958,1.1691344922230673,11.034011371830287,30,-13,6,-1.4979115339727107,-0.5028712011508625,-0.5523672858764529,50,252196.0,79,71.0,0,0,0,0,0,0
1778185305.575238,5.144843816757202,0.007865572182852448,0.6961706514546145,3.753674842297277,-0.11993570750865246,0.6728724799434433,3.7272609613778136,2,257,12.78012796915049,2.3298171511171195,2.6413880919463395,13.25657006611356,19,-5,26,-0.4694024619159596,-1.1069543946585452,-0.20295736018582175,50,252196.0,79,71.0,0,-1,0,0,0,0
1778185305.6521752,5.221781015396118,0.007865572182852448,0.6961706514546145,3.753674842297277,-0.0840946781953309,0.7442417048457359,3.7437692703211276,2,261,9.196025037818334,-4.807105339112139,0.9905571976149385,10.423835273029255,-5,5,-28,0.4658478596489035,0.9276296273437871,0.21456862526008133,50,252202.0,79,71.0,0,-1,0,0,0,0
1778185305.728607,5.298212766647339,0.007865572182852448,0.6961706514546145,3.753674842297277,-0.04559217056491982,0.8220142566603437,3.7393868737466796,2,265,5.345774274777227,-12.584360520572913,1.428796855059744,13.747177628940884,-8,-1,-30,0.50375016927008,1.0175424550849295,-0.05733738273304399,50,252194.0,79,71.0,0,0,0,0,0,0
1778185305.802043,5.371648788452148,0.007865572182852448,0.6961706514546145,3.753674842297277,0.03313663716231463,0.7850163639350726,3.768970857707195,2,268,-2.527106497946218,-8.884571248045802,-1.5296015409917985,9.36277492988957,-27,11,4,1.072073429256461,-0.5038112334517552,0.4028538479269566,50,252194.0,79,71.0,0,0,0,0,0,0
1778185305.873319,5.442924737930298,0.007865572182852448,0.6961706514546145,3.753674842297277,-0.07750674819222092,0.7427114634984495,3.7289101034556205,2,272,8.537232037507337,-4.654081204383498,2.476473884165653,10.033829060642399,30,-13,8,-1.552324257545734,-0.5935368205735677,-0.5620514990663951,50,252196.99999999997,79,71.0,0,0,0,0,0,0
1778185305.952258,5.52186393737793,0.007865572182852448,0.6961706514546145,3.753674842297277,0.028484598284568063,0.7923412495608262,3.7652399910295147,2,276,-2.061902610171561,-9.617059810621164,-1.1565148732237684,9.903373588171098,-30,13,-25,1.3426959890453856,0.6287090116147048,0.46022619722658087,50,252196.0,79,71.0,0,0,0,0,0,0
1778185306.027147,5.596752882003784,0.007865572182852448,0.6961706514546145,3.753674842297277,0.022659472160461713,0.7878985491252499,3.782549637269456,2,280,-1.4793899977609266,-9.172789767063538,-2.887479497217882,9.729655940631933,1,8,-7,-0.07778352536824637,-0.05932384890416089,0.23113753740849474,50,252196.0,79,71.0,0,0,0,0,0,0
1778185306.101651,5.67125678062439,0.007865572182852448,0.6961706514546145,3.753674842297277,0.0325649392088585,0.7875580266358528,3.767337190305243,2,283,-2.469936702600605,-9.138737518123829,-1.3662348007966063,9.564711614624112,-3,-3,-8,0.1329523317811619,-0.004570532491609912,-0.20418323397650315,50,252196.0,79,71.0,0,0,0,0,0,0
1778185306.179008,5.7486138343811035,0.007865572182852448,0.6961706514546145,3.753674842297277,-0.010976229741619381,0.7082037582458278,3.770289256640802,2,287,1.884180192447183,-1.2033106791213277,-1.6614414343524952,2.7854046793744374,16,2,22,-0.562859711376985,-1.0258181321071553,0.03816156629805304,50,252188.0,79,71.0,0,0,0,0,0,0
1778185306.255093,5.8246989250183105,0.007865572182852448,0.6961706514546145,3.753674842297277,0.03383863289546252,0.7887201293200623,3.7679269141438825,2,291,-2.5973060712610065,-9.254947786544776,-1.4252071846605485,9.717575462978786,-15,0,-30,0.5890097818345319,1.0582411139937642,-0.031048691368243408,50,252194.99999999997,79,71.0,0,-1,0,0,0,0
1778185306.3281522,5.8977580070495605,0.007865572182852448,0.6961706514546145,3.753674842297277,-0.00967113079997417,0.709243847388353,3.77097910857363,2,295,1.753670298282662,-1.3073195933738457,-1.7304266276353175,2.7890536653007048,16,2,23,-0.5955421623943481,-1.0878357587043652,0.04177707062404858,50,252192.99999999997,78,71.0,0,-1,0,0,0,0
1778185306.4027781,5.972383975982666,0.007865572182852448,0.6961706514546145,3.753674842297277,-0.007994003416606388,0.7147620233319246,3.771761312838043,2,298,1.5859575599458837,-1.8591371877310081,-1.8086470540766175,3.040206675700501,1,2,-5,0.02247377698869351,0.07394444618224123,0.010481663093904563,50,252198.0,78,71.0,0,0,0,0,0,0
1778185306.47969,6.049295902252197,0.007865572182852448,0.6961706514546145,3.753674842297277,-0.07459867283797506,0.7469519822367535,3.7296829546908774,2,302,8.24642450208275,-5.078133078213898,2.3991887606399587,9.977327264241762,27,-14,-16,-0.8659862345399895,0.41853013526175314,-0.547097962411002,50,252198.0,78,71.0,0,0,0,0,0,0
1778185306.5550878,6.1246936321258545,0.007865572182852448,0.6961706514546145,3.753674842297277,-0.008377102565692907,0.7103183703791973,3.771673452521984,2,306,1.6242674748545356,-1.4147718924582775,-1.7998610224707168,2.8070133661544325,-19,15,8,0.8782966063202244,-0.4858715496997398,0.5569199218792072,50,252194.0,78,71.0,0,0,0,0,0,0
1778185306.63377,6.203375816345215,0.007865572182852448,0.6961706514546145,3.753674842297277,0.037435789611450665,0.7911548041666794,3.770072037414048,2,310,-2.9570217428598213,-9.498415271206484,-1.639719511677118,10.082288942943904,-16,1,-30,0.5822524200576394,1.027379127683032,-0.020352956947297707,50,252189.0,78,71.0,0,0,0,0,0,0
1778185306.707267,6.276872873306274,0.007865572182852448,0.6961706514546145,3.753674842297277,-0.006044589442080417,0.7113300416664274,3.7733549359532104,2,314,1.3910161624932864,-1.5159390211812895,-1.9680093655933373,2.847113967392371,16,3,22,-0.5915934712401884,-1.0860946791725952,0.04466707477690635,50,252196.99999999997,78,71.0,0,0,0,0,0,0
1778185306.781913,6.351518869400024,0.007865572182852448,0.6961706514546145,3.753674842297277,-0.005379993888189105,0.7170145677131204,3.7731787000526484,2,317,1.3245566071041552,-2.08439162585059,-1.9503857755371445,3.146926012596573,1,2,-6,0.008903298082547221,0.07615312734997401,-0.0023609558420332123,50,252196.99999999997,78,71.0,0,0,0,0,0,0
1778185306.859797,6.429402828216553,0.007865572182852448,0.6961706514546145,3.753674842297277,0.029957880370613865,0.7940213462006398,3.786468579038194,2,321,-2.2092308187761414,-9.785069474602526,-3.279373674091701,10.553794442178328,-11,7,-30,0.45372467958451623,0.9887373428066831,0.17063692174216014,50,252192.99999999997,78,71.0,0,0,0,0,0,0
1778185306.936491,6.506096839904785,0.007865572182852448,0.6961706514546145,3.753674842297277,0.031247610827776384,0.7987153915792427,3.7849839028026873,2,325,-2.3382038644923933,-10.254474012462811,-3.130906050541027,10.97378728067556,0,2,-11,0.016816573142703517,0.061204848661255834,-0.01935843754714614,50,252192.99999999997,78,71.0,0,0,0,0,0,0
1778185307.0122979,6.581903696060181,0.007865572182852448,0.6961706514546145,3.753674842297277,-0.11340420334768986,0.6796464427953288,3.730559425227192,2,329,12.12697755305423,1.6524208659285722,2.311541707008491,12.455412652886174,30,-17,30,-1.908162684902093,-1.5706883891852197,-0.7179360856745086,50,252201.00000000003,78,71.0,0,0,0,0,0,0
1778185307.090625,6.660230875015259,0.007865572182852448,0.6961706514546145,3.753674842297277,0.06652304428204625,0.672457531632541,3.815624481296333,2,333,-5.86574720991938,2.371311982207358,-6.1949638999056145,8.854811605492856,-30,30,1,2.297124063831371,-0.09178054487205281,1.0860222109866513,50,252201.00000000003,78,71.0,0,0,0,0,0,0
1778185307.164861,6.734466791152954,0.007865572182852448,0.6961706514546145,3.753674842297277,0.02907002636343292,0.7964773528319087,3.7847687218155723,2,336,-2.120445418058047,-10.030670137729414,-3.109387951829534,10.713492689962626,12,-7,-30,-0.5045134466872369,1.6706175076944092,-0.4156446244096791,50,252198.99999999997,78,71.0,0,0,0,0,0,0
1778185307.238973,6.808578729629517,0.007865572182852448,0.6961706514546145,3.753674842297277,0.1446267453307648,0.8619664163795508,3.8156404885067743,2,340,-13.676117314791236,-16.57957649249363,-6.196564620949729,22.367743618433796,-30,14,-30,1.559218681128899,0.8836506626844302,0.41655591967770456,50,252190.0,78,71.0,0,0,0,0,0,0
1778185307.315504,6.885109901428223,0.007865572182852448,0.6961706514546145,3.753674842297277,-0.004755147901857937,0.7207698810714843,3.772337017994909,2,344,1.2620720084710384,-2.4599229616869778,-1.8662175697631955,3.3356880474189734,30,-11,30,-1.9519091335166046,-1.8449545719676776,-0.5658278776360967,50,252196.0,78,71.0,-1,-1,0,0,0,0
1778185307.39259,6.962195873260498,0.007865572182852448,0.6961706514546145,3.753674842297277,-0.005621907881113719,0.7220412955070503,3.771084206573436,2,348,1.3487480063966166,-2.5870644052435776,-1.74093642761588,3.397481871421406,1,1,-5,-0.011244068909732232,0.016493460552490118,-0.016252132413911016,50,252196.0,78,71.0,-1,-1,0,0,0,0
1778185307.468042,7.037647724151611,0.007865572182852448,0.6961706514546145,3.753674842297277,0.030478478863253278,0.8023910247290086,3.782947819021214,2,352,-2.2612906680400826,-10.622037327439404,-2.9272976723937028,11.247674610055308,-12,6,-30,0.47845594664688207,1.0649139586769483,0.15723421370933557,50,252196.0,78,71.0,-1,-1,0,0,0,0
1778185307.5446458,7.114251613616943,0.007865572182852448,0.6961706514546145,3.753674842297277,0.06694655229270763,0.6751826273622045,3.8151009394877087,2,356,-5.908098010985518,2.0988024092410074,-6.142609719043168,8.77737135029221,-14,14,30,0.4760603369357426,-1.6605997196052784,0.4197322184410221,50,252203.00000000003,78,71.0,-1,-1,0,0,0,0
1778185307.623034,7.1926398277282715,0.007865572182852448,0.6961706514546145,3.753674842297277,0.03242297562658414,0.7980412345728116,3.787298610288684,2,359,-2.4557403443731687,-10.187058311819708,-3.362376799140687,11.005107697192091,10,-6,-30,-0.4404179513146273,1.567309685562188,-0.3546748642536941,50,252203.00000000003,78,71.0,0,0,0,0,0,0
1778185307.6970391,7.2666449546813965,0.007865572182852448,0.6961706514546145,3.753674842297277,0.04233214732462187,0.7965396338346535,3.7725003641440464,2,363,-3.446657514176942,-10.0368982380039,-1.8825521846769444,10.777883697095183,-4,-2,-9,0.1338984487428043,-0.02029049607751094,-0.19996244522370277,50,252203.00000000003,78,71.0,0,0,0,0,0,0
1778185307.771416,7.341021776199341,0.007865572182852448,0.6961706514546145,3.753674842297277,-0.001535209839039764,0.7206624935845285,3.7753388106955983,2,367,0.9400782021892212,-2.4491842129913954,-2.16639683983213,3.4022824108283896,15,3,20,-0.589798760801819,-1.0201718586726476,0.03816305259652758,50,252196.0,78,71.0,0,0,0,0,0,0
1778185307.848129,7.417734861373901,0.007865572182852448,0.6961706514546145,3.753674842297277,0.12391820438479362,0.7596826185925535,3.799955467341711,2,371,-11.605263220194118,-6.351196713793894,-4.6280625044433865,14.015662547747484,-30,12,-20,1.6353587388431097,0.508650185548329,0.3208925386079492,50,252201.00000000003,78,71.0,0,-1,0,0,0,0
1778185307.924408,7.494013786315918,0.007865572182852448,0.6961706514546145,3.753674842297277,0.15847290012426352,0.852265158531328,3.806461357274299,2,374,-15.060732794141106,-15.609450707671346,-5.278651497702214,22.32363736773048,-19,6,-30,0.4530044932559896,1.2137368219223215,0.08529079214912536,50,252201.00000000003,78,71.0,0,-1,0,0,0,0
1778185307.99896,7.568565845489502,0.007865572182852448,0.6961706514546145,3.753674842297277,0.12740172630577173,0.7626057749511748,3.8009490542363946,2,378,-11.95361541229193,-6.643512349656023,-4.727421193911763,14.469750824034994,3,2,21,-0.4167715038715017,-1.2026412760966665,-0.07393897766217143,50,252196.99999999997,78,71.0,0,-1,0,0,0,0
1778185308.074624,7.644229888916016,0.007865572182852448,0.6961706514546145,3.753674842297277,0.12994834238555686,0.7566836865184625,3.8036325548881353,2,382,-12.208277020270442,-6.051303506384798,-4.995771259085835,14.512685223732937,-7,5,-5,0.03365688594554751,-0.07826819932593068,0.035465995870905154,50,252200.0,78,71.0,0,0,0,0,0,0
1778185308.150902,7.720507860183716,0.007865572182852448,0.6961706514546145,3.753674842297277,0.014566855595318007,0.7105770609318502,3.7488565063263937,2,386,-0.6701283412465558,-1.4406409477235704,0.4818335970883325,1.6603258563555556,30,-16,10,-1.51264493369001,-0.6044553207216204,-0.71811097819452,50,252194.0,78,71.0,0,-1,0,0,0,0
1778185308.226335,7.79594087600708,0.007865572182852448,0.6961706514546145,3.753674842297277,0.08938059559804823,0.6668937788742936,3.7921980950296765,2,390,-8.151502341519578,2.9276872580320967,-3.8523252732399538,9.479385692938438,-29,18,13,0.9917903876190746,-0.579100299527285,0.5745705408991277,50,252198.0,77,71.0,0,-1,0,0,0,0
1778185308.30191,7.87151575088501,0.007865572182852448,0.6961706514546145,3.753674842297277,0.01860808288838456,0.7124326750424934,3.751305161690144,2,393,-1.0742510705532111,-1.626202358787887,0.23696806071331622,1.963339842235734,23,-12,-19,-0.9364555723575738,0.6025666101565544,-0.5410916446184519,50,252198.0,77,71.0,0,-1,0,0,0,0
1778185308.3761559,7.945761680603027,0.007865572182852448,0.6961706514546145,3.753674842297277,0.020297284016572603,0.7067773940902826,3.7536208606718002,2,397,-1.2431711833720156,-1.0606742635668076,0.005398162547676222,1.6341767421911433,0,2,-2,0.02275143074648736,-0.07616957554022526,0.031189574842032577,50,252198.0,77,71.0,0,0,0,0,0,0
1778185308.454098,8.023703813552856,0.007865572182852448,0.6961706514546145,3.753674842297277,0.028837362350360385,0.7019730956060319,3.740499411298671,2,401,-2.0971790167507933,-0.5802444151417396,1.3175430998606075,2.5437694922286695,-3,-3,-2,0.10956947174238843,-0.06163929959862888,-0.16834860526046308,50,252187.0,77,71.0,0,0,0,0,0,0
1778185308.528857,8.0984628200531,0.007865572182852448,0.6961706514546145,3.753674842297277,0.030047934630227036,0.7039011857704203,3.74110543977782,2,405,-2.2182362447374584,-0.7730534315805726,1.256940251945693,2.6642226713446346,-1,0,-4,0.016192995821348928,0.0257907408705603,0.00810642767366319,40,252196.99999999997,77,71.0,0,0,0,0,0,0
1778185308.6035898,8.173195600509644,0.007865572182852448,0.6961706514546145,3.753674842297277,0.027233605445819098,0.7043355273921376,3.7404327354549136,2,408,-1.9368033262966649,-0.816487593752302,1.3242106842363377,2.4842288646078723,0,0,-4,-0.03765856384862419,0.005811929103452303,-0.009001462528182323,40,252196.99999999997,77,71.0,0,0,0,0,0,0
1778185308.6763039,8.245909690856934,0.007865572182852448,0.6961706514546145,3.753674842297277,0.03099900843592973,0.6988748514263092,3.74345080217632,2,412,-2.313343625307728,-0.27041999716946874,1.022404012095679,2.5436186167683195,-2,1,-1,0.05178367730554942,-0.07509790660582533,0.041505940691714455,40,252198.99999999997,77,71.0,0,0,0,0,0,0
1778185308.7516851,8.321290969848633,0.007865572182852448,0.6961706514546145,3.753674842297277,-0.07290356707587753,0.6683447045100537,3.6848025455744216,2,416,8.076913925872997,2.7825946944560864,6.887229672285544,10.973299611255802,30,-22,8,-1.3783604749297067,-0.4050096698361598,-0.778021511260864,40,252194.0,77,71.0,0,0,0,0,0,0
1778185308.826414,8.39601993560791,0.007865572182852448,0.6961706514546145,3.753674842297277,-0.07207568620867755,0.6668367776247156,3.6862364601240234,2,420,7.994125839152999,2.9333873829898938,6.74383821732536,10.862327714277269,4,-2,-1,0.011078446741345447,-0.020178613072145583,0.01918820279436062,40,252194.0,77,71.0,0,0,0,0,0,0
1778185308.899864,8.469469785690308,0.007865572182852448,0.6961706514546145,3.753674842297277,0.11363097415938495,0.6528798935532187,3.7728726339773333,2,423,-10.57654019765325,4.32907579013958,-1.9197791680056309,11.588341201537695,-30,30,4,2.528346350056987,-0.19001923156874745,1.1795282598415078,40,252196.0,77,71.0,0,0,0,0,0,0
1778185308.9729788,8.542584657669067,0.007865572182852448,0.6961706514546145,3.753674842297277,0.15960345438263834,0.7429195601941126,3.7692336533970705,2,427,-15.17378821997859,-4.674890873949811,-1.5558811099793513,15.953658503819456,-24,0,-30,0.6287705767522732,1.2314822443654265,-0.04977073038327877,40,252192.99999999997,77,71.0,0,0,0,0,0,0
1778185309.049959,8.619564771652222,0.007865572182852448,0.6961706514546145,3.753674842297277,-0.0010370314991590135,0.614947237677997,3.715339070670641,2,431,0.8902603682011462,8.122341377661757,3.833577162663593,9.025591772319517,30,-18,30,-2.086779007848061,-1.6624075478002034,-0.7001104562955479,40,252201.00000000003,77,71.0,0,0,0,0,0,0
1778185309.124806,8.694411754608154,0.007865572182852448,0.6961706514546145,3.753674842297277,0.000213326501149802,0.6180996343320004,3.7153876557660674,2,434,0.7652245681702646,7.80710171226141,3.828718653120955,8.729002939057974,0,-1,0,0.016705523067576205,0.04211788544448731,0.0006491256361660452,40,252201.00000000003,77,71.0,0,0,0,0,0,0
1778185309.196736,8.766341924667358,0.007865572182852448,0.6961706514546145,3.753674842297277,0.000213326501149802,0.6180996343320004,3.7153876557660674,2,438,0.7652245681702646,7.80710171226141,3.828718653120955,8.729002939057974,0,-1,2,0.0,0.0,0.0,40,252198.0,77,71.0,0,0,0,0,0,0
1778185309.269504,8.839109897613525,0.007865572182852448,0.6961706514546145,3.753674842297277,0.000213326501149802,0.6180996343320004,3.7153876557660674,2,442,0.7652245681702646,7.80710171226141,3.828718653120955,8.729002939057974,0,-1,2,0.0,0.0,0.0,40,252196.0,77,71.0,0,-1,0,0,0,0
1778185309.343934,8.91353988647461,0.007865572182852448,0.6961706514546145,3.753674842297277,0.046408991506408315,0.6941677342788422,3.7171182003901033,2,445,-3.8543419323555863,0.20029171757723896,3.655664190717367,5.316008764001231,-17,0,-28,0.6206593029521746,1.022008750919137,0.023250636611887244,40,252196.0,77,71.0,0,-1,0,0,0,0
1778185309.420017,8.989622831344604,0.007865572182852448,0.6961706514546145,3.753674842297277,-0.04389881870053847,0.5435052262286248,3.693695640471589,2,449,5.176439088339092,15.26654252259897,5.9979201825687944,17.199938626229848,30,-10,30,-1.1869652306605385,-1.9802402273946966,-0.30785559048137534,40,252198.0,77,71.0,0,0,0,0,0,0
1778185309.49692,9.066525936126709,0.007865572182852448,0.6961706514546145,3.753674842297277,0.04757711294754319,0.6864723834602161,3.718676809753236,2,453,-3.9711540764690736,0.9698267994398435,3.49980325440411,5.381380077592204,-30,6,-30,1.1894959495753452,1.8590557252099398,0.3248395412958673,40,252198.0,77,71.0,0,0,0,0,0,0
1778185309.5768352,9.146440982818604,0.007865572182852448,0.6961706514546145,3.753674842297277,-0.06112332264641185,0.6550649630645189,3.6772838178605656,2,457,6.898889482926429,4.110568839009565,7.639102443671142,11.08365185409447,30,-16,9,-1.360199863400444,-0.3930100987963603,-0.517962431433687,40,252194.99999999997,77,71.0,0,0,0,0,0,0
1778185309.6524749,9.222080707550049,0.007865572182852448,0.6961706514546145,3.753674842297277,-0.1060654150387701,0.5898953304461385,3.6718338433967213,2,461,11.393098722162254,10.627532100847603,8.184099890055574,17.599051907926437,22,-5,26,-0.5941599146734428,-0.861579452460484,-0.07205174904052276,40,252188.0,77,71.0,0,-1,0,0,0,0
1778185309.7255192,9.295125007629395,0.007865572182852448,0.6961706514546145,3.753674842297277,-0.059999148855211626,0.6600990146715278,3.677647783759657,2,464,6.786472103806407,3.607163678308678,7.602705853761993,10.810595252652782,-11,-1,-24,0.6306620247372916,0.9611110538280088,0.07959471658459745,40,252192.0,77,71.0,0,-1,0,0,0,0
1778185309.796932,9.366537809371948,0.007865572182852448,0.6961706514546145,3.753674842297277,0.009209626851593766,0.6123616816776538,3.7028104659055003,2,468,-0.13440546687413182,8.380896977696073,5.086437639177666,9.804557452405698,-23,6,19,0.9691368216626771,-0.6684702438362401,0.3523553415052367,40,252192.0,77,71.0,0,-1,0,0,0,0
1778185309.87017,9.439775943756104,0.007865572182852448,0.6961706514546145,3.753674842297277,0.009209626851593766,0.6123616816776538,3.7028104659055003,2,472,-0.13440546687413182,8.380896977696073,5.086437639177666,9.804557452405698,0,-2,2,0.0,0.0,0.0,40,252196.0,77,71.0,0,0,0,0,0,0
1778185309.943425,9.513030767440796,0.007865572182852448,0.6961706514546145,3.753674842297277,0.007125640618887763,0.6105864170674595,3.702436441996497,2,475,0.0739931563964685,8.5584234387155,5.12384003007802,9.97526056789387,1,-2,3,-0.028448450598639298,-0.024234098464771116,-0.005105792222140011,40,252192.0,77,71.0,0,0,0,0,0,0
1778185310.0161479,9.585753679275513,0.007865572182852448,0.6961706514546145,3.753674842297277,0.04753539547567476,0.6924620680309718,3.7186903174391306,2,479,-3.9669823292822306,0.3708583423642775,3.4984524858146404,5.302231087612204,-15,4,-30,0.5556674483638594,1.1258577097352427,0.22350418915534184,40,252192.0,77,71.0,0,0,0,0,0,0
1778185310.091218,9.660823822021484,0.007865572182852448,0.6961706514546145,3.753674842297277,0.08985922482438469,0.7694765837029183,3.714949308594521,2,483,-8.199365264153224,-7.330593224830373,3.872553370275611,11.66035408418477,-18,-2,-30,0.5637904471812272,1.025900749017547,-0.04983351180333877,40,252187.0,77,71.0,0,0,0,0,0,0
1778185310.164543,9.734148740768433,0.007865572182852448,0.6961706514546145,3.753674842297277,0.006256494296163595,0.6093324658833656,3.700835210987588,2,486,0.1609077886688853,8.683818557124889,5.283963130968905,10.16635934929312,28,-7,30,-1.140168062330115,-2.1840340303986734,-0.19248705417106737,40,252189.0,77,71.0,0,-1,0,0,0,0
1778185310.239362,9.80896782875061,0.007865572182852448,0.6961706514546145,3.753674842297277,0.08844180807176016,0.7694082841817508,3.7137659515477557,2,490,-8.057623588890772,-7.323763272713624,3.990889074952131,11.59698245163673,-30,2,-30,1.0984538303270084,2.139505073043873,0.1728267599739776,40,252191.0,76,71.0,0,-1,0,0,0,0
1778185310.314608,9.884213924407959,0.007865572182852448,0.6961706514546145,3.753674842297277,0.08844180807176016,0.7694082841817508,3.7137659515477557,2,494,-8.057623588890772,-7.323763272713624,3.990889074952131,11.59698245163673,-4,-1,-8,0.0,0.0,0.0,40,252191.0,76,71.0,0,-1,0,0,0,0
1778185310.394283,9.963888883590698,0.007865572182852448,0.6961706514546145,3.753674842297277,-0.0036264740912002047,0.6208456742693143,3.7129759953323043,2,498,1.1492046274052652,7.5324977185300295,4.069884696497272,8.638469459232489,30,-2,30,-1.1555485325294774,-1.8646085474822691,-0.009914736368293625,40,252188.0,76,71.0,0,-1,0,0,0,0
1778185310.47078,10.040385723114014,0.007865572182852448,0.6961706514546145,3.753674842297277,0.04860892763871805,0.6871042229944446,3.719283810501316,2,502,-4.0743355455865595,0.9066428460169917,3.4391031795960814,5.408293822285527,-18,0,-23,0.6828439195059484,0.8661606039937828,0.0824585068915083,40,252190.0,76,71.0,0,-1,0,0,0,0
1778185310.550403,10.120008945465088,0.007865572182852448,0.6961706514546145,3.753674842297277,0.007190877794032824,0.6075079984062952,3.702302666280951,2,506,0.06746943888196241,8.866265304831932,5.137217601632615,10.247254133053083,14,-8,29,-0.5201755043530518,-0.9996609310433862,-0.21326873893010992,40,252189.0,76,71.0,0,-1,0,0,0,0
1778185310.623925,10.193530797958374,0.007865572182852448,0.6961706514546145,3.753674842297277,-0.04252135706372173,0.5437884495449602,3.6961227049803878,2,509,5.038692924657418,15.238220190965436,5.755213731688924,17.050345042689315,20,-4,29,-0.6761559070113771,-0.8666749639796381,-0.084056115168309,40,252189.0,76,71.0,0,-1,0,0,0,0
1778185310.696681,10.266286849975586,0.007865572182852448,0.6961706514546145,3.753674842297277,-0.09821579955361881,0.5844875555393743,3.6602490545596957,2,513,10.608137173647126,11.168309591524029,9.342578773758126,18.01520167999563,25,-17,-8,-0.7654956659374732,0.5593913477436333,-0.49306757893082737,40,252191.0,76,71.0,0,0,0,0,0,0
1778185310.770994,10.340599775314331,0.007865572182852448,0.6961706514546145,3.753674842297277,0.1309351116245402,0.6357442802936897,3.749906275633985,2,517,-12.306953944168775,6.042637116092486,0.3768566663291839,13.715560493382203,-30,30,-15,3.0835942756069215,0.6897417174827768,1.2064821922377496,40,252200.0,76,71.0,0,0,0,0,0,0
1778185310.8446982,10.41430401802063,0.007865572182852448,0.6961706514546145,3.753674842297277,0.05342008382878649,0.6815254858627923,3.725346293506326,2,521,-4.555451164593404,1.4645165591822273,2.8328548790951036,5.560756318265285,23,-9,-16,-1.051703741189504,0.62114749284562,-0.3332234512676199,40,252200.0,76,71.0,0,0,0,0,0,0
1778185310.922385,10.491990804672241,0.007865572182852448,0.6961706514546145,3.753674842297277,-0.042247842856367956,0.5351183616966343,3.699036264243328,2,524,5.011341503922041,16.105228975798024,5.463857805394889,17.72979656254946,30,-11,30,-1.2314568642693393,-1.8845820566980716,-0.3386680077396682,40,252189.0,76,71.0,0,0,0,0,0,0
1778185310.999723,10.569328784942627,0.007865572182852448,0.6961706514546145,3.753674842297277,-0.01830252046553027,0.7168745238715185,3.6823300940408483,2,528,2.616809264838272,-2.070387241690397,7.134474825642867,7.876225307647668,-6,-9,-30,0.3096191846117661,2.350153980481984,-0.2160150826808817,40,252192.99999999997,76,71.0,0,0,0,0,0,0
1778185311.077162,10.646767854690552,0.007865572182852448,0.6961706514546145,3.753674842297277,0.04770188357893412,0.6915274577966309,3.7210708893298854,2,532,-3.983631139608167,0.4643193657983602,3.2603952967391603,5.1686639493112825,-22,10,5,0.8523398364587556,-0.32731625208561876,0.5002745437818903,40,252198.0,76,71.0,0,0,0,0,0,0
1778185311.1568089,10.726414680480957,0.007865572182852448,0.6961706514546145,3.753674842297277,0.04770188357893412,0.6915274577966309,3.7210708893298854,2,536,-3.983631139608167,0.4643193657983602,3.2603952967391603,5.1686639493112825,-2,-1,-2,0.0,0.0,0.0,40,252200.0,76,71.0,0,0,0,0,0,0
1778185311.2308102,10.800415992736816,0.007865572182852448,0.6961706514546145,3.753674842297277,0.05016560630474365,0.6801708925774935,3.723140398473351,2,540,-4.23000341218912,1.5999758877121018,3.0534443823925894,5.456773250260321,-3,0,2,0.03329295995848302,-0.1534643761433867,0.027965843853016894,40,252200.0,76,71.0,0,0,0,0,0,0
1778185311.305322,10.874927759170532,0.007865572182852448,0.6961706514546145,3.753674842297277,-0.061653436880124035,0.6475100583806879,3.6798845108391953,2,544,6.951900906297648,4.866059307392668,7.379033145808167,11.245336347169898,30,-18,11,-1.5006897371617096,-0.438331229549632,-0.5805242541476365,40,252194.0,76,71.0,0,0,0,0,0,0
1778185311.382563,10.952168941497803,0.007865572182852448,0.6961706514546145,3.753674842297277,-0.060517999510240506,0.6525106603619883,3.68026498329022,2,547,6.838357169309295,4.365999109262619,7.340985900705688,10.941441906416427,4,-3,-1,0.014699896294604697,0.06474010146702511,0.004925771972427011,40,252190.0,76,71.0,0,0,0,0,0,0
1778185311.458487,11.028092861175537,0.007865572182852448,0.6961706514546145,3.753674842297277,-0.04355122919209875,0.5407433234740346,3.6964012467974174,2,551,5.14168013749512,15.54273279805799,5.727359549985955,17.344049840880725,-2,2,30,0.22347068473491194,-1.472096506112432,0.21253201330607122,40,252196.99999999997,76,71.0,0,0,0,0,0,0
1778185311.530745,11.100350856781006,0.007865572182852448,0.6961706514546145,3.753674842297277,-0.060139920962140714,0.654004124466953,3.6799916191860924,2,555,6.800549314499316,4.216652698766154,7.368322311118458,10.877490732768981,10,-9,-30,-0.22957586397243587,1.5674500800067357,-0.22709774155544232,40,252196.99999999997,76,71.0,0,0,0,0,0,0
1778185311.6062589,11.175864696502686,0.007865572182852448,0.6961706514546145,3.753674842297277,-0.060139920962140714,0.654004124466953,3.6799916191860924,2,559,6.800549314499316,4.216652698766154,7.368322311118458,10.877490732768981,4,-4,0,0.0,0.0,0.0,40,252186.0,76,71.0,0,0,0,0,0,0
1778185311.683678,11.253283739089966,0.007865572182852448,0.6961706514546145,3.753674842297277,0.09380714311746341,0.7646261057465209,3.7199765864253402,2,562,-8.594157093461096,-6.845545429190636,3.3698255871936755,11.492465047077832,-30,11,-30,1.9884909311045547,1.4288730211931449,0.516474576576813,40,252191.0,76,71.0,0,0,0,0,0,0
1778185311.757739,11.32734489440918,0.007865572182852448,0.6961706514546145,3.753674842297277,-0.0585615086765221,0.6553009044045421,3.6809750048422902,2,566,6.642708085937454,4.08697470500724,7.269983745498676,10.662157221414569,30,-17,30,-2.057335605112497,-1.4761476629789525,-0.5266131943924959,40,252192.99999999997,76,71.0,0,0,0,0,0,0
1778185311.833251,11.402856826782227,0.007865572182852448,0.6961706514546145,3.753674842297277,0.04980383409257938,0.688936041647412,3.721890306153621,2,570,-4.193826190972693,0.7234609807202586,3.1784536143656172,5.3116985314856775,-30,12,-13,1.4350757471514695,0.4454281089868586,0.5418388859286408,40,252192.99999999997,76,71.0,0,0,0,0,0,0
1778185311.906232,11.47583794593811,0.007865572182852448,0.6961706514546145,3.753674842297277,-0.05822064825046769,0.6568061115352448,3.680696163500848,2,574,6.608622043332013,3.9364539919369723,7.297867879642883,10.603227382781792,30,-18,11,-1.4801702631102782,-0.44024989591539854,-0.564449314140883,40,252190.0,76,71.0,0,0,0,0,0,0
1778185311.9834409,11.553046703338623,0.007865572182852448,0.6961706514546145,3.753674842297277,0.08692010378212578,0.7779487971249186,3.7327060201480404,2,577,-7.905453159927333,-8.177814567030406,2.0968822149236566,11.565887591525472,-30,15,-30,1.8798483089125544,1.5690277847791052,0.6736263915943672,40,252194.0,76,71.0,0,-1,0,0,0,0
1778185312.05679,11.62639594078064,0.007865572182852448,0.6961706514546145,3.753674842297277,0.049934037426882294,0.6876536055305766,3.7226018118430653,2,581,-4.206846524402985,0.8517045924037903,3.1073030454211725,5.298895225298088,10,-5,29,-0.5042460923262002,-1.2310310883016518,-0.1377547832445109,40,252194.0,76,71.0,0,-1,0,0,0,0
1778185312.131263,11.700868844985962,0.007865572182852448,0.6961706514546145,3.753674842297277,0.0035787754694002194,0.6108851288113744,3.720829196082724,2,585,0.42867967134522283,8.528552264324018,3.2845646214552993,9.149225909247557,16,-2,29,-0.6224446656421553,-1.0308242647225239,-0.023802157029543986,40,252196.99999999997,76,71.0,0,0,0,0,0,0
1778185312.20579,11.77539587020874,0.007865572182852448,0.6961706514546145,3.753674842297277,-0.10134776119678346,0.590653372220806,3.6767508455012496,2,589,10.92133333796359,10.551727923380849,7.692399679602735,17.023145916038033,30,-19,11,-1.4078991661418696,-0.27146872601034266,-0.5914411644596586,40,252196.0,76,71.0,0,0,0,0,0,0
1778185312.281752,11.85135793685913,0.007865572182852448,0.6961706514546145,3.753674842297277,-0.1030125689366832,0.5973825809972201,3.675180934402873,2,592,11.087814111953564,9.878807045739446,7.8493907894404025,16.79712434298025,7,-5,2,-0.021916303930511638,0.08858643627199717,-0.020667040374270834,40,252192.99999999997,75,71.0,0,-1,0,0,0,0
1778185312.3570821,11.926687955856323,0.007865572182852448,0.6961706514546145,3.753674842297277,-0.10121534541334598,0.5868473999397639,3.677836961099035,2,596,10.908091759619843,10.932325151485067,7.583788119824186,17.205116718594667,6,-3,9,0.02385799907211235,-0.13985368910963458,0.035258542763159983,40,252192.99999999997,75,71.0,0,-1,0,0,0,0
1778185312.43076,12.000365734100342,0.007865572182852448,0.6961706514546145,3.753674842297277,-0.06325257958854213,0.6627889859462455,3.696629470839941,2,600,7.111815177139458,3.3381665508369074,5.704537145733601,9.708914207158903,-7,2,-25,0.5152539439920721,1.0307257875633191,0.25506346945839803,40,252187.0,75,71.0,0,-1,0,0,0,0
1778185312.502648,12.072253942489624,0.007865572182852448,0.6961706514546145,3.753674842297277,-0.10323470796661427,0.592028593813643,3.6764881429064293,2,603,11.110028014946671,10.41420576409715,7.718669939084766,17.072383249516893,21,-11,30,-0.5561708835691759,-0.9843115264387652,-0.2801756836732421,40,252190.0,75,71.0,0,0,0,0,0,0
1778185312.576542,12.146147727966309,0.007865572182852448,0.6961706514546145,3.753674842297277,0.04736823452219385,0.692451230491738,3.7398360939571993,2,607,-3.95026623393414,0.3719420962876585,1.38387483400777,4.2021487120461485,-30,19,-30,2.0381002477715437,1.3590132922582632,0.8572838790449827,40,252190.0,75,71.0,0,0,0,0,0,0
1778185312.653692,12.223297834396362,0.007865572182852448,0.6961706514546145,3.753674842297277,0.0049512806667232345,0.6106553265499259,3.7221133593182207,2,611,0.2914291516129213,8.55153249046886,3.1561482979056255,9.120028013352096,14,-7,30,-0.5497977361045759,-1.0602176422915284,-0.22971756565295792,40,252196.99999999997,75,71.0,0,0,0,0,0,0
1778185312.728061,12.297666788101196,0.007865572182852448,0.6961706514546145,3.753674842297277,0.04736823452219385,0.692451230491738,3.7398360939571993,2,615,-3.95026623393414,0.3719420962876585,1.38387483400777,4.2021487120461485,-16,4,-29,0.5703583517366806,1.0998662730479598,0.2383082422985141,40,252196.99999999997,75,71.0,0,0,0,0,0,0
1778185312.801468,12.371073722839355,0.007865572182852448,0.6961706514546145,3.753674842297277,-0.04564856845698362,0.5397676240156153,3.714835759300156,2,618,5.351414063983607,15.640302743899925,3.883908299712102,16.980619720305192,30,-10,30,-1.2671391784845156,-2.0799616142635777,-0.3405718376093339,40,252192.0,75,71.0,0,0,0,0,0,0
1778185312.8782878,12.447893619537354,0.007865572182852448,0.6961706514546145,3.753674842297277,0.07226228334378904,0.5618559996767603,3.7613487283823943,2,622,-6.43967111609366,13.431465177785428,-0.7673886085117321,14.915177041590457,-30,15,0,1.5348999005337827,0.2875345660510449,0.605480755397195,40,252180.00000000003,75,71.0,0,-1,0,0,0,0
1778185312.955719,12.525324821472168,0.007865572182852448,0.6961706514546145,3.753674842297277,-0.10439124292131341,0.5922695957238757,3.67521819086741,2,626,11.225681510416585,10.390105573073882,7.845665142986702,17.190831298363854,30,-30,-4,-2.2814255991249937,0.392782176786035,-1.1123492256712408,40,252194.99999999997,75,71.5,0,-1,0,0,0,0
1778185313.032435,12.602040767669678,0.007865572182852448,0.6961706514546145,3.753674842297277,-0.1638837090668539,0.6312144708129448,3.6526878314369933,2,630,17.174928124970634,6.495618064166974,10.098701086028372,20.956024760397433,30,-13,-9,-0.7754902219725427,0.5076503259022991,-0.2936854793188753,40,252194.99999999997,75,71.5,0,-1,0,0,0,0
1778185313.107679,12.677284717559814,0.007865572182852448,0.6961706514546145,3.753674842297277,0.0004896183348575001,0.6091561672508867,3.7395406986150466,2,634,0.7375953847994948,8.701448420372781,1.4134143682230427,8.846298194181838,-30,27,11,2.184538792045234,-0.2931571720286518,1.1542837305174263,40,252191.0,75,71.5,0,0,0,0,0,0
1778185313.1855109,12.755116701126099,0.007865572182852448,0.6961706514546145,3.753674842297277,-0.10159077477894862,0.5853674205075041,3.6780358741608272,2,638,10.945634696180107,11.080323094711042,7.563896813644977,17.314531867563655,30,-25,14,-1.3115481378792206,-0.30564230350268995,-0.7902255812591477,40,252201.00000000003,75,71.5,0,-1,0,0,0,0
1778185313.260267,12.829872846603394,0.007865572182852448,0.6961706514546145,3.753674842297277,-0.06452422439622807,0.663328981587956,3.6968641739214267,2,641,7.238979657908051,3.2841669866658596,5.681066837585025,9.770521976691972,-7,2,-24,0.4958328194432988,1.0428782889044281,0.2518629022455162,40,252187.0,75,71.5,0,0,0,0,0,0
1778185313.3354461,12.905051946640015,0.007865572182852448,0.6961706514546145,3.753674842297277,-0.1008013058365218,0.583608252488492,3.6795195924141093,2,645,10.866687801937424,11.256239896612252,7.415524988316768,17.314094005959753,19,-10,30,-0.482542108413409,-1.0604107931676559,-0.2307101508114433,40,252187.0,75,71.5,0,0,0,0,0,0
1778185313.411654,12.981259822845459,0.007865572182852448,0.6961706514546145,3.753674842297277,-0.062178182953422256,0.6512011872451173,3.6998933879699893,2,649,7.00437551362747,4.496946420949721,5.378145432728765,9.910007656121051,-7,2,-20,0.5068127443806167,0.8869547102245113,0.2673450117013564,40,252192.0,75,71.5,0,0,0,0,0,0
