timestamp,elapsed,target_x,target_y,target_z,pos_x,pos_y,pos_z,marker_id,publish_count,err_x_cm,err_y_cm,err_z_cm,err_3d_cm,cmd_lr,cmd_fb,cmd_ud,vel_x_pub,vel_y_pub,vel_z_pub,tello_height_cm,tello_baro_cm,tello_battery,tello_temp_c,tello_pitch,tello_roll,tello_yaw,tello_vgx,tello_vgy,tello_vgz
1778190020.117126,1.1205673217773438e-05,0.10338615245265768,1.3059407249380328,4.0269358636128265,0.19122305438115705,1.4497373234886575,4.0211372936341645,2,0,-8.783690192849937,-14.379659855062465,0.5798569978662016,16.860132416124067,-30,-3,-30,0.0,0.0,0.0,100,252292.0,78,57.5,-1,0,2,0,0,0
1778190020.189069,0.07195425033569336,0.10338615245265768,1.3059407249380328,4.0269358636128265,0.1898504992147264,1.452886698323145,4.019003325089179,2,3,-8.646434676206873,-14.694597338511217,0.7932538523647281,17.068136255174,-4,-1,-11,-0.019078358066023704,0.04377594594811726,-0.029661915964175355,100,252292.99999999997,78,58.0,-1,-1,2,0,0,0
1778190020.2602692,0.14315438270568848,0.10338615245265768,1.3059407249380328,4.0269358636128265,0.0966061537361047,1.3608274724789324,4.025620223032744,2,7,0.677999871655298,-5.488674754089962,0.13156405800822668,5.531956569199427,30,2,28,-1.3096091590683105,-1.292964251327822,0.09293378710561895,100,252292.99999999997,78,58.0,-1,-1,2,0,0,0
1778190020.3310778,0.21396303176879883,0.10338615245265768,1.3059407249380328,4.0269358636128265,0.006962907984167432,1.2745083825703163,4.022193585961825,2,10,9.642324446849026,3.1432342367716526,0.47422776510011033,10.152794402464165,30,-1,30,-1.2659928827626696,-1.2190472640098196,-0.048392916914214004,100,252287.0,78,58.0,-1,-1,2,0,0,0
1778190020.403478,0.2863631248474121,0.10338615245265768,1.3059407249380328,4.0269358636128265,0.006962907984167432,1.2745083825703163,4.022193585961825,2,14,9.642324446849026,3.1432342367716526,0.47422776510011033,10.152794402464165,5,0,2,0.0,0.0,0.0,100,252290.0,78,58.0,-1,-1,2,0,0,0
1778190020.475827,0.35871219635009766,0.10338615245265768,1.3059407249380328,4.0269358636128265,0.18867069945337622,1.4589522384677598,4.037331289665117,2,18,-8.528454700071855,-15.301151352972697,-1.0395426052290269,17.548231281979454,-30,5,-30,2.5115428255698338,2.549360372794792,0.20923148547565631,100,252290.0,78,58.0,-1,-1,2,0,0,0
1778190020.546242,0.42912721633911133,0.10338615245265768,1.3059407249380328,4.0269358636128265,0.18867069945337622,1.4589522384677598,4.037331289665117,2,21,-8.528454700071855,-15.301151352972697,-1.0395426052290269,17.548231281979454,-5,0,-11,0.0,0.0,0.0,100,252289.0,78,58.0,-1,0,2,0,0,0
1778190020.617326,0.500211238861084,0.10338615245265768,1.3059407249380328,4.0269358636128265,0.18368383496682872,1.370187903942583,4.059232813736259,2,25,-8.029768251417103,-6.424717900455024,-3.229695012343292,10.778919618618946,-3,9,26,-0.07015450602849639,-1.2487241348467435,0.3081075506717802,100,252281.0,78,58.0,0,1,2,0,0,0
1778190020.68863,0.5715153217315674,0.10338615245265768,1.3059407249380328,4.0269358636128265,0.0988753526372963,1.3654911115348054,4.020846629007476,2,28,0.45107998153613854,-5.955038659677259,0.6089234605350491,6.003061416376093,29,-13,-3,-1.1893916717725461,-0.06586989438331176,-0.5383448350146794,100,252281.0,78,58.0,0,1,2,0,0,0
1778190020.761499,0.6443841457366943,0.10338615245265768,1.3059407249380328,4.0269358636128265,0.08698324010569602,1.275135689966167,4.062782703092947,2,32,1.640291234696166,3.080503497186582,-3.584683948012035,5.003000713365428,4,16,30,-0.16319890836667764,-1.2399736485699442,0.5755009039602489,100,252283.0,78,58.0,0,0,1,0,0,0
1778190020.833694,0.7165791988372803,0.10338615245265768,1.3059407249380328,4.0269358636128265,0.09829693387096516,1.364435312819733,4.021650200204288,2,36,0.5089218581692521,-5.8494587881700255,0.5285663408538532,5.895299139899994,-3,-14,-30,0.15671009687473056,1.2369216313082996,-0.5697412928189266,100,252291.0,78,58.0,-1,-1,2,0,0,0
1778190020.906084,0.7889692783355713,0.10338615245265768,1.3059407249380328,4.0269358636128265,0.09679533724915479,1.4450183499239473,4.0033137888718935,2,39,0.6590815203502896,-13.907762498591447,2.362207474093303,14.122332325729914,0,-7,-30,-0.020743127127603508,1.1131779059051403,-0.25330005795652405,100,252291.0,78,58.0,0,-1,2,0,0,0
1778190020.9792151,0.86210036277771,0.10338615245265768,1.3059407249380328,4.0269358636128265,0.0840572920510878,1.274737892205451,4.061778563829103,2,43,1.9328860401569878,3.120283273258173,-3.4842700216276334,5.060864919479824,5,22,30,-0.17418099697598943,-2.3284279047334806,0.7994517707920318,100,252291.0,78,58.0,0,-1,2,0,0,0
1778190021.0489972,0.931882381439209,0.10338615245265768,1.3059407249380328,4.0269358636128265,0.18141695346116915,1.3681444705247636,4.0601431212803325,2,46,-7.803080100851147,-6.220374558673081,-3.3207257667505985,10.51704988713317,-30,1,-30,1.395196975919497,1.3385479542002408,-0.02343644652505124,100,252286.0,78,58.0,-1,0,2,0,0,0
1778190021.119196,1.0020811557769775,0.10338615245265768,1.3059407249380328,4.0269358636128265,0.17825047777794967,1.3731887018028863,4.0568944355302845,2,50,-7.486432532529198,-6.724797686485351,-2.995857191745799,10.499749344703678,-3,0,-7,-0.04510727876791214,0.0718564009942947,-0.04627838278794747,100,252283.0,78,58.0,0,0,2,0,0,0
1778190021.188482,1.0713672637939453,0.10338615245265768,1.3059407249380328,4.0269358636128265,0.0897350996698506,1.3647697458783734,4.043181215817168,2,53,1.365105278280708,-5.882902094034059,-1.6245352204341756,6.253891920333392,30,-3,-1,-1.277534279836041,-0.12151001355785726,-0.1979216340129531,100,252283.0,78,58.0,0,0,2,0,0,0
1778190021.257795,1.1406803131103516,0.10338615245265768,1.3059407249380328,4.0269358636128265,0.0897350996698506,1.3647697458783734,4.043181215817168,2,57,1.365105278280708,-5.882902094034059,-1.6245352204341756,6.253891920333392,0,1,-4,0.0,0.0,0.0,100,252286.0,78,58.0,0,0,2,0,0,0
1778190021.326616,1.2095012664794922,0.10338615245265768,1.3059407249380328,4.0269358636128265,0.17265673785760127,1.3727548529171338,4.080383664797628,2,60,-6.927058540494359,-6.681412797910102,-5.344780118480141,11.00872796986161,-30,16,-8,1.2048894141727018,0.11602726564873424,0.5405686373002393,100,252290.0,78,58.0,-1,0,2,0,0,0
1778190021.398985,1.2818701267242432,0.10338615245265768,1.3059407249380328,4.0269358636128265,0.08700843461006624,1.3677184588875875,4.041077544566989,2,64,1.6377717842591442,-6.177773394955466,-1.4141680954162794,6.545765955090991,30,-12,-3,-1.1834966442455093,-0.06959338605739147,-0.54313581971176,100,252283.0,78,58.0,-1,0,2,0,0,0
1778190021.470229,1.353114128112793,0.10338615245265768,1.3059407249380328,4.0269358636128265,0.14390738074600984,1.3267576753078312,4.152775019207383,4,67,-4.052122829335215,-2.081695036979836,-12.583915559455683,13.383126856550263,-22,30,12,0.7986489392367044,-0.5749365951017377,1.5678158506457196,100,252283.0,78,58.0,-1,0,2,0,0,0
1778190021.54366,1.4265451431274414,0.10338615245265768,1.3059407249380328,4.0269358636128265,-0.009396712668120255,1.2414876748078658,4.061479746379495,4,71,11.278286512077793,6.4453050130167,-3.4543882766668865,13.441521555438124,30,-29,30,-2.087729461230355,-1.1612259544955932,-1.2432794618142737,90,252286.0,78,58.0,-1,0,1,0,0,0
1778190021.6125681,1.4954533576965332,0.10338615245265768,1.3059407249380328,4.0269358636128265,0.08413643509738344,1.3467761146064363,4.114838034650548,4,75,1.924971735527424,-4.08353896684035,-8.790217103772147,9.881736861894847,-30,24,-30,1.3573584564685153,1.5279519351499313,0.77433856913463,90,252292.99999999997,78,58.0,-1,0,2,0,0,0
1778190021.684823,1.5677082538604736,0.10338615245265768,1.3059407249380328,4.0269358636128265,0.06279323407100068,1.277714117990072,4.1080984829150555,4,78,4.0592918381657,2.8226606947960864,-8.116261930222901,9.503629377523671,9,2,25,-0.29538760913802703,-0.9558106132997322,-0.09327467193643134,90,252292.99999999997,78,58.0,-1,0,2,0,0,0
1778190021.757167,1.640052318572998,0.10338615245265768,1.3059407249380328,4.0269358636128265,0.06972234471840366,1.2880881729047038,4.106096965397058,4,82,3.3663807734254023,1.7852552033329028,-7.916110178423175,8.785468457040318,0,4,-3,0.09577994649509088,0.14339883936374742,-0.02766664447112212,90,252290.0,78,58.0,-1,0,1,0,0,0
1778190021.828542,1.7114272117614746,0.10338615245265768,1.3059407249380328,4.0269358636128265,-0.007390142739346128,1.2381010838007498,4.061610473411891,4,85,11.07762951920038,6.783964113728302,-3.467460979906445,13.444676660603886,30,-13,21,-1.0803867300245509,-0.7003455538904314,-0.6232792792795326,90,252285.0,78,58.0,0,0,1,0,0,0
1778190021.900664,1.7835493087768555,0.10338615245265768,1.3059407249380328,4.0269358636128265,0.013380092809940347,1.3104692483831677,4.067710229750585,4,89,9.000605964271733,-0.452852344513488,-4.07743661377582,9.891484838454483,-1,4,-26,0.28798712750763455,1.0034118193621653,0.08457541573413914,90,252285.0,78,58.0,0,0,1,0,0,0
1778190021.97151,1.8543951511383057,0.10338615245265768,1.3059407249380328,4.0269358636128265,0.03321269724351339,1.2170609409445974,4.118135709845927,4,92,7.0173455209144295,8.887978399343544,-9.119984623310007,14.540062507310832,-2,23,30,0.27994027274583844,-1.318472677083972,0.711763434727402,90,252290.0,78,58.0,-1,0,1,0,0,0
1778190022.044126,1.927011251449585,0.10338615245265768,1.3059407249380328,4.0269358636128265,0.0909289953300958,1.3442385323379913,4.116407769545766,4,96,1.2457157122561888,-3.8297807399958472,-8.947190593293985,9.811791256693828,-19,5,-30,0.7948140679432418,1.751369060693551,-0.023795553503329844,90,252290.0,78,58.0,-1,0,1,0,0,0
1778190022.114632,1.9975171089172363,0.10338615245265768,1.3059407249380328,4.0269358636128265,0.05836222203946084,1.2870521278069516,4.127131595203251,4,100,4.502393041319684,1.8888597131081264,-10.019573159042405,11.145904198571323,14,10,20,-0.4619016697382461,-0.8110872852979244,0.15209836519475523,90,252285.0,77,58.0,0,0,1,0,0,0
1778190022.185757,2.0686421394348145,0.10338615245265768,1.3059407249380328,4.0269358636128265,0.13569031474219084,1.331040565275313,4.171094380916626,4,103,-3.230416228953316,-2.509984033728019,-14.41585173037998,14.98507223786906,-29,24,-17,1.0872134906658328,0.6184663422743977,0.6181056850655496,90,252285.0,77,58.0,0,0,1,0,0,0
1778190022.257205,2.140090227127075,0.10338615245265768,1.3059407249380328,4.0269358636128265,0.036047999629876815,1.222956688749112,4.114346011813616,4,107,6.733815282278087,8.298403618892092,-8.741014820078963,13.806270711626778,30,-13,30,-1.394611365128353,-1.5127609431862898,-0.7942601535738116,90,252290.0,77,58.0,-1,0,1,0,0,0
1778190022.329771,2.212656259536743,0.10338615245265768,1.3059407249380328,4.0269358636128265,0.062333825683344335,1.2886280621640944,4.12635217386466,4,110,4.105232676931335,1.7312662773938392,-9.941631025183373,10.894321718026989,-6,10,-22,0.36223319893076394,0.9049877915914986,0.16545154326839728,90,252291.0,77,58.0,-1,0,2,0,0,0
1778190022.401912,2.284797191619873,0.10338615245265768,1.3059407249380328,4.0269358636128265,0.0636809017881399,1.288757558712704,4.126215449240563,4,114,3.9705250664517786,1.7183166225328783,-9.927958562773664,10.82968339993121,2,6,0,0.01867284031267149,0.0017950495629913217,-0.0018952433819337535,90,252291.0,77,58.0,-1,0,2,0,0,0
1778190022.474508,2.357393264770508,0.10338615245265768,1.3059407249380328,4.0269358636128265,0.14109138796749043,1.3329662507924815,4.169982846124149,4,118,-3.770523551483275,-2.702552585444873,-14.304698251132208,15.03811924361985,-28,24,-17,1.0663178160990334,0.6089680909881413,0.6028893159657458,90,252291.0,77,58.0,-2,0,2,0,0,0
1778190022.546816,2.429701328277588,0.10338615245265768,1.3059407249380328,4.0269358636128265,0.06634352997885151,1.2890098509465318,4.1259477185724185,4,121,3.7042622473806173,1.693087399150106,-9.901185495959197,10.706146737455216,28,-8,15,-1.033741665358248,-0.6079045367000566,-0.6089933185310431,90,252287.0,77,58.0,-1,0,2,0,0,0
1778190022.616296,2.4991812705993652,0.10338615245265768,1.3059407249380328,4.0269358636128265,0.032318824838893256,1.2318451606233038,4.133740275857068,4,125,7.106732761376443,7.409556431472897,-10.680441224424175,14.814823718194623,16,10,24,-0.48970543156731683,-0.8227509755043446,0.11215549443839036,90,252287.0,77,58.0,-1,0,2,0,0,0
1778190022.687403,2.5702881813049316,0.10338615245265768,1.3059407249380328,4.0269358636128265,0.11179000596049016,1.269648125102786,4.183776307778634,4,128,-0.8403853507832473,3.6292599835246797,-15.684044416580711,16.12039158417379,-28,28,-11,1.117629500888663,0.5316355907516999,0.7036732636121742,90,252283.0,77,58.0,-1,0,2,0,0,0
1778190022.7588239,2.641709089279175,0.10338615245265768,1.3059407249380328,4.0269358636128265,0.0698249047604873,1.2917202948596345,4.125518234047199,4,132,3.356124769217038,1.422043007839835,-9.858237043437246,10.51050033953173,16,-13,-7,-0.5875744567002272,0.30904353336992624,-0.8157005474145543,90,252301.00000000003,77,58.0,-1,0,2,0,0,0
1778190022.830904,2.713789224624634,0.10338615245265768,1.3059407249380328,4.0269358636128265,0.14633352964378155,1.3347837933348146,4.168955095304849,4,135,-4.294737719112386,-2.8843068396781746,-14.201923169202235,15.114847658025013,-28,24,-17,1.0614384187350758,0.5974392010890289,0.6026190301873011,90,252283.0,77,58.0,-1,-1,2,0,0,0
1778190022.9032478,2.786133050918579,0.10338615245265768,1.3059407249380328,4.0269358636128265,0.06911166063432139,1.2939625286298198,4.12272832950205,4,139,3.4274491818336292,1.1978196308213063,-9.579246588922352,10.24422495718507,28,-8,14,-1.067428597095411,-0.5642674267619057,-0.6389870175648658,90,252283.0,77,58.0,-1,-1,2,0,0,0
1778190022.974695,2.8575801849365234,0.10338615245265768,1.3059407249380328,4.0269358636128265,0.1155536836500386,1.2723410761201377,4.182784634252085,4,143,-1.2167531197380912,3.3599648817895122,-15.584877063925884,15.989316597620245,-16,30,9,0.6500193976157678,-0.302621690944968,0.8405698223661686,90,252289.0,77,58.0,-1,0,2,0,0,0
1778190023.0467122,2.9295973777770996,0.10338615245265768,1.3059407249380328,4.0269358636128265,0.07345445271196471,1.2942431838769224,4.12457829260912,4,146,2.993169974069297,1.1697541061110428,-9.764242899629316,10.279485909586878,16,-12,-7,-0.5845719511904411,0.3041233196254844,-0.8082284152871182,90,252289.0,77,58.0,-1,0,2,0,0,0
1778190023.1173491,3.000234365463257,0.10338615245265768,1.3059407249380328,4.0269358636128265,0.15905158129799069,1.3431808072527867,4.168921010811019,4,150,-5.5665428845333,-3.724008231475384,-14.198514719819233,15.69880432524618,-30,25,-20,1.211789055421463,0.6928045062354011,0.6277549433296267,90,252289.0,77,58.0,-1,0,2,0,0,0
1778190023.189534,3.0724191665649414,0.10338615245265768,1.3059407249380328,4.0269358636128265,0.15717634804689817,1.3472480158677769,4.165800442872226,4,153,-5.379019559424049,-4.130729092974406,-13.886457925939943,15.45414145105162,-2,8,-4,-0.02597822841474519,0.05634439041067467,-0.04323026303552523,90,252292.0,77,58.0,-1,-1,2,0,0,0
1778190023.262197,3.1450822353363037,0.10338615245265768,1.3059407249380328,4.0269358636128265,0.07499098925985193,1.2930286368491914,4.124234191876094,4,157,2.839516319280576,1.2912088088841367,-9.729832826326756,10.217618114994629,30,-6,18,-1.1310471767390704,-0.746175188240249,-0.5720409514621795,90,252290.0,77,58.5,-1,0,2,0,0,0
1778190023.335099,3.217984199523926,0.10338615245265768,1.3059407249380328,4.0269358636128265,0.2414168177530005,1.3929077127305634,4.208441483259143,4,161,-13.80306653003428,-8.696698779253055,-18.150561964631606,24.404919891725637,-30,30,-30,2.2828716667335804,1.370046431455824,1.155075755796247,90,252290.0,77,58.5,-1,0,2,0,0,0
1778190023.407735,3.2906203269958496,0.10338615245265768,1.3059407249380328,4.0269358636128265,0.07613702833930569,1.294179439201139,4.1238808612618945,4,164,2.7249124113351995,1.1761285736893834,-9.694499764906794,10.138626719781882,30,-21,30,-2.2754488044200967,-1.3592171962579638,-1.1641675422458815,100,252288.0,77,58.5,-1,-1,2,0,0,0
1778190023.4787462,3.361631393432617,0.10338615245265768,1.3059407249380328,4.0269358636128265,0.16077448930186433,1.3497689730887674,4.164823503278061,4,168,-5.738833684920665,-4.382824815073461,-13.788763966523465,15.565133380324747,-30,24,-23,1.1918911404875858,0.7828291656079919,0.5765670630031228,100,252288.0,77,58.5,-1,-1,2,0,0,0
1778190023.549551,3.432436227798462,0.10338615245265768,1.3059407249380328,4.0269358636128265,0.15495714131196925,1.339055979688601,4.1669975042886715,4,171,-5.157098885931156,-3.31152547505682,-14.006164067584503,15.28837799700537,0,11,0,-0.08216032198927495,-0.15130313482287028,0.030704132423747192,100,252298.99999999997,77,58.5,-1,-1,2,0,0,0
1778190023.621292,3.5041773319244385,0.10338615245265768,1.3059407249380328,4.0269358636128265,0.21057599226089674,1.3295077021358597,4.223806782532446,4,175,-10.718983980823905,-2.3566977197826855,-19.687091891961916,22.539570290627573,-25,30,0,0.7752717445115066,-0.1330935405729842,0.7918651230125715,100,252287.0,77,58.5,-1,0,2,0,0,0
1778190023.692506,3.5753912925720215,0.10338615245265768,1.3059407249380328,4.0269358636128265,0.2223674517316121,1.316617148648719,4.206035109696938,4,178,-11.898129927895441,-1.0676423710686223,-17.90992460841112,21.528370943769815,-11,6,3,0.16557791988382492,-0.18101160741406028,-0.24955321504240932,100,252287.0,77,58.5,-1,0,2,0,0,0
1778190023.7628999,3.645785093307495,0.10338615245265768,1.3059407249380328,4.0269358636128265,0.1632824371331829,1.3499433601263853,4.164585265458175,4,182,-5.989628468052523,-4.400263518835246,-13.764940184534868,15.643258819834196,17,-4,-15,-0.8393496867779495,0.47342537452835837,-0.5888280474373456,100,252292.0,77,58.5,-1,0,2,0,0,0
1778190023.834514,3.7173991203308105,0.10338615245265768,1.3059407249380328,4.0269358636128265,0.14060664570017556,1.2777459860067384,4.1587516694011,4,186,-3.7220493247517874,2.8194738931294427,-13.18158057882739,13.984175011992775,5,8,26,-0.3166389655147417,-1.0081457100037334,-0.08145884681468252,100,252289.0,77,58.5,-1,-1,2,0,0,0
1778190023.9063659,3.7892510890960693,0.10338615245265768,1.3059407249380328,4.0269358636128265,0.11256542559381,1.3583781942464452,4.108735471795952,4,189,-0.9179273141152313,-5.243746930841242,-8.179960818312537,9.759673735214413,9,-10,-30,-0.3902637685263232,1.1221990103449107,-0.6961005865900769,100,252286.0,77,58.5,-2,-1,2,0,0,0
1778190023.977321,3.860206127166748,0.10338615245265768,1.3059407249380328,4.0269358636128265,0.17570610876237702,1.3349444043149927,4.14815810884082,4,193,-7.231995630971934,-2.900367937695991,-12.122224522799385,14.410490011154057,-26,23,5,0.889868921015478,-0.3302625235449804,0.5556002521709504,100,252286.0,77,58.5,-2,-1,2,0,0,0
1778190024.047252,3.9301371574401855,0.10338615245265768,1.3059407249380328,4.0269358636128265,0.0995404549384522,1.2909295858886525,4.105075555227084,4,196,0.3845697514205479,1.501113904938034,-7.81396916142576,7.966137765882459,27,-8,15,-1.0891538924295738,-0.6294032599582445,-0.6160720562142307,100,252296.0,77,58.5,-1,-1,2,0,0,0
1778190024.118626,4.001511335372925,0.10338615245265768,1.3059407249380328,4.0269358636128265,0.17486996920978526,1.3325000616586564,4.1484396921787345,4,200,-7.148381675712757,-2.6559336720623605,-12.150382856590802,14.345213411232201,-30,25,-17,1.0554169092121968,0.5824301865750192,0.6075605801374749,100,252294.0,76,58.5,-1,0,2,0,0,0
1778190024.19029,4.0731751918792725,0.10338615245265768,1.3059407249380328,4.0269358636128265,0.15267354837982805,1.2597822262512042,4.143037916903046,4,203,-4.9287395927170365,4.615849868682864,-11.610205329021905,13.431135907475761,4,7,27,-0.30972964492904664,-1.0147072590352604,-0.07537656412909491,100,252294.0,76,58.5,-1,0,2,0,0,0
1778190024.261345,4.144230127334595,0.10338615245265768,1.3059407249380328,4.0269358636128265,0.17583547734232696,1.3338774326968217,4.14844449796119,4,207,-7.244932488966928,-2.793670775878887,-12.150863434836356,14.420025152049195,-12,11,-28,0.3259721342940718,1.042787611737497,0.0760901550821061,100,252292.99999999997,76,59.0,-1,0,2,0,0,0
1778190024.3317308,4.214616060256958,0.10338615245265768,1.3059407249380328,4.0269358636128265,0.15267354837982805,1.2597822262512042,4.143037916903046,4,210,-4.9287395927170365,4.615849868682864,-11.610205329021905,13.431135907475761,4,7,28,-0.32907042644510887,-1.052699074506061,-0.07681337496951343,100,252288.0,76,59.0,-1,-1,2,0,0,0
1778190024.402556,4.285441160202026,0.10338615245265768,1.3059407249380328,4.0269358636128265,0.15267354837982805,1.2597822262512042,4.143037916903046,4,214,-4.9287395927170365,4.615849868682864,-11.610205329021905,13.431135907475761,-3,9,2,0.0,0.0,0.0,100,252288.0,76,59.0,-1,-1,2,0,0,0
1778190024.475133,4.358018159866333,0.10338615245265768,1.3059407249380328,4.0269358636128265,0.15267354837982805,1.2597822262512042,4.143037916903046,4,218,-4.9287395927170365,4.615849868682864,-11.610205329021905,13.431135907475761,-3,9,2,0.0,0.0,0.0,100,252292.0,76,59.0,-1,-1,2,0,0,0
1778190024.546222,4.429107189178467,0.10338615245265768,1.3059407249380328,4.0269358636128265,0.14980073948218298,1.2640470244326447,4.139844825914924,4,221,-4.641458702952529,4.18937005053881,-11.290896230209757,12.90652152955746,-2,8,0,-0.040411423892585494,0.059992353569984794,-0.04491678982000774,100,252294.99999999997,76,59.0,-1,-1,2,0,0,0
1778190024.617286,4.500171184539795,0.10338615245265768,1.3059407249380328,4.0269358636128265,0.15143400313954425,1.2596923527908395,4.143139021686862,4,225,-4.804785068688656,4.624837214719335,-11.620315807403525,13.398015460609777,-3,11,4,0.022982997916974255,-0.06127817074826325,0.046355341480424674,90,252290.0,76,59.0,-1,0,2,0,0,0
1778190024.688271,4.57115626335144,0.10338615245265768,1.3059407249380328,4.0269358636128265,0.1073610973974588,1.2786992904720078,4.086322856870552,4,228,-0.39749449448011204,2.7241434466025005,-5.938699325772578,6.5457703192780174,14,-13,-5,-0.6208756330190203,0.2677596193363689,-0.8003958827328717,90,252290.0,76,59.0,-1,0,2,0,0,0
1778190024.75854,4.641425132751465,0.10338615245265768,1.3059407249380328,4.0269358636128265,0.1569785256452083,1.269272651890376,4.141193367191907,4,232,-5.359237319255063,3.6668073047656735,-11.425750357908004,13.142095407339498,-21,29,5,0.7061082478115447,-0.13415099263897443,0.7808651368643651,90,252296.0,76,59.0,-1,0,2,0,0,0
1778190024.82987,4.71275520324707,0.10338615245265768,1.3059407249380328,4.0269358636128265,0.10615534693530337,1.2786198803829847,4.0864252423715755,4,235,-0.276919448264569,2.732084455504813,-5.948937875874893,6.552162368551093,17,-12,-1,-0.712507058478739,0.13104190739842986,-0.7678125710489139,90,252294.0,76,59.0,-1,0,2,0,0,0
1778190024.902106,4.784991264343262,0.10338615245265768,1.3059407249380328,4.0269358636128265,0.19037944384610372,1.3281059214205873,4.13006123190697,4,239,-8.699329139344604,-2.216519648255444,-10.31253682941431,13.67258946519565,-30,24,-19,1.165956388439361,0.6850600695365391,0.6040748744216181,90,252294.0,76,59.0,-1,0,2,0,0,0
1778190024.975424,4.858309268951416,0.10338615245265768,1.3059407249380328,4.0269358636128265,0.1049371844453113,1.278537399601622,4.086529089354871,4,243,-0.15510319926536204,2.7403325336410767,-5.959322574204418,6.561021638493234,28,-8,18,-1.1653653131646968,-0.6760757072411144,-0.5937442349223092,90,252296.0,76,59.0,-1,0,2,0,0,0
1778190025.04704,4.929925203323364,0.10338615245265768,1.3059407249380328,4.0269358636128265,0.1049371844453113,1.278537399601622,4.086529089354871,4,246,-0.15510319926536204,2.7403325336410767,-5.959322574204418,6.561021638493234,0,6,1,0.0,0.0,0.0,90,252294.0,76,59.0,-1,0,2,0,0,0
1778190025.118458,5.001343250274658,0.10338615245265768,1.3059407249380328,4.0269358636128265,0.1635032963043861,1.2618980565547853,4.12112619151977,4,250,-6.011714385172841,4.404266838324755,-9.41903279069436,12.01068086930282,-24,21,8,0.8200463938619886,-0.23298513130980145,0.4844308076429776,90,252294.0,76,59.0,-1,0,2,0,0,0
1778190025.191091,5.073976278305054,0.10338615245265768,1.3059407249380328,4.0269358636128265,0.18588205262896995,1.3328967456909457,4.127024054640071,4,253,-8.249590017631228,-2.6956020752912924,-10.00881910272442,13.247583396166137,-13,11,-26,0.30810716462514526,0.9774986815426298,0.0812008432008709,90,252296.0,76,59.0,-1,0,2,0,0,0
1778190025.261354,5.144239187240601,0.10338615245265768,1.3059407249380328,4.0269358636128265,0.13477620279544955,1.3413141311750234,4.072386055430555,4,257,-3.1390050342791866,-3.537340623699059,-4.545019181772858,6.559217228906583,15,-13,-6,-0.7273517508419769,0.11979842012802301,-0.7776222197067845,90,252292.99999999997,76,59.0,-1,0,2,0,0,0
1778190025.331372,5.21425724029541,0.10338615245265768,1.3059407249380328,4.0269358636128265,0.030137196398374533,1.2457522225299509,4.038276750330322,4,260,7.324895605428315,6.018850240808193,-1.1340886717495557,9.548131281412639,30,-8,30,-1.4944575267633398,-1.3648181358351599,-0.48715015074087437,90,252292.0,76,59.0,-1,-1,2,0,0,0
1778190025.4033878,5.286273002624512,0.10338615245265768,1.3059407249380328,4.0269358636128265,0.19585669484864088,1.316764404404632,4.1110188068968885,4,264,-9.24705423959832,-1.0823679466599234,-8.408294328406196,12.545076563940846,-30,30,-25,2.3011559287944814,0.986064433368987,1.0100852120976764,90,252292.0,76,59.0,-1,-1,2,0,0,0
1778190025.474745,5.357630252838135,0.10338615245265768,1.3059407249380328,4.0269358636128265,0.161976017870876,1.2575109370614068,4.12246145968275,4,268,-5.8589865418218325,4.8429787876626,-9.55255960699235,12.207930286503979,7,13,23,-0.4748035676309819,-0.8303776724276429,0.16035725524183647,90,252296.99999999997,76,59.0,-1,0,2,0,0,0
1778190025.545662,5.428547143936157,0.10338615245265768,1.3059407249380328,4.0269358636128265,0.19568235856730998,1.3168261165071296,4.111526595965297,4,271,-9.22962061146523,-1.0885391569096736,-8.459073235247061,12.566890392097108,-18,4,-22,0.47529354677779834,0.8364041137073585,-0.15419265492530612,90,252292.0,76,59.0,0,0,2,0,0,0
1778190025.616041,5.498926162719727,0.10338615245265768,1.3059407249380328,4.0269358636128265,0.08582246245484648,1.2184383689536702,4.076502337754173,4,275,1.7563689997811203,8.750235598436262,-4.956647414134618,10.208810345950244,30,-5,30,-1.560975103252098,-1.397969867355254,-0.49765198231637153,90,252292.0,76,59.0,0,0,2,0,0,0
1778190025.687299,5.570184230804443,0.10338615245265768,1.3059407249380328,4.0269358636128265,0.11792957506052892,1.2775396230641578,4.066324001169233,4,278,-1.454342260787124,2.840110187387501,-3.938813755640691,5.069081878371861,-12,2,-19,0.4505751203851213,0.8293973678913624,-0.14283767239996634,90,252283.0,76,59.0,-1,0,2,0,0,0
1778190025.758353,5.641238212585449,0.10338615245265768,1.3059407249380328,4.0269358636128265,0.15115648017623617,1.3328659736283872,4.05598656244436,4,282,-4.777032772357849,-2.6925248690354397,-2.905069883153377,6.20557517918847,-15,1,-21,0.4676290375691438,0.7786523594800038,-0.1454871136811722,90,252287.0,76,59.0,-1,0,2,0,0,0
1778190025.830035,5.712920188903809,0.10338615245265768,1.3059407249380328,4.0269358636128265,0.15115648017623617,1.3328659736283872,4.05598656244436,4,285,-4.777032772357849,-2.6925248690354397,-2.905069883153377,6.20557517918847,-3,5,-2,0.0,0.0,0.0,90,252287.0,76,59.0,-1,0,2,0,0,0
1778190025.9032729,5.786158084869385,0.10338615245265768,1.3059407249380328,4.0269358636128265,0.23178736737258454,1.3886220102556839,4.091840323196321,4,289,-12.840121491992685,-8.268128531765107,-6.490445958349422,16.593871100053025,-30,19,-25,1.1009448883436945,0.761300360861043,0.4895520314894451,90,252281.0,76,59.0,-1,0,2,0,0,0
1778190025.976352,5.859237194061279,0.10338615245265768,1.3059407249380328,4.0269358636128265,0.17136436272003408,1.247205494351844,4.103041261497744,4,293,-6.7978210267376395,5.873523058618879,-7.61053978849171,11.77407999394855,15,12,30,-0.8268163818730866,-1.9351154860481643,0.15327141265516708,90,252285.0,76,59.0,-1,0,2,0,0,0
1778190026.0472782,5.930163383483887,0.10338615245265768,1.3059407249380328,4.0269358636128265,0.15252675523266612,1.3319535030939311,4.056170375517495,4,296,-4.914060278000844,-2.601277815589831,-2.9234511904668636,6.281815147928793,2,-11,-30,-0.26559452355639385,1.1948761019307492,-0.6608403237480085,90,252291.0,76,59.0,-1,0,2,0,0,0
1778190026.117307,6.000192165374756,0.10338615245265768,1.3059407249380328,4.0269358636128265,0.13170762607507136,1.2633565702939658,4.050575100116908,4,300,-2.8321473622413675,4.258415464406706,-2.3639236504081396,5.634118917267177,4,3,26,-0.2972938925317693,-0.9795534200047186,-0.07989965339261161,90,252291.0,76,59.0,-1,0,2,0,0,0
1778190026.1876101,6.070495367050171,0.10338615245265768,1.3059407249380328,4.0269358636128265,0.21233249514103347,1.3172570574909255,4.089238355166984,4,303,-10.89463426883758,-1.131633255289266,-6.2302491554157235,12.601176699608851,-30,21,-20,1.1468164627580049,0.7666860955467505,0.5499501321231625,90,252286.0,75,59.0,-1,-1,2,0,0,0
1778190026.259669,6.14255428314209,0.10338615245265768,1.3059407249380328,4.0269358636128265,0.12061396238658117,1.275630448164446,4.06667761468261,4,307,-1.722780993392349,3.0310276773586775,-3.9741751069783504,5.2866975431770875,29,-1,16,-1.2728269828185506,-0.5776746526880892,-0.3130874249564768,90,252290.0,75,59.0,-1,-1,2,0,0,0
1778190026.331626,6.214511156082153,0.10338615245265768,1.3059407249380328,4.0269358636128265,0.13206303607207182,1.2611165442829217,4.050540694701638,4,310,-2.867688361941413,4.482418065511107,-2.360483108881173,5.821304730260037,-6,0,7,0.15911021724119603,-0.20170281570759277,-0.22425821636819923,90,252290.0,75,59.0,-1,-1,2,0,0,0
1778190026.402592,6.285477161407471,0.10338615245265768,1.3059407249380328,4.0269358636128265,0.13206303607207182,1.2611165442829217,4.050540694701638,4,314,-2.867688361941413,4.482418065511107,-2.360483108881173,5.821304730260037,-2,5,2,0.0,0.0,0.0,90,252283.0,75,59.0,-1,0,2,0,0,0
1778190026.475476,6.35836124420166,0.10338615245265768,1.3059407249380328,4.0269358636128265,0.1538876520771464,1.3310609931786792,4.056358211075704,4,318,-5.05014996244887,-2.5120268240646393,-2.942234746287742,6.361685209934982,-11,7,-26,0.2994428298796469,0.959666997432993,0.07981874987016342,90,252286.0,75,59.0,-1,0,2,0,0,0
1778190026.545748,6.428633213043213,0.10338615245265768,1.3059407249380328,4.0269358636128265,0.2133072326274139,1.3134273379261994,4.090658992458656,4,321,-10.992108017475623,-0.7486612988166552,-6.3723128845829535,12.727659011272246,-28,19,5,0.8455658996013777,-0.2509344130123878,0.488114705598936,90,252286.0,75,59.0,-1,0,2,0,0,0
1778190026.617362,6.500247240066528,0.10338615245265768,1.3059407249380328,4.0269358636128265,0.2133072326274139,1.3134273379261994,4.090658992458656,4,325,-10.992108017475623,-0.7486612988166552,-6.3723128845829535,12.727659011272246,-7,7,0,0.0,0.0,0.0,90,252289.0,75,59.0,-1,0,2,0,0,0
1778190026.688472,6.571357250213623,0.10338615245265768,1.3059407249380328,4.0269358636128265,0.09912207571676435,1.2052332698714363,4.058255474674397,4,328,0.4264076735893338,10.070745506659652,-3.1319611061570107,10.55513708743196,30,-5,30,-1.6057536298258386,-1.521502638390264,-0.45568152384215777,90,252296.0,75,59.0,-1,0,2,0,0,0
1778190026.7594821,6.642367362976074,0.10338615245265768,1.3059407249380328,4.0269358636128265,0.15509646861390824,1.3312004807882527,4.056210122093976,4,332,-5.171031616125056,-2.525975585021989,-2.9274258481149396,6.456774947859308,-23,5,-30,0.7882594565705593,1.7739334021086854,-0.02880368022035104,90,252290.0,75,59.0,-1,-1,2,0,0,0
1778190026.831213,6.714098215103149,0.10338615245265768,1.3059407249380328,4.0269358636128265,0.21435323908759174,1.310465733724547,4.091304996953385,4,335,-11.096708663493406,-0.4525008786514295,-6.436913334055827,12.836493036564761,-28,20,6,0.8260987945425049,-0.2890631638806247,0.48925774361687985,90,252290.0,75,59.0,-1,-1,2,0,0,0
1778190026.902287,6.7851722240448,0.10338615245265768,1.3059407249380328,4.0269358636128265,0.17084444492164685,1.3325959096672206,4.034675947576882,4,339,-6.745829246898917,-2.665518472918782,-0.7740083964055344,7.294538364796935,9,-15,-9,-0.6121618129302976,0.31136805524564865,-0.796761716691592,90,252296.0,75,59.0,-1,-1,2,0,0,0
1778190026.975721,6.8586061000823975,0.10338615245265768,1.3059407249380328,4.0269358636128265,0.15509646861390824,1.3312004807882527,4.056210122093976,4,343,-5.171031616125056,-2.525975585021989,-2.9274258481149396,6.456774947859308,0,13,-1,-0.21445111108769133,-0.019002522463249523,0.2932457835409464,90,252290.0,75,59.0,-1,0,2,0,0,0
1778190027.04689,6.929775238037109,0.10338615245265768,1.3059407249380328,4.0269358636128265,0.1332722666112316,1.2612315972691328,4.050420338055749,4,346,-2.988611415857391,4.470912766890001,-2.348447444292212,5.868224992511427,4,3,27,-0.30665261136877,-0.9831351837315243,-0.08135245423250134,90,252277.0,75,59.0,-1,-1,2,0,0,0
1778190027.1186419,7.0015270709991455,0.10338615245265768,1.3059407249380328,4.0269358636128265,0.09375214289771261,1.28144672278765,3.995745175635348,4,350,0.9634009554945075,2.4494002150382777,3.1190687977478593,4.081212194870731,13,-17,-5,-0.5507890472209828,0.28173671227622915,-0.7620037030876873,90,252283.0,75,59.0,-1,0,2,0,0,0
1778190027.1876879,7.070573091506958,0.10338615245265768,1.3059407249380328,4.0269358636128265,0.16405638058167082,1.3222198449453453,4.0369439702878935,4,353,-6.067022812901314,-1.6279120007312464,-1.000810667506702,6.360855703958783,-30,19,-16,1.0182228775372122,0.5905209577296608,0.5966860124528683,90,252283.0,75,59.0,-1,0,2,0,0,0
1778190027.253937,7.13682222366333,0.10338615245265768,1.3059407249380328,4.0269358636128265,0.060558101352370386,1.2280246477797534,4.003163180704821,4,357,4.28280511002873,7.791607715827942,2.3772682908005827,9.20342191439052,30,-9,30,-1.5622586418944602,-1.4218329221771075,-0.5099053902070427,90,252283.0,75,59.0,-1,0,2,0,0,0
1778190027.324021,7.206906318664551,0.10338615245265768,1.3059407249380328,4.0269358636128265,0.19115730945656173,1.243464108012538,4.084699986636044,4,360,-8.777115700390405,6.247661692549489,-5.7764123023217095,12.224482636455567,-30,30,-1,1.8634642867531728,0.22029905975836045,1.163413837758806,90,252283.0,75,59.0,-1,0,2,0,0,0
1778190027.393059,7.275944232940674,0.10338615245265768,1.3059407249380328,4.0269358636128265,0.2133072326274139,1.3134273379261994,4.090658992458656,4,364,-10.992108017475623,-0.7486612988166552,-6.3723128845829535,12.727659011272246,-15,10,-25,0.3208370850003039,1.0134030068440005,0.08631497467867998,90,252287.0,75,59.0,0,0,2,0,0,0
1778190027.4663281,7.349213361740112,0.10338615245265768,1.3059407249380328,4.0269358636128265,0.13878957201932351,1.2707745230214884,4.04847996020931,4,367,-3.540341956666583,3.5166201916544404,-2.1544096596483264,5.435266297438562,21,-9,16,-1.0170403528622478,-0.5821389663505572,-0.5756726323961631,90,252287.0,75,59.0,0,0,2,0,0,0
1778190027.539078,7.421963214874268,0.10338615245265768,1.3059407249380328,4.0269358636128265,0.2133072326274139,1.3134273379261994,4.090658992458656,4,371,-10.992108017475623,-0.7486612988166552,-6.3723128845829535,12.727659011272246,-30,22,-15,1.0242998081477248,0.5862941719766293,0.5797816824669804,90,252298.0,75,59.0,-1,0,2,0,0,0
1778190027.608949,7.4918341636657715,0.10338615245265768,1.3059407249380328,4.0269358636128265,0.2133072326274139,1.3134273379261994,4.090658992458656,4,374,-10.992108017475623,-0.7486612988166552,-6.3723128845829535,12.727659011272246,-8,8,0,0.0,0.0,0.0,90,252298.0,75,59.0,-1,0,2,0,0,0
1778190027.6808362,7.563721418380737,0.10338615245265768,1.3059407249380328,4.0269358636128265,0.15205336507744893,1.3359500095463104,4.052745955452842,4,378,-4.866721262479125,-3.0009284608277564,-2.581009184001548,6.273129671987722,16,-7,-10,-0.8520824420523165,0.3133054907912924,-0.5273958110674818,90,252298.99999999997,75,59.0,-1,0,2,0,0,0
1778190027.753304,7.636189222335815,0.10338615245265768,1.3059407249380328,4.0269358636128265,0.18359383552498598,1.3909765725878926,4.039677109457442,4,381,-8.02076830723283,-8.503584764985984,-1.274124584461589,11.758701950059868,-17,0,-25,0.43523425198711124,0.7593242797269327,-0.1803400307742291,90,252302.0,75,59.0,-1,-1,2,0,0,0
1778190027.825301,7.708186149597168,0.10338615245265768,1.3059407249380328,4.0269358636128265,0.060478203320442514,1.2290268555744999,4.002911850105794,4,385,4.290794913221517,7.691386936353295,2.402401350703265,9.129068202280815,30,-9,30,-1.710012314242626,-2.2493976225611267,-0.510650395095179,90,252302.0,75,59.0,-1,-1,2,0,0,0
1778190027.896752,7.779637336730957,0.10338615245265768,1.3059407249380328,4.0269358636128265,0.060478203320442514,1.2290268555744999,4.002911850105794,4,389,4.290794913221517,7.691386936353295,2.402401350703265,9.129068202280815,0,2,5,0.0,0.0,0.0,90,252292.0,75,59.0,-1,-1,2,0,0,0
1778190027.9684422,7.851327419281006,0.10338615245265768,1.3059407249380328,4.0269358636128265,0.11464083404949488,1.3486526153543665,4.00137184779978,4,392,-1.1254681596837193,-4.271189041633372,2.5564015813046126,5.103422719384274,-20,2,-30,0.7555107875798571,1.6686514441708533,-0.021481385586888658,90,252302.0,75,59.0,-1,-1,2,0,0,0
1778190028.041604,7.924489259719849,0.10338615245265768,1.3059407249380328,4.0269358636128265,0.2145510484179134,1.3135747667467317,4.090508926791106,4,396,-11.116489596525572,-0.7634041808698866,-6.357306317827938,12.828658172689996,-30,30,11,1.3656055365629458,-0.4794555248641814,1.218354793382169,90,252296.99999999997,75,59.0,-1,0,2,0,0,0
1778190028.112289,7.995174169540405,0.10338615245265768,1.3059407249380328,4.0269358636128265,0.13999352987598956,1.2708767388978097,4.048362229319323,4,399,-3.660737742333188,3.5063986040223094,-2.142636570649614,5.503337483956206,22,-9,17,-1.0547869231381681,-0.6040614320272427,-0.5962616006553367,90,252296.99999999997,75,59.0,-1,0,2,0,0,0
1778190028.1832378,8.066123008728027,0.10338615245265768,1.3059407249380328,4.0269358636128265,0.14101609579667684,1.2721000189368377,4.048624449372671,4,403,-3.762994334401916,3.3840706001195153,-2.1688585759844337,5.505997430979731,-4,5,1,0.014412722355937843,0.017241720273858372,0.0036959033629114266,90,252301.00000000003,74,59.0,-1,0,2,0,0,0
1778190028.255456,8.138341188430786,0.10338615245265768,1.3059407249380328,4.0269358636128265,0.21593358109697047,1.3126771544652576,4.090701200466603,4,407,-11.254742864431279,-0.6736429527224752,-6.376533685377606,12.953115980835452,-30,22,-14,1.0373770927022095,0.5618687108347294,0.5826337809553562,90,252298.99999999997,74,59.5,-1,-1,2,0,0,0
1778190028.326316,8.209201335906982,0.10338615245265768,1.3059407249380328,4.0269358636128265,0.11907427106186153,1.2022446832483773,4.040157694760783,4,410,-1.568811860920384,10.369604168965552,-1.3221831147956387,10.570621053894747,30,-12,30,-1.3669081068120332,-1.5584566946318779,-0.7132853586396855,90,252298.99999999997,74,59.5,-1,-1,2,0,0,0
1778190028.3972852,8.280170440673828,0.10338615245265768,1.3059407249380328,4.0269358636128265,0.21653255856034792,1.3145698458590764,4.089848489145497,4,414,-11.314640610769024,-0.862912092104362,-6.291262553267085,12.974809977171315,-30,25,-30,1.3732494980550398,1.5827332608988123,0.7001750204960775,90,252308.0,74,59.5,-1,-1,2,0,0,0
1778190028.4678621,8.350747346878052,0.10338615245265768,1.3059407249380328,4.0269358636128265,0.14243531303388468,1.270182079132518,4.0491191712095045,4,417,-3.9049160581226996,3.57586458055148,-2.218330759667797,5.740746317223523,22,-8,18,-1.049879479160691,-0.6289276353105722,-0.5770912912807088,90,252302.0,74,59.5,-1,-1,2,0,0,0
1778190028.5396018,8.422487020492554,0.10338615245265768,1.3059407249380328,4.0269358636128265,0.14243531303388468,1.270182079132518,4.0491191712095045,4,421,-3.9049160581226996,3.57586458055148,-2.218330759667797,5.740746317223523,-4,5,2,0.0,0.0,0.0,90,252302.0,74,59.5,-1,-1,2,0,0,0
1778190028.613269,8.496154308319092,0.10338615245265768,1.3059407249380328,4.0269358636128265,0.19403862769604197,1.2405526578504444,4.08541007594533,4,425,-9.065247524338428,6.5388067087588375,-5.847421233250305,12.614556707673088,-25,20,14,0.7004915775325663,-0.4022059472562773,0.4926325619761931,90,252294.0,74,59.5,-1,0,2,0,0,0
1778190028.6855822,8.568467378616333,0.10338615245265768,1.3059407249380328,4.0269358636128265,0.19377876731332222,1.2363849316408366,4.086584920904655,4,428,-9.039261486066454,6.955579329719619,-5.964905729182846,12.871224976028717,-7,8,6,-0.003593546528332918,-0.05763448008052308,0.016246647452476184,90,252292.0,74,59.5,-1,0,2,0,0,0
1778190028.756726,8.63961124420166,0.10338615245265768,1.3059407249380328,4.0269358636128265,0.11677251197371152,1.2041716023698672,4.03788401998993,4,432,-1.3386359521053839,10.17691225681656,-1.0948156377103224,10.32279567635567,24,-12,18,-1.0824019007970889,-0.45279138272763697,-0.6845411127726155,90,252305.00000000003,74,59.5,-1,0,2,0,0,0
1778190028.826782,8.709667205810547,0.10338615245265768,1.3059407249380328,4.0269358636128265,0.04029894093933639,1.1612893108358804,3.9923839611014644,4,435,6.308721151332129,14.465141410215242,3.4551902511362087,16.154832659434636,28,-13,25,-1.091606899371635,-0.6121148086353171,-0.6494816121786493,90,252305.00000000003,74,59.5,-1,0,2,0,0,0
1778190028.8982542,8.781139373779297,0.10338615245265768,1.3059407249380328,4.0269358636128265,0.06198564661528572,1.2251504510243474,4.003885455376799,4,439,4.140050583737197,8.079027391368543,2.3050408236027664,9.3661046131709,-7,7,-16,0.3034286812935557,0.8935106070434188,0.1609227004330309,90,252291.0,74,59.5,-1,-1,2,0,0,0
1778190028.969345,8.852230310440063,0.10338615245265768,1.3059407249380328,4.0269358636128265,0.15247515971135894,1.2549891238403297,4.033497075416056,4,442,-4.908900725870126,5.095160109770314,-0.6561211803229661,7.105523054913782,-30,15,-6,1.2728698951861221,0.4197254139211468,0.4165315781469971,90,252298.0,74,59.5,-1,0,2,0,0,0
1778190029.041627,8.924512147903442,0.10338615245265768,1.3059407249380328,4.0269358636128265,0.11807540688032292,1.200101568691189,4.040806572079964,4,446,-1.4689254427665235,10.583915624684392,-1.3870708467137227,10.775016354542037,9,7,27,-0.47591143277817777,-0.7593547296988568,0.10112494259171086,90,252298.0,74,59.5,-1,0,2,0,0,0
1778190029.1119711,8.994856357574463,0.10338615245265768,1.3059407249380328,4.0269358636128265,0.15247515971135894,1.2549891238403297,4.033497075416056,4,449,-4.908900725870126,5.095160109770314,-0.6561211803229661,7.105523054913782,-17,2,-15,0.48902038976503825,0.7802711183455466,-0.10391042415704099,90,252298.0,74,59.5,0,0,2,0,0,0
1778190029.182501,9.065386295318604,0.10338615245265768,1.3059407249380328,4.0269358636128265,0.26217316204576036,1.3691109236474295,4.055906020259281,4,453,-15.878700959310265,-6.317019870939666,-2.8970156646454193,17.33293350723553,-30,14,-30,1.5553395599518267,1.618061825335733,0.3177224531874223,90,252292.0,74,59.5,0,0,2,0,0,0
1778190029.251965,9.134850263595581,0.10338615245265768,1.3059407249380328,4.0269358636128265,0.1512977750710498,1.2635580911717752,4.0292640758947185,4,456,-4.791162261839212,4.238263376625762,-0.23282122818919504,6.400962270878884,30,-5,30,-1.5961568238170754,-1.5195335811334245,-0.3835361702678911,90,252292.0,74,59.5,0,0,2,0,0,0
1778190029.323893,9.206778287887573,0.10338615245265768,1.3059407249380328,4.0269358636128265,0.18457246252392445,1.3166320429739806,4.02004455723184,4,460,-8.118631007126677,-1.0691318035947805,0.6891306380986784,8.2176707940695,-18,0,-18,0.46261089165741415,0.7378758463704138,-0.12817700407635346,90,252303.00000000003,74,60.0,-1,0,2,0,0,0
1778190029.394611,9.277496099472046,0.10338615245265768,1.3059407249380328,4.0269358636128265,0.15191765420473313,1.260773756321412,4.030114293204538,4,464,-4.853150175207545,4.516696861662073,-0.31784295917116623,6.6373670464996675,6,8,23,-0.4617621443246309,-0.7898757809529446,0.1423932068467661,90,252303.00000000003,74,60.0,-1,0,2,0,0,0
1778190029.467264,9.350149154663086,0.10338615245265768,1.3059407249380328,4.0269358636128265,0.15191765420473313,1.260773756321412,4.030114293204538,4,467,-4.853150175207545,4.516696861662073,-0.31784295917116623,6.6373670464996675,-5,4,3,0.0,0.0,0.0,90,252294.99999999997,74,60.0,-1,-1,2,0,0,0
1778190029.540684,9.423569202423096,0.10338615245265768,1.3059407249380328,4.0269358636128265,0.10161563596588086,1.2940888611249974,3.990704158968183,4,471,0.1770516486776827,1.185186381303538,3.6231704644643425,3.8161994522421936,15,-11,-10,-0.6851264712231724,0.453760325960062,-0.5367761999444094,90,252298.0,74,60.0,-1,-1,2,0,0,0
1778190029.613825,9.496710300445557,0.10338615245265768,1.3059407249380328,4.0269358636128265,0.17451677502723317,1.331983493632383,4.034581970653252,4,475,-7.113062257457549,-2.6042768694350293,-0.7646107040425676,7.613313484933998,-30,19,-14,0.9967192321745713,0.5181031394380843,0.599906384664811,90,252298.0,74,60.0,-1,-1,2,0,0,0
1778190029.6868532,9.569738388061523,0.10338615245265768,1.3059407249380328,4.0269358636128265,0.17451677502723317,1.331983493632383,4.034581970653252,4,478,-7.113062257457549,-2.6042768694350293,-0.7646107040425676,7.613313484933998,-6,4,-1,0.0,0.0,0.0,90,252298.0,74,60.0,-1,-1,2,0,0,0
1778190029.760802,9.64368724822998,0.10338615245265768,1.3059407249380328,4.0269358636128265,0.17451677502723317,1.331983493632383,4.034581970653252,4,482,-7.113062257457549,-2.6042768694350293,-0.7646107040425676,7.613313484933998,-6,4,-1,0.0,0.0,0.0,90,252290.0,74,60.0,-1,-1,2,0,0,0
1778190029.8326569,9.715542078018188,0.10338615245265768,1.3059407249380328,4.0269358636128265,0.15353056077427896,1.2647980280677924,4.028728498539582,4,485,-5.014440832162127,4.114269687024041,-0.17926349267556319,6.488756993186441,1,2,26,-0.29206407300401444,-0.9350166963392684,-0.08146247275128399,90,252304.0,74,60.0,-1,0,2,0,0,0
1778190029.9050171,9.787902355194092,0.10338615245265768,1.3059407249380328,4.0269358636128265,0.07693962443341906,1.2132544096991604,3.9872467765899477,4,489,2.644652801923862,9.268631523887239,3.9689087022878766,10.42372078748354,25,-12,24,-1.0584665970069753,-0.7123192500124433,-0.5732664877553595,90,252302.0,74,60.0,-1,-1,2,0,0,0
1778190029.977464,9.860349178314209,0.10338615245265768,1.3059407249380328,4.0269358636128265,0.15424200333750604,1.2610007164157286,4.029879917695518,4,493,-5.0855850884848355,4.494000852230418,-0.2944054082691494,6.793076909360378,-30,19,-12,1.0670223423864875,0.6590531462974518,0.5884749567953353,90,252302.0,74,60.0,-1,-1,2,0,0,0
1778190030.050863,9.933748245239258,0.10338615245265768,1.3059407249380328,4.0269358636128265,0.15424200333750604,1.2610007164157286,4.029879917695518,4,496,-5.0855850884848355,4.494000852230418,-0.2944054082691494,6.793076909360378,-5,4,3,0.0,0.0,0.0,90,252302.0,74,60.0,-1,-1,2,0,0,0
1778190030.12355,10.00643515586853,0.10338615245265768,1.3059407249380328,4.0269358636128265,0.1569011219025378,1.2574828764691337,4.032386153525195,4,500,-5.351496944988011,4.845784846889911,-0.5450289912368511,7.239972854635061,-6,5,5,0.03658318316201596,-0.04839715866501874,0.03447987826115843,90,252302.0,74,60.0,-1,-1,2,0,0,0
1778190030.1954129,10.078298091888428,0.10338615245265768,1.3059407249380328,4.0269358636128265,0.1569011219025378,1.2574828764691337,4.032386153525195,4,504,-5.351496944988011,4.845784846889911,-0.5450289912368511,7.239972854635061,-5,4,4,0.0,0.0,0.0,90,252302.0,74,60.0,-1,-1,2,0,0,0
1778190030.2673228,10.150207996368408,0.10338615245265768,1.3059407249380328,4.0269358636128265,0.1569011219025378,1.2574828764691337,4.032386153525195,4,507,-5.351496944988011,4.845784846889911,-0.5450289912368511,7.239972854635061,-5,4,4,0.0,0.0,0.0,90,252302.0,74,60.0,-1,-1,2,0,0,0
1778190030.342222,10.225107192993164,0.10338615245265768,1.3059407249380328,4.0269358636128265,0.3145830868373325,1.3553494648086697,4.109909923847019,4,511,-21.11969343846748,-4.9408739870636875,-8.297406023419285,23.222847228717747,-30,30,-30,2.1052557576121886,1.3066440329106133,1.0350414131972279,90,252302.0,74,60.0,-1,-1,2,0,0,0
1778190030.415499,10.298384189605713,0.10338615245265768,1.3059407249380328,4.0269358636128265,0.1550632204348117,1.2580009595579642,4.030316399947008,4,515,-5.1677067982154,4.793976538006861,-0.338053633418145,7.057030881209826,30,-22,30,-2.176943294305306,-1.328500208127176,-1.0862006847914514,90,252304.0,73,60.0,-1,-1,2,0,0,0
1778190030.487235,10.370120286941528,0.10338615245265768,1.3059407249380328,4.0269358636128265,0.15538904192526992,1.2611111731803004,4.029765784531385,4,518,-5.200288947261224,4.48295517577324,-0.2829920918558493,6.871679326558558,-5,4,2,0.004541946140908362,0.043356326003859504,-0.007675569707191935,90,252304.0,73,60.0,-1,-1,2,0,0,0
1778190030.560169,10.44305419921875,0.10338615245265768,1.3059407249380328,4.0269358636128265,0.15538904192526992,1.2611111731803004,4.029765784531385,4,522,-5.200288947261224,4.48295517577324,-0.2829920918558493,6.871679326558558,-5,4,3,0.0,0.0,0.0,90,252289.0,73,60.0,-1,-1,2,0,0,0
1778190030.645001,10.527886152267456,0.10338615245265768,1.3059407249380328,4.0269358636128265,0.2679323204851154,1.3710066501119524,4.054606206218254,4,526,-16.45461680324577,-6.5065925173919625,-2.7670342605427223,17.90940085340814,-30,13,-30,1.3266614113579234,1.2954490965044245,0.29281916535160596,90,252300.0,73,60.0,-1,-1,2,0,0,0
1778190030.715841,10.598726272583008,0.10338615245265768,1.3059407249380328,4.0269358636128265,0.2383690543517818,1.3078359313372472,4.071787174309181,4,530,-13.49829018991241,-0.18952063992143664,-4.48513106963544,14.22519443929857,0,13,23,-0.4173237707904271,-0.8917364692961595,0.24253160517508862,90,252302.0,73,60.0,-1,-1,2,0,0,0
1778190030.785666,10.668551206588745,0.10338615245265768,1.3059407249380328,4.0269358636128265,0.11642740339297375,1.2790473601002184,3.975666262849094,4,533,-1.3041250940316065,2.689336483781446,5.126960076373255,5.934559175592248,30,-30,12,-1.746391209604129,-0.4122964331719004,-1.3765986725055692,90,252296.0,73,60.0,-1,0,2,0,0,0
1778190030.855944,10.738829135894775,0.10338615245265768,1.3059407249380328,4.0269358636128265,0.11642740339297375,1.2790473601002184,3.975666262849094,4,537,-1.3041250940316065,2.689336483781446,5.126960076373255,5.934559175592248,-3,1,2,0.0,0.0,0.0,90,252296.0,73,60.0,-1,0,2,0,0,0
1778190030.927684,10.810569286346436,0.10338615245265768,1.3059407249380328,4.0269358636128265,0.11642740339297375,1.2790473601002184,3.975666262849094,4,540,-1.3041250940316065,2.689336483781446,5.126960076373255,5.934559175592248,-3,1,2,0.0,0.0,0.0,90,252298.0,73,60.0,-1,-1,2,0,0,0
1778190030.998743,10.881628274917603,0.10338615245265768,1.3059407249380328,4.0269358636128265,0.11642740339297375,1.2790473601002184,3.975666262849094,4,544,-1.3041250940316065,2.689336483781446,5.126960076373255,5.934559175592248,-3,1,2,0.0,0.0,0.0,90,252296.99999999997,73,60.0,-1,-1,2,0,0,0
1778190031.072293,10.955178260803223,0.10338615245265768,1.3059407249380328,4.0269358636128265,0.11642740339297375,1.2790473601002184,3.975666262849094,4,547,-1.3041250940316065,2.689336483781446,5.126960076373255,5.934559175592248,-3,1,2,0.0,0.0,0.0,90,252301.00000000003,73,60.0,0,0,2,0,0,0
1778190031.144232,11.027117252349854,0.10338615245265768,1.3059407249380328,4.0269358636128265,0.11642740339297375,1.2790473601002184,3.975666262849094,4,551,-1.3041250940316065,2.689336483781446,5.126960076373255,5.934559175592248,-3,1,2,0.0,0.0,0.0,90,252301.00000000003,73,60.0,0,0,2,0,0,0
1778190031.216674,11.099559307098389,0.10338615245265768,1.3059407249380328,4.0269358636128265,0.11642740339297375,1.2790473601002184,3.975666262849094,4,555,-1.3041250940316065,2.689336483781446,5.126960076373255,5.934559175592248,-3,1,2,0.0,0.0,0.0,90,252306.0,73,60.0,0,0,2,0,0,0
1778190031.291829,11.17471432685852,0.10338615245265768,1.3059407249380328,4.0269358636128265,0.11642740339297375,1.2790473601002184,3.975666262849094,4,559,-1.3041250940316065,2.689336483781446,5.126960076373255,5.934559175592248,-3,1,2,0.0,0.0,0.0,90,252301.00000000003,73,60.0,0,0,2,0,0,0
1778190031.366047,11.248932123184204,0.10338615245265768,1.3059407249380328,4.0269358636128265,0.1682115929153376,1.0112288253469612,4.102162124700154,4,562,-6.482544046267992,29.471189959107157,-7.522626108732755,31.09926556189665,-24,30,30,0.697732782244352,-3.608548731061914,1.7043871970540483,90,252301.00000000003,73,60.0,0,0,2,0,0,0
1778190031.440288,11.32317328453064,0.10338615245265768,1.3059407249380328,4.0269358636128265,0.08198110664374081,1.2261829620597502,3.9853866883541538,4,566,2.1405045808916876,7.975776287828262,4.154917525867274,9.244355407547944,28,-30,-30,-1.1614916133816229,2.8953498681107215,-1.5729203884767475,90,252298.0,73,60.0,0,0,2,0,0,0
1778190031.510717,11.393602132797241,0.10338615245265768,1.3059407249380328,4.0269358636128265,0.15224914866288342,1.2656916336963326,4.0285512636541085,4,569,-4.886299621022573,4.0249091241700174,-0.16154000412820224,6.332607094804329,-30,19,-10,0.9977167559683748,0.5609728486120661,0.6128820272136136,90,252294.0,73,60.0,0,0,2,0,0,0
1778190031.5826418,11.465527057647705,0.10338615245265768,1.3059407249380328,4.0269358636128265,0.15286960599788357,1.2628812532769964,4.029430011652038,4,573,-4.948345354522589,4.305947166103641,-0.24941480392115523,6.564260086964584,-6,4,5,0.008626457883551836,-0.03907380404191147,0.012217572694813354,90,252294.0,73,60.0,0,0,2,0,0,0
1778190031.653387,11.536272287368774,0.10338615245265768,1.3059407249380328,4.0269358636128265,0.15286960599788357,1.2628812532769964,4.029430011652038,4,576,-4.948345354522589,4.305947166103641,-0.24941480392115523,6.564260086964584,-6,4,4,0.0,0.0,0.0,90,252287.0,73,60.0,-1,0,2,0,0,0
1778190031.725127,11.608012199401855,0.10338615245265768,1.3059407249380328,4.0269358636128265,0.1529746737772728,1.2618821213902185,4.029706964813524,4,580,-4.958852132461512,4.405860354781432,-0.2771101200697679,6.63917238487584,-6,4,4,0.0014645652107962539,-0.013927141230911893,0.003860517160355821,90,252305.00000000003,73,60.0,0,0,2,0,0,0
1778190031.796145,11.679030179977417,0.10338615245265768,1.3059407249380328,4.0269358636128265,0.14456594764502428,1.2724119009188963,4.048284553527358,4,584,-4.11797951923666,3.3528824019136483,-2.1348689914531427,5.723394214326232,-2,12,0,-0.1184027772136076,0.14826920511312475,0.2615899320604817,90,252304.0,73,60.0,0,0,2,0,0,0
1778190031.8676,11.750485181808472,0.10338615245265768,1.3059407249380328,4.0269358636128265,0.15413298562901878,1.2619855714918127,4.02959521930604,4,587,-5.07468331763611,4.395515344622014,-0.26593556932130724,6.7189052416395985,-9,-1,7,0.1338889894176256,-0.14591461982934728,-0.261553897451527,90,252304.0,73,60.0,0,0,2,0,0,0
1778190031.9412339,11.824119091033936,0.10338615245265768,1.3059407249380328,4.0269358636128265,0.06634585426038297,1.2274383755660543,4.002961007046521,4,591,3.704029819227471,7.850234937197853,2.3974856566305824,9.005218650575756,29,-6,18,-1.1922106579977356,-0.4691750891559534,-0.3617112352131962,90,252301.00000000003,73,60.0,0,-1,2,0,0,0
1778190032.011838,11.894723176956177,0.10338615245265768,1.3059407249380328,4.0269358636128265,0.17695123288016745,1.3312750288060624,4.034628134461907,4,594,-7.356508042750977,-2.5334303868029595,-0.7692270849080529,7.81845191940147,-30,15,-30,1.566557759016923,1.4706890101851489,0.4485169236559834,90,252294.99999999997,73,60.0,-1,-1,2,0,0,0
1778190032.0832682,11.966153383255005,0.10338615245265768,1.3059407249380328,4.0269358636128265,0.12381006065183509,1.2015976061432943,4.040043656296892,4,598,-2.04239081991774,10.434311879473857,-1.31077926840657,10.712813213619379,14,6,30,-0.7439593833177015,-1.815442365100598,0.0758155704090976,90,252296.0,72,60.0,-1,-1,2,0,0,0
1778190032.1553972,12.03828239440918,0.10338615245265768,1.3059407249380328,4.0269358636128265,0.06753472218710854,1.226573639896769,4.003121898035406,4,602,3.5851430265549142,7.936708504126377,2.3813965577420326,9.028601329417137,18,-9,-1,-0.7802039368658299,0.34626890558764006,-0.5118849914989997,90,252301.00000000003,72,60.0,-1,0,2,0,0,0
1778190032.225821,12.10870623588562,0.10338615245265768,1.3059407249380328,4.0269358636128265,0.12503317596966745,1.2007157565894406,4.040210119214348,4,605,-2.164702351700977,10.522496834859218,-1.327425560152129,10.824552393924987,-24,18,18,0.8164628991702253,-0.3671751322452198,0.5266429720586756,90,252301.00000000003,72,60.0,-1,0,2,0,0,0
1778190032.2974982,12.180383443832397,0.10338615245265768,1.3059407249380328,4.0269358636128265,0.09040957966779639,1.2936610303154317,4.011171796718698,4,609,1.2976572784861293,1.2279694622601145,1.5764066894128348,2.382620713222513,9,-6,-29,-0.4830488978809025,1.2967200646962411,-0.4051263062201242,90,252305.00000000003,72,60.5,-1,0,2,0,0,0
1778190032.3695161,12.252401351928711,0.10338615245265768,1.3059407249380328,4.0269358636128265,0.09149525624912291,1.2937723560159553,4.0110547845605975,4,612,1.189089620353477,1.216836892207751,1.588107905222902,2.3273832658377667,-2,3,2,0.015075091876795253,0.001545805806727302,-0.0016247647452378702,90,252292.99999999997,72,60.5,-1,0,2,0,0,0
1778190032.441962,12.324847221374512,0.10338615245265768,1.3059407249380328,4.0269358636128265,0.14963261188822496,1.2678351721549177,4.048588422080621,4,616,-4.624645943556728,3.8105552783115115,-2.1652558467794236,6.371500177692527,-26,18,13,0.802493725092175,-0.3580215691999127,0.5180921673954572,90,252292.99999999997,72,60.5,-1,0,2,0,0,0
1778190032.512597,12.395482301712036,0.10338615245265768,1.3059407249380328,4.0269358636128265,0.2258018420177874,1.3109365834235283,4.090521523849093,4,619,-12.241568956512973,-0.49958584854954413,-6.358566023626633,13.803512538986304,-30,23,-14,1.0783484603626627,0.6101983754057291,0.5936583007777144,90,252291.0,72,60.5,-1,0,2,0,0,0
1778190032.584192,12.467077255249023,0.10338615245265768,1.3059407249380328,4.0269358636128265,0.15181629714516487,1.2680669519692742,4.048349479796329,4,623,-4.843014469250718,3.78737729687586,-2.141361618350235,6.510333748649607,19,-9,19,-1.0333905005525315,-0.5987800722868936,-0.5890365447472091,90,252298.99999999997,72,60.5,-1,-1,2,0,0,0
1778190032.6553411,12.53822636604309,0.10338615245265768,1.3059407249380328,4.0269358636128265,0.07541864169191892,1.2217539119821506,4.00552340762061,4,627,2.7967510760738765,8.418681295588225,2.1412455992216195,9.125839361636462,25,-11,23,-1.0737682396955017,-0.6509292873831021,-0.6019199916591158,90,252298.99999999997,72,60.5,-1,-1,2,0,0,0
1778190032.727276,12.610161304473877,0.10338615245265768,1.3059407249380328,4.0269358636128265,0.22034552063019985,1.3219547619434058,4.109388644749551,4,630,-11.695936817754218,-1.601403700537296,-8.245278113672416,14.399445927840368,-30,30,-30,2.0146938622561787,1.3929371755515687,1.4438774730985098,90,252312.0,72,60.5,-1,-1,2,0,0,0
1778190032.799474,12.682359218597412,0.10338615245265768,1.3059407249380328,4.0269358636128265,0.15490749068935483,1.2704975245653325,4.048137821467228,4,634,-5.152133823669715,3.5443200372700323,-2.12019578544016,6.603174814601956,16,-15,22,-0.9063700902615615,-0.7127247096090162,-0.8483738626786166,90,252305.00000000003,72,60.5,-2,-2,2,0,0,0
1778190032.87164,12.754525184631348,0.10338615245265768,1.3059407249380328,4.0269358636128265,0.07513431472173782,1.225367104966439,4.002987086223916,4,637,2.825183773091987,8.057361997159385,2.3948777388910436,8.867817380237733,25,-12,22,-1.1054127083964238,-0.6253698533969774,-0.6256513662143761,90,252298.0,72,60.5,-1,-1,2,0,0,0
1778190032.9433532,12.82623839378357,0.10338615245265768,1.3059407249380328,4.0269358636128265,0.1302820820301802,1.204369198393393,4.037008181187162,4,641,-2.689592957752253,10.157152654463975,-1.0072317574335798,10.555386119780641,-24,16,16,0.7690043153888605,-0.29280388956621367,0.4744048602124544,90,252298.0,72,60.5,-1,-1,2,0,0,0
