timestamp,phase,command,axis,repeat,t_send,t_since_cmd,marker_id,pos_x,pos_y,pos_z,marker_dist,tello_height_cm,tello_baro_cm,tello_battery,tello_temp_c,tello_pitch,tello_roll,tello_yaw,tello_vgx,tello_vgy,tello_vgz,tello_agx,tello_agy,tello_agz
1777477315.198905,init_hover,none,-,0,,,0,0.20844565910079016,0.7244530896688963,2.790065836647088,2.816591339370849,60,249240.0,68,75.0,0,0,-9,0,0,0,-3.0,36.0,-1014.0
1777477315.377022,init_hover,none,-,0,,,0,0.19255644957969517,0.6201299592110541,2.811658889373955,2.8268287700907138,70,249238.0,68,75.0,0,0,-9,0,0,0,9.0,-7.0,-982.0
1777477315.4270642,init_hover,none,-,0,,,0,0.1569875246483765,0.8317522421590409,2.7825950931951,2.82026426672715,70,249238.0,68,75.0,0,0,-9,0,0,0,9.0,-7.0,-982.0
1777477315.4772558,init_hover,none,-,0,,,0,0.30813346664190716,0.6284589514014525,2.8087297099627055,2.834801987682278,70,249231.0,68,75.0,0,0,-9,0,0,0,-22.0,40.0,-1014.0
1777477315.526005,init_hover,none,-,0,,,0,0.21256775248932644,0.7236855337283331,2.8081729470514203,2.8347473740520193,70,249231.0,68,75.0,0,0,-9,0,0,0,-22.0,40.0,-1014.0
1777477315.5757592,init_hover,none,-,0,,,0,0.21227746881538906,0.7240092334657298,2.8082790240068016,2.834867683651974,70,249234.0,68,75.0,0,0,-9,0,0,0,5.0,11.0,-974.0
1777477315.624716,init_hover,none,-,0,,,0,0.12575001062566368,0.7580569373980088,2.8144957844414917,2.83996555546544,70,249234.0,68,75.0,0,0,-9,0,0,0,5.0,11.0,-974.0
1777477315.6730309,init_hover,none,-,0,,,0,0.15996965019154175,0.8333530509641169,2.8008759622166477,2.838712967435303,70,249231.0,68,75.0,0,-1,-9,0,0,0,-4.0,2.0,-1014.0
1777477315.7265642,init_hover,none,-,0,,,0,0.21207329120062812,0.7225172987461905,2.818238830988577,2.844549629963075,70,249231.0,68,75.0,0,-1,-9,0,0,0,-4.0,2.0,-1014.0
1777477315.774174,init_hover,none,-,0,,,0,0.21207329120062812,0.7225172987461905,2.818238830988577,2.844549629963075,70,249236.0,68,75.0,0,0,-9,0,0,0,22.0,-7.0,-1010.0
1777477315.824875,init_hover,none,-,0,,,0,0.21737181347379395,0.7253965403487967,2.826447410615081,2.8534082040143764,70,249236.0,68,75.0,0,0,-9,0,0,0,22.0,-7.0,-1010.0
1777477315.876113,init_hover,none,-,0,,,0,0.21707018834946798,0.7257317318793668,2.8265636312720757,2.8535386083691225,70,249236.0,68,75.0,0,0,-9,0,0,0,-20.0,48.0,-995.0
1777477315.926164,init_hover,none,-,0,,,0,0.19255454119247029,0.9007912458130842,2.7954508749824547,2.846474085189787,70,249236.0,68,75.0,0,0,-9,0,0,0,-20.0,48.0,-995.0
1777477315.9759412,init_hover,none,-,0,,,0,0.2061912689344092,0.6207184783381199,2.8475819688766335,2.8635562776966688,70,249239.0,68,75.0,0,0,-9,0,0,0,29.0,23.0,-965.0
1777477316.024876,init_hover,none,-,0,,,0,0.16409142184050401,0.8368904379085557,2.8192728366033064,2.857638636473622,70,249239.0,68,75.0,0,0,-9,0,0,0,29.0,23.0,-965.0
1777477316.074044,init_hover,none,-,0,,,0,0.16409142184050401,0.8368904379085557,2.8192728366033064,2.857638636473622,70,249236.0,68,75.0,0,0,-9,0,0,0,-1.0,35.0,-971.0
1777477316.12371,init_hover,none,-,0,,,0,0.12603107018989135,0.7603636129484025,2.843178375269858,2.8686946574692445,70,249236.0,68,75.0,0,0,-9,0,0,0,-1.0,35.0,-971.0
1777477316.17311,init_hover,none,-,0,,,0,0.07643669826408836,0.658504449662829,2.8670117904139225,2.879656876384658,70,249233.0,68,75.0,0,0,-9,0,0,0,29.0,-20.0,-1007.0
1777477316.223168,init_hover,none,-,0,,,0,0.3165076074957741,0.6315491549083171,2.8457298278470686,2.8726242931925436,70,249233.0,68,75.0,0,0,-9,0,0,0,29.0,-20.0,-1007.0
1777477316.27318,init_hover,none,-,0,,,0,0.22145952941022853,0.7305028466345586,2.844800958485087,2.8724848038236543,70,249235.0,68,75.0,0,0,-9,0,0,0,-2.0,31.0,-977.0
1777477316.3231108,init_hover,none,-,0,,,0,0.22033427406722986,0.7289289525835687,2.854731986889414,2.882054157219472,70,249235.0,68,75.0,0,0,-9,0,0,0,-2.0,31.0,-977.0
1777477316.371726,init_hover,none,-,0,,,0,0.22566086953599498,0.734675300863103,2.853290543971463,2.881700420474779,70,249234.0,68,75.0,0,0,-9,0,0,0,-23.0,19.0,-998.0
1777477316.41909,init_hover,none,-,0,,,0,0.09823807065864576,0.8817226984837696,2.8283300115162984,2.8707417387854663,70,249234.0,68,75.0,0,0,-9,0,0,0,-23.0,19.0,-998.0
1777477316.467048,init_hover,none,-,0,,,0,0.21161231629861185,0.6309871748585596,2.8659391881274487,2.883009239909408,70,249237.0,68,75.0,0,0,-9,0,0,0,20.0,-3.0,-976.0
1777477316.514305,init_hover,none,-,0,,,0,0.13537950252882602,0.7696496134867783,2.861155243410151,2.888109723218506,70,249237.0,68,75.0,0,0,-9,0,0,0,20.0,-3.0,-976.0
1777477316.564697,init_hover,none,-,0,,,0,0.17082672327823778,0.8475772886988912,2.837081346706389,2.8772448221474596,70,249237.0,68,75.0,0,0,-9,0,0,0,12.0,21.0,-982.0
1777477316.61636,init_hover,none,-,0,,,0,0.21242033643922947,0.6386338217065636,2.8658260542464182,2.883578934829569,70,249237.0,68,75.0,0,0,-9,0,0,0,12.0,21.0,-982.0
1777477316.667823,init_hover,none,-,0,,,0,0.13572979193718887,0.7746964640064898,2.8609649276069997,2.8885879480389036,70,249228.00000000003,68,75.0,0,0,-9,0,0,0,-3.0,14.0,-1001.0
1777477316.718796,init_hover,none,-,0,,,0,0.17140182868696724,0.8540729593711184,2.8364465527708553,2.8776709134358898,70,249228.00000000003,68,75.0,0,0,-9,0,0,0,-3.0,14.0,-1001.0
1777477316.7690182,init_hover,none,-,0,,,0,0.17140182868696724,0.8540729593711184,2.8364465527708553,2.8776709134358898,70,249235.0,68,75.0,0,0,-9,0,0,0,-2.0,30.0,-1030.0
1777477316.8196218,init_hover,none,-,0,,,0,0.31645992887177,0.6499132773511107,2.856020294801873,2.8843466256845898,70,249235.0,68,75.0,0,0,-9,0,0,0,-2.0,30.0,-1030.0
1777477316.869765,init_hover,none,-,0,,,0,0.3162358127608373,0.6515464102966481,2.8561092338304435,2.884552069451539,70,249221.0,68,75.0,0,-1,-9,0,0,0,10.0,6.0,-1003.0
1777477316.921294,init_hover,none,-,0,,,0,0.21428253236342037,0.6609983447228795,2.8743496753462012,2.894118725240375,70,249221.0,68,75.0,0,-1,-9,0,0,0,10.0,6.0,-1003.0
1777477316.972414,init_hover,none,-,0,,,0,0.14368168327304343,0.7865767869415552,2.8502877176289245,2.8799698108793668,70,249231.0,68,75.0,0,0,-9,0,0,0,-8.0,19.0,-1015.0
1777477317.0234199,init_hover,none,-,0,,,0,0.21433943613506717,0.6650612174520169,2.874357742840816,2.894500177355115,70,249231.0,68,75.0,0,0,-9,0,0,0,-8.0,19.0,-1015.0
1777477317.073277,init_hover,none,-,0,,,0,0.2159698039982009,0.52883865082444,2.883382915360779,2.894328832523994,70,249223.99999999997,68,75.0,0,0,-9,0,0,0,27.0,7.0,-969.0
1777477317.123806,init_hover,none,-,0,,,0,0.10313040222331331,0.6997895611415674,2.8739486182433,2.891382078026833,70,249223.99999999997,68,75.0,0,0,-9,0,0,0,27.0,7.0,-969.0
1777477317.174329,init_hover,none,-,0,,,0,0.21602780345350064,0.6686485804095774,2.8743703301609504,2.894968888698218,70,249223.99999999997,68,75.0,0,-1,-9,0,0,0,20.0,22.0,-1009.0
1777477317.2240372,init_hover,none,-,0,,,0,0.14210842585315087,0.7968266719435012,2.8597308994048563,2.8906274456033114,70,249223.99999999997,68,75.0,0,-1,-9,0,0,0,20.0,22.0,-1009.0
1777477317.2728052,init_hover,none,-,0,,,0,0.21231407418235484,0.539609738922743,2.884258563061082,2.8954301241593043,60,249223.99999999997,68,75.0,0,-1,-9,0,0,0,-9.0,43.0,-995.0
1777477317.323267,init_hover,none,-,0,,,0,0.31327525374068615,0.6677573317985226,2.8572518209531808,2.886818896584686,60,249223.99999999997,68,75.0,0,-1,-9,0,0,0,-9.0,43.0,-995.0
1777477317.3731189,init_hover,none,-,0,,,0,0.1021375600701512,0.7111532803800824,2.8738882557542733,2.8924871912647614,60,249219.99999999997,68,75.0,0,-1,-9,0,0,0,23.0,-7.0,-1009.0
1777477317.422892,init_hover,none,-,0,,,0,0.21125833378158224,0.5482954095463474,2.8849088989558482,2.89643245516952,60,249219.99999999997,68,75.0,0,-1,-9,0,0,0,23.0,-7.0,-1009.0
1777477317.472789,init_hover,none,-,0,,,0,0.3281110657349441,0.576971819741518,2.871216309091459,2.895316733974562,60,249219.99999999997,68,75.0,0,-1,-9,0,0,0,23.0,-7.0,-1009.0
1777477317.5232399,init_hover,none,-,0,,,0,0.21611981710284006,0.6838347781686267,2.8745495587177103,2.89660234104835,60,249216.0,68,75.0,0,-1,-9,0,0,0,-10.0,19.0,-1017.0
1777477317.573975,init_hover,none,-,0,,,0,0.14175905936091407,0.804549434698637,2.860404782193325,2.892347039001427,60,249232.00000000003,68,75.0,0,0,-9,0,0,0,1.0,14.0,-998.0
1777477317.624552,init_hover,none,-,0,,,0,0.11206859551960065,0.720701805218194,2.873548293472352,2.8935598858309137,60,249232.00000000003,68,75.0,0,0,-9,0,0,0,1.0,14.0,-998.0
1777477317.674877,init_hover,none,-,0,,,0,0.1078823256965134,0.7223025583817846,2.883771208553233,2.9037310341382705,60,249230.00000000003,68,75.0,0,0,-9,0,0,0,15.0,7.0,-969.0
1777477317.7241359,init_hover,none,-,0,,,0,0.21112141293271203,0.689219222402469,2.8764060208301796,2.898608563824012,60,249230.00000000003,68,75.0,0,0,-9,0,0,0,15.0,7.0,-969.0
1777477317.7737842,init_hover,none,-,0,,,0,0.21112141293271203,0.689219222402469,2.8764060208301796,2.898608563824012,60,249230.00000000003,68,75.0,0,0,-9,0,0,0,15.0,7.0,-969.0
1777477317.8253021,init_hover,none,-,0,,,0,0.21106746627569198,0.6915486865732702,2.8764299854599464,2.8988617720091012,60,249229.0,68,75.0,0,0,-9,0,0,0,29.0,4.0,-985.0
1777477317.875274,init_hover,none,-,0,,,0,0.11051935048603612,0.7315462227917451,2.883518641349023,2.904619971646316,60,249229.0,68,75.0,0,0,-9,0,0,0,29.0,4.0,-985.0
1777477317.9243588,init_hover,none,-,0,,,0,0.20809398024969175,0.5789117138588602,2.895534925723871,2.9085107894004474,60,249225.0,68,75.0,0,0,-9,0,0,0,11.0,13.0,-1039.0
1777477317.974135,init_hover,none,-,0,,,0,0.2148739395108128,0.5819361740767911,2.894478502737707,2.908139849479271,60,249225.0,68,75.0,0,0,-9,0,0,0,11.0,13.0,-1039.0
1777477318.024218,init_hover,none,-,0,,,0,0.20551229001525906,0.5697682095947723,2.89670077973142,2.9089400051621803,60,249219.99999999997,68,75.0,0,-1,-9,0,0,0,31.0,-1.0,-1003.0
1777477318.075385,init_hover,none,-,0,,,0,0.21789310725675048,0.6994059996401845,2.8847759824565724,2.908445259544835,60,249219.99999999997,68,75.0,0,-1,-9,0,0,0,31.0,-1.0,-1003.0
1777477318.1254761,init_hover,none,-,0,,,0,0.3242789078501811,0.5930924394399585,2.883481987360081,2.9080766619323195,60,249227.0,68,75.0,0,-1,-9,0,0,0,1.0,32.0,-1017.0
1777477318.175006,init_hover,none,-,0,,,0,0.3638275826689593,0.49816681316287453,2.8784097837030167,2.9029726343929836,60,249221.99999999997,68,75.0,0,-1,-9,0,0,0,7.0,25.0,-989.0
1777477318.225476,init_hover,none,-,0,,,0,0.20985969734359763,0.5756647831337384,2.9053697929530005,2.9182311153173472,60,249221.99999999997,68,75.0,0,-1,-9,0,0,0,7.0,25.0,-989.0
1777477318.275167,init_hover,none,-,0,,,0,0.21601223679017562,0.6951679853965151,2.895179277790997,2.918192672973553,60,249230.00000000003,68,75.0,0,-1,-9,0,0,0,16.0,18.0,-987.0
1777477318.324516,init_hover,none,-,0,,,0,0.31667479804327175,0.6908307545691539,2.877005426320749,2.9089561149316165,60,249230.00000000003,68,75.0,0,-1,-9,0,0,0,16.0,18.0,-987.0
1777477318.374351,init_hover,none,-,0,,,0,0.32934243408059916,0.5955461875107931,2.8919033688576574,2.9171578368587476,60,249230.00000000003,68,75.0,0,-1,-9,0,0,0,16.0,18.0,-987.0
1777477318.424546,init_hover,none,-,0,,,0,0.22300230493055048,0.7011755510595983,2.893450054755339,2.9176171715843844,60,249225.0,68,74.5,0,0,-9,0,0,0,20.0,4.0,-1016.0
1777477318.473353,init_hover,none,-,0,,,0,0.22300230493055048,0.7011755510595983,2.893450054755339,2.9176171715843844,60,249225.0,68,74.5,0,0,-9,0,0,0,20.0,4.0,-1016.0
1777477318.523617,init_hover,none,-,0,,,0,0.05386125730162107,0.6098802481608702,2.9171220223290213,2.9251583968672774,60,249226.00000000003,68,74.5,0,0,-9,0,0,0,35.0,-15.0,-961.0
1777477318.574475,init_hover,none,-,0,,,0,0.21615790090873083,0.5773049972370097,2.9140405103158886,2.927420946145697,60,249223.99999999997,68,74.5,0,0,-9,0,0,0,47.0,7.0,-987.0
1777477318.624243,init_hover,none,-,0,,,0,0.21708223740003646,0.5736426258558848,2.92405630052027,2.9372404920130424,60,249223.99999999997,68,74.5,0,0,-9,0,0,0,47.0,7.0,-987.0
1777477318.675189,init_hover,none,-,0,,,0,0.21234231333664,0.5691855385678191,2.9154650643995006,2.9280794979350584,60,249223.99999999997,68,74.5,0,0,-9,0,0,0,47.0,7.0,-987.0
1777477318.724684,init_hover,none,-,0,,,0,0.32056707750353314,0.6934713922732794,2.895650010311411,2.9280843040251505,60,249232.00000000003,68,74.5,0,0,-9,0,0,0,12.0,-15.0,-1020.0
1777477318.774901,init_hover,none,-,0,,,0,0.32056707750353314,0.6934713922732794,2.895650010311411,2.9280843040251505,60,249227.0,68,74.5,0,0,-9,0,0,0,0.0,5.0,-990.0
1777477318.825061,init_hover,none,-,0,,,0,0.21628171672820248,0.5766505521790098,2.924251815404,2.937555425599598,60,249227.0,68,74.5,0,0,-9,0,0,0,0.0,5.0,-990.0
1777477318.875154,init_hover,none,-,0,,,0,0.21628171672820248,0.5766505521790098,2.924251815404,2.937555425599598,60,249225.0,68,74.5,0,-1,-9,0,0,0,12.0,28.0,-962.0
1777477318.925526,init_hover,none,-,0,,,0,0.2154869744458413,0.5796765928905814,2.9244452366640803,2.937873083786265,60,249225.0,68,74.5,0,-1,-9,0,0,0,12.0,28.0,-962.0
1777477318.9742239,init_hover,none,-,0,,,0,0.2154869744458413,0.5796765928905814,2.9244452366640803,2.937873083786265,60,249219.99999999997,68,74.5,0,-1,-9,0,0,0,8.0,4.0,-1007.0
1777477319.023754,init_hover,none,-,0,,,0,0.21469853822309742,0.5827185257340279,2.924636575603974,2.9381934281667177,60,249219.99999999997,68,74.5,0,-1,-9,0,0,0,8.0,4.0,-1007.0
1777477319.072549,init_hover,none,-,0,,,0,0.059953395224903526,0.6240877149687345,2.9363520395496705,2.9455004691506015,60,249228.00000000003,68,74.5,0,0,-9,0,0,0,0.0,27.0,-1003.0
1777477319.123091,init_hover,none,-,0,,,0,0.029664037192228855,0.8024907839199755,2.9091599961738215,2.9370207131685553,60,249228.00000000003,68,74.5,0,0,-9,0,0,0,0.0,27.0,-1003.0
1777477319.1738591,init_hover,none,-,0,,,0,0.21173577604660532,0.5849572936292746,2.9356018652842364,2.949033663894838,60,249229.0,68,74.5,0,0,-9,0,0,0,-6.0,32.0,-1023.0
1777477319.2243268,init_hover,none,-,0,,,0,0.21583843553114715,0.5921639327922874,2.944496110801509,2.9586433637469627,60,249229.0,68,74.5,0,0,-9,0,0,0,-6.0,32.0,-1023.0
1777477319.275213,init_hover,none,-,0,,,0,0.05527808924975822,0.6300238392892639,2.9467279267621187,2.95620907720551,60,249223.0,68,74.5,0,0,-9,0,0,0,5.0,38.0,-999.0
1777477319.324946,init_hover,none,-,0,,,0,0.3321895986982926,0.6064629380578495,2.922392647606242,2.9484497046851303,60,249223.0,68,74.5,0,0,-9,0,0,0,5.0,38.0,-999.0
1777477319.375318,init_hover,none,-,0,,,0,0.11774886512795066,0.7513320562401296,2.931829438877247,2.955151919554748,60,249221.99999999997,68,74.5,0,0,-9,0,0,0,20.0,1.0,-965.0
1777477319.4249349,init_hover,none,-,0,,,0,0.11774886512795066,0.7513320562401296,2.931829438877247,2.955151919554748,60,249221.99999999997,68,74.5,0,0,-9,0,0,0,20.0,1.0,-965.0
1777477319.473378,init_hover,none,-,0,,,0,0.12507335579075202,0.7561411636458283,2.930738003020783,2.9549458734673992,60,249221.99999999997,68,74.5,0,-1,-9,0,0,0,6.0,8.0,-1000.0
1777477319.522976,init_hover,none,-,0,,,0,0.11840211505476089,0.7538098763007063,2.9317603355226165,2.9554050744967344,60,249221.99999999997,68,74.5,0,-1,-9,0,0,0,6.0,8.0,-1000.0
1777477319.573157,init_hover,none,-,0,,,0,0.3232751267458638,0.7110638439928844,2.9157340504510905,2.9500461988877578,60,249229.0,68,74.5,0,0,-9,0,0,0,36.0,-8.0,-998.0
1777477319.623167,init_hover,none,-,0,,,0,0.21047357400547828,0.6046274765016583,2.9456927242061592,2.9602832896422564,60,249229.0,68,74.5,0,0,-9,0,0,0,36.0,-8.0,-998.0
1777477319.6730418,init_hover,none,-,0,,,0,0.2167143268448556,0.6022931204959139,2.9448814365188856,2.959765916624713,60,249230.00000000003,68,74.5,0,0,-9,0,0,0,-2.0,22.0,-1022.0
1777477319.722774,init_hover,none,-,0,,,0,0.37078328196908505,0.5226906590347826,2.9283265796030435,2.954256217191023,60,249230.00000000003,68,74.5,0,0,-9,0,0,0,-2.0,22.0,-1022.0
1777477319.771889,init_hover,none,-,0,,,0,0.37078328196908505,0.5226906590347826,2.9283265796030435,2.954256217191023,60,249228.00000000003,68,74.5,0,0,-9,0,0,0,14.0,18.0,-983.0
1777477319.8234088,init_hover,none,-,0,,,0,0.452059564617991,0.5540479914847422,2.9141976413440216,2.9530723876089033,60,249228.00000000003,68,74.5,0,0,-9,0,0,0,14.0,18.0,-983.0
1777477319.873611,init_hover,none,-,0,,,0,0.05977382601126545,0.6359728126235497,2.9574552240131147,2.9674563991095066,60,249228.00000000003,68,74.5,0,0,-9,0,0,0,0.0,27.0,-1006.0
1777477319.924583,init_hover,none,-,0,,,0,0.058411578183773315,0.6322326393944475,2.9575191081051444,2.9671978676982564,60,249228.00000000003,68,74.5,0,0,-9,0,0,0,0.0,27.0,-1006.0
1777477319.975774,init_hover,none,-,0,,,0,0.06109773457493177,0.6319914184485664,2.9668524174412845,2.9765359427161573,60,249230.00000000003,68,74.5,0,0,-9,0,0,0,4.0,11.0,-1003.0
1777477320.026051,init_hover,none,-,0,,,0,0.22396684370358536,0.5965764046747869,2.9639272206642566,2.978870255541177,60,249230.00000000003,68,74.5,0,0,-9,0,0,0,4.0,11.0,-1003.0
1777477320.07645,init_hover,none,-,0,,,0,0.04076233689882569,0.8084353106677975,2.9386675529906894,2.96719530164599,60,249236.0,68,74.5,0,0,-9,0,0,0,-4.0,26.0,-1026.0
1777477320.125182,init_hover,none,-,0,,,0,0.06695960812475973,0.6257343521027977,2.9669597395625615,2.9762879032487155,60,249236.0,68,74.5,0,0,-9,0,0,0,-4.0,26.0,-1026.0
1777477320.1738281,init_hover,none,-,0,,,0,0.37749535721500327,0.5070967839480474,2.9471712104046532,2.973178536396515,60,249241.0,68,74.5,0,0,-9,0,0,0,29.0,-7.0,-1004.0
1777477320.2419798,recenter,right,-,1,,,0,0.2705066147397546,0.44277543154143734,2.962131158112653,2.9747646232976694,60,249241.0,68,74.5,0,0,-9,0,0,0,29.0,-7.0,-1004.0
1777477320.292098,recenter,right,-,1,,,0,0.2247915592804475,0.5969963588946491,2.9639298264121154,2.9789627098097142,60,249236.0,68,74.5,0,0,-9,0,0,0,41.0,-6.0,-992.0
1777477320.341686,recenter,right,-,1,,,0,0.2247915592804475,0.5969963588946491,2.9639298264121154,2.9789627098097142,60,249236.0,68,74.5,0,0,-9,0,0,0,41.0,-6.0,-992.0
1777477320.391563,recenter,right,-,1,,,0,0.2247915592804475,0.5969963588946491,2.9639298264121154,2.9789627098097142,60,249232.00000000003,68,74.5,0,0,-9,0,0,0,20.0,25.0,-999.0
1777477320.440861,recenter,right,-,1,,,0,0.2247915592804475,0.5969963588946491,2.9639298264121154,2.9789627098097142,60,249232.00000000003,68,74.5,0,0,-9,0,0,0,20.0,25.0,-999.0
1777477320.491189,recenter,right,-,1,,,0,0.2247915592804475,0.5969963588946491,2.9639298264121154,2.9789627098097142,60,249229.0,68,74.5,0,0,-9,0,0,0,8.0,0.0,-997.0
1777477320.541944,recenter,right,-,1,,,0,0.2232615731954791,0.5935092964353073,2.9642768925739413,2.978964429750787,60,249229.0,68,74.5,0,0,-9,0,0,0,8.0,0.0,-997.0
1777477320.592082,recenter,right,-,1,,,0,0.05850369866854302,0.6188094127164065,2.9780732336611098,2.9866738065781364,60,249239.0,68,74.5,0,0,-9,0,0,0,2.0,9.0,-992.0
1777477320.6424599,recenter,right,-,1,,,0,0.22502745380927036,0.5865751763277203,2.974450474769327,2.9887795633410428,60,249239.0,68,74.5,0,0,-9,0,0,0,2.0,9.0,-992.0
1777477320.6926231,recenter,right,-,1,,,0,0.3454464899273059,0.6095507666332366,2.9496938559432797,2.9772367465469065,60,249226.00000000003,68,74.5,0,0,-9,0,0,0,13.0,12.0,-982.0
1777477320.7418492,recenter,right,-,1,,,0,0.05534727630079139,0.6109816382956842,2.9782148376455027,2.9861915865971618,60,249226.00000000003,68,74.5,0,0,-9,0,0,0,13.0,12.0,-982.0
1777477320.7925172,recenter,right,-,1,,,0,0.05534727630079139,0.6109816382956842,2.9782148376455027,2.9861915865971618,60,249226.00000000003,68,74.5,0,0,-9,0,0,0,13.0,12.0,-982.0
1777477320.842638,recenter,right,-,1,,,0,0.12712873163022403,0.7405230971153588,2.9618940553478534,2.9841136186780655,60,249236.0,68,74.5,0,0,-9,0,0,0,0.0,10.0,-1007.0
1777477320.892931,recenter,right,-,1,,,0,0.3513252242771549,0.6040672831236981,2.948013447567055,2.9758790560590787,60,249236.0,68,74.5,0,0,-9,0,0,0,0.0,10.0,-1007.0
1777477320.943319,recenter,right,-,1,,,0,0.05894223118840587,0.6095970656116583,2.9879255239091673,2.9958478020350694,60,249235.0,68,74.5,0,0,-9,0,0,0,19.0,9.0,-989.0
1777477320.9940171,recenter,right,-,1,,,0,0.2862665990914255,0.43912945048311336,2.968414950765616,2.9824431259588704,60,249236.0,68,74.5,0,0,-9,0,0,0,30.0,4.0,-994.0
1777477321.044193,recenter,right,-,1,,,0,0.057364435406716874,0.6056294126216427,2.9880040508803263,2.995620527013042,60,249236.0,68,74.5,0,0,-9,0,0,0,30.0,4.0,-994.0
1777477321.094157,recenter,right,-,1,,,0,0.23579336583521104,0.579533485024848,2.9824720978856605,2.997160422513876,60,249234.0,68,74.5,0,0,-9,0,0,0,17.0,14.0,-987.0
1777477321.1444259,recenter,right,-,1,,,0,0.23470224634254286,0.5834073239904846,2.9720580406342103,2.986947001175288,60,249234.0,68,74.5,0,0,-9,0,0,0,17.0,14.0,-987.0
1777477321.193132,recenter,right,-,1,,,0,0.12189491314565941,0.7328361912564056,2.9728358857080366,2.9938923667049795,60,249234.0,68,74.5,0,0,-9,0,0,0,17.0,14.0,-987.0
1777477321.244024,recenter,right,-,1,,,0,0.23685052366898346,0.701571673088834,2.9622666377075553,2.9869829724066217,60,249234.0,68,74.5,0,-1,-9,0,0,0,6.0,10.0,-998.0
1777477321.2935522,recenter,right,-,1,,,0,0.12653310409658503,0.7300756486951289,2.96247695298931,2.983492962499937,60,249234.0,68,74.5,0,-1,-9,0,0,0,6.0,10.0,-998.0
1777477321.344136,recenter,right,-,1,,,0,0.12082616779996286,0.7299952631188624,2.9731062412826024,2.993803025995477,60,249226.00000000003,68,74.5,0,-1,-9,0,0,0,-4.0,21.0,-1003.0
1777477321.394481,recenter,right,-,1,,,0,0.235923599778388,0.5696610191145128,2.982484171653357,2.9966075219324564,60,249226.00000000003,68,74.5,0,-1,-9,0,0,0,-4.0,21.0,-1003.0
1777477321.444366,recenter,right,-,1,,,0,0.046757783692990044,0.5903056216582575,2.9991970132858823,3.00559232838946,60,249235.0,68,74.5,0,-1,-9,0,0,0,12.0,-1.0,-1026.0
1777477321.495101,recenter,right,-,1,,,0,0.03306705581709344,0.7918561577219836,2.979823184399685,3.005659809228404,60,249235.0,68,74.5,0,-1,-9,0,0,0,12.0,-1.0,-1026.0
1777477321.545404,recenter,right,-,1,,,0,0.4038687690214842,0.49747362668803385,2.969899760529359,2.998819047238928,60,249227.0,68,74.5,0,-1,-9,0,0,0,24.0,-4.0,-1036.0
1777477321.594583,recenter,right,-,1,,,0,0.11669818631398902,0.71705584187497,2.984596628092195,3.0036577544679286,60,249227.0,68,74.5,0,-1,-9,0,0,0,24.0,-4.0,-1036.0
1777477321.6447701,recenter,right,-,1,,,0,0.12916708103280436,0.7249214114911824,2.992636666948104,3.01299390620529,70,249227.0,68,74.5,0,-1,-9,0,0,0,2.0,43.0,-1012.0
1777477321.695402,recenter,right,-,1,,,0,0.2490093533399805,0.6934992248826394,2.991134984577772,3.0157977301242496,70,249227.0,68,74.5,0,-1,-9,0,0,0,2.0,43.0,-1012.0
1777477321.745058,recenter,right,-,1,,,0,0.3704932840338233,0.5864415710330049,2.98479675932158,3.013475970931248,70,249236.0,68,74.5,0,-1,-9,0,0,0,20.0,12.0,-1023.0
1777477321.795857,recenter,right,-,1,,,0,0.3704932840338233,0.5864415710330049,2.98479675932158,3.013475970931248,70,249236.0,68,74.5,0,-1,-9,0,0,0,20.0,12.0,-1023.0
1777477321.845502,recenter,right,-,1,,,0,0.02832784651452701,0.7810163350647985,3.0014189768986,3.0256390712313,70,249235.0,68,74.5,0,-1,-9,0,0,0,23.0,11.0,-1033.0
1777477321.896012,recenter,right,-,1,,,0,0.12955140876395096,0.7105825144500776,3.014403750883858,3.0331295783625087,70,249235.0,68,74.5,0,-1,-9,0,0,0,23.0,11.0,-1033.0
1777477321.945358,recenter,right,-,1,,,0,0.26371775971899514,0.5447680313719931,3.019882449847675,3.0348302836561594,70,249233.0,68,74.5,0,-1,-9,0,0,0,-18.0,32.0,-1037.0
1777477321.9940622,recenter,right,-,1,,,0,0.01837801378394049,0.7741234566485832,3.0127053499602323,3.035901783306623,70,249233.0,68,74.5,0,-1,-9,0,0,0,-18.0,32.0,-1037.0
1777477322.0447931,recenter,right,-,1,,,0,0.16887998839716745,0.8074946128771227,2.9992691086307857,3.0315322026974765,70,249237.0,68,74.5,0,-1,-9,0,0,-1,-8.0,38.0,-1028.0
1777477322.094522,recenter,right,-,1,,,0,0.11935128290360332,0.6908159087205132,3.038273601322675,3.0544926089270428,70,249237.0,68,74.5,0,-1,-9,0,0,-1,-8.0,38.0,-1028.0
1777477322.143959,recenter,right,-,1,,,0,0.25434594298018964,0.6605518445518063,3.034984246644781,3.056748026872974,70,249240.0,68,74.5,0,-1,-9,0,0,-1,31.0,9.0,-996.0
1777477322.193536,recenter,right,-,1,,,0,0.2797071524326045,0.5151210397269979,3.0499666995567103,3.064928353700072,70,249234.0,68,74.5,0,-1,-9,0,0,-1,5.0,28.0,-984.0
1777477322.243563,recenter,right,-,1,,,0,0.12932818079797423,0.6857257922711073,3.0591609693458945,3.075196065795932,70,249234.0,68,74.5,0,-1,-9,0,0,-1,5.0,28.0,-984.0
1777477322.292625,recenter,right,-,1,,,0,0.11164221010286518,0.6710464232426853,3.0728473380110395,3.086797840700106,70,249236.0,68,74.5,0,-1,-9,0,0,-1,14.0,-7.0,-972.0
1777477322.343339,recenter,right,-,1,,,0,0.07175790332759603,0.8424548703472439,3.044749984411597,3.0775668922963137,70,249236.0,68,74.5,0,-1,-9,0,0,-1,14.0,-7.0,-972.0
1777477322.393589,recenter,right,-,1,,,0,0.12272514124465288,0.6691972638842535,3.0720910424337893,3.0863039383991677,70,249242.99999999997,68,75.0,0,-1,-9,0,0,-1,22.0,3.0,-963.0
1777477322.443119,recenter,right,-,1,,,0,0.09401835279533495,0.41707113776416477,3.106885061155433,3.1083541718468486,70,249242.99999999997,68,75.0,0,-1,-9,0,0,-1,22.0,3.0,-963.0
1777477322.494296,recenter,right,-,1,,,0,-0.00396552591526266,0.7509775807516433,3.0800597647097505,3.0999950228621245,70,249240.0,68,75.0,0,-1,-9,0,0,0,37.0,-5.0,-983.0
1777477322.5450408,recenter,right,-,1,,,0,0.07528742922330156,0.8411164677947872,3.0783038809313887,3.1106601740653153,70,249240.0,68,75.0,0,-1,-9,0,0,0,37.0,-5.0,-983.0
1777477322.5947561,recenter,right,-,1,,,0,0.1212590522990829,0.6571142321842591,3.107692536153691,3.120667298098523,70,249238.0,68,75.0,0,-1,-9,0,0,0,-1.0,8.0,-1007.0
1777477322.645571,recenter,right,-,1,,,0,0.05667185677241789,0.9701948614850741,3.059116855430492,3.112319041260545,70,249238.0,68,75.0,0,-1,-9,0,0,0,-1.0,8.0,-1007.0
1777477322.694505,recenter,right,-,1,,,0,0.4275272812509712,0.5503350427773198,3.0948544512243856,3.127859375925347,70,249242.0,68,75.0,0,0,-9,0,0,0,31.0,0.0,-992.0
1777477322.744095,recenter,right,-,1,,,0,-0.006603813641026747,0.9048403674055486,3.09508044813141,3.13598953877753,70,249242.0,68,75.0,0,0,-9,0,0,0,31.0,0.0,-992.0
1777477322.794224,recenter,right,-,1,,,0,-0.006603813641026747,0.9048403674055486,3.09508044813141,3.13598953877753,70,249240.0,68,75.0,0,0,-9,0,0,0,15.0,27.0,-999.0
1777477322.8444722,recenter,right,-,1,,,0,-0.002074316279268416,0.9063893791528392,3.106270684024149,3.147276929114227,70,249240.0,68,75.0,0,0,-9,0,0,0,15.0,27.0,-999.0
1777477322.893676,recenter,right,-,1,,,0,0.054444425737943974,0.9710486063322601,3.0945627204993995,3.1472812294729233,70,249248.99999999997,68,75.0,0,0,-9,0,0,0,26.0,11.0,-1034.0
1777477322.943441,recenter,right,-,1,,,0,-0.15154239104088654,0.6584870593727116,3.1520922850152395,3.1663016958903545,70,249248.99999999997,68,75.0,0,0,-9,0,0,0,26.0,11.0,-1034.0
1777477322.993974,recenter,right,-,1,,,0,-0.00873508063336221,0.7389639813612444,3.1515856920215812,3.169773691677229,70,249248.0,68,75.0,0,0,-9,0,0,0,8.0,25.0,-1015.0
1777477323.043811,recenter,right,-,1,,,0,0.06983374893132521,0.8342329668518762,3.1387641187529884,3.169428215808336,70,249248.0,68,75.0,0,0,-9,0,0,0,8.0,25.0,-1015.0
1777477323.0942101,recenter,right,-,1,,,0,-0.014702682379619001,0.9063183770487322,3.140869496089213,3.1814518162735275,70,249242.99999999997,68,75.0,0,0,-9,0,0,0,-13.0,30.0,-1009.0
1777477323.142998,recenter,right,-,1,,,0,-0.005377943634740045,0.9066199594629958,3.140720304810964,3.1813231113258365,70,249242.99999999997,68,75.0,0,0,-9,0,0,0,-13.0,30.0,-1009.0
1777477323.193158,recenter,right,-,1,,,0,-0.01981853022672914,0.7353901411423097,3.175002950090109,3.192729718281317,70,249244.99999999997,68,75.0,0,0,-9,0,0,0,26.0,1.0,-1019.0
1777477323.243575,recenter,right,-,1,,,0,0.0696569261533226,0.8353709444639713,3.161350030458698,3.1919483018566877,70,249244.99999999997,68,75.0,0,0,-9,0,0,0,26.0,1.0,-1019.0
1777477323.294044,recenter,right,-,1,,,0,0.0542254138376183,0.8322644837383134,3.1743475399750514,3.2041028828602043,70,249242.99999999997,68,75.0,0,0,-9,0,0,0,37.0,4.0,-971.0
1777477323.344467,recenter,right,-,1,,,0,-0.019313294610427963,1.031144648179885,3.130202772611748,3.1932563266892773,70,249242.99999999997,68,75.0,0,0,-9,0,0,0,37.0,4.0,-971.0
1777477323.394315,recenter,right,-,1,,,0,-0.02774469597932821,0.9077124733587363,3.1756743353337473,3.2161233197525974,70,249242.99999999997,68,75.0,0,0,-9,0,0,0,37.0,4.0,-971.0
1777477323.443604,recenter,right,-,1,,,0,-0.029586641508610553,0.9073233305684386,3.1756221927651707,3.216026841038097,70,249250.0,68,75.0,0,0,-9,0,0,0,19.0,1.0,-1020.0
1777477323.493939,recenter,right,-,1,,,0,-0.03755320403572101,0.9104847342406306,3.1867549142224125,3.227601553839441,70,249250.0,68,75.0,0,0,-9,0,0,0,19.0,1.0,-1020.0
1777477323.54461,recenter,right,-,1,,,0,-0.13189672170805464,0.8479711079595342,3.202943501855038,3.236807367582946,80,249246.99999999997,68,75.0,0,0,-9,0,0,0,9.0,4.0,-989.0
1777477323.59462,recenter,right,-,1,,,0,0.04806542405300568,0.8324144761300662,3.209567740648903,3.2389222969948412,80,249246.99999999997,68,75.0,0,0,-9,0,0,0,9.0,4.0,-989.0
1777477323.645408,recenter,right,-,1,,,0,0.024649168947377197,0.9781403568184759,3.187637024157561,3.2397351205757645,80,249252.0,68,75.0,0,0,-9,0,0,0,26.0,12.0,-998.0
1777477323.694755,recenter,right,-,1,,,0,0.01945275192531741,0.9768984014883874,3.1880921614799016,3.23992620367917,80,249252.0,68,75.0,0,0,-9,0,0,0,26.0,12.0,-998.0
1777477323.7450292,recenter,right,-,1,,,0,-0.04021645088095831,1.040068282538079,3.175692511506102,3.239803650974645,80,249248.99999999997,68,75.0,0,0,-9,0,0,0,4.0,14.0,-998.0
1777477323.7958221,recenter,right,-,1,,,0,-0.04021645088095831,1.040068282538079,3.175692511506102,3.239803650974645,80,249248.99999999997,68,75.0,0,0,-9,0,0,0,4.0,14.0,-998.0
1777477323.84554,recenter,right,-,1,,,0,0.0108723468785307,1.1000080820132925,3.175589044943705,3.2518449079218166,80,249250.0,68,75.0,0,0,-9,0,0,0,4.0,13.0,-1002.0
1777477323.8956301,recenter,right,-,1,,,0,0.007099640662132749,0.9819088986966391,3.211509205364027,3.263810617578439,80,249250.0,68,75.0,0,0,-9,0,0,0,4.0,13.0,-1002.0
1777477323.944128,recenter,right,-,1,,,0,0.007099640662132749,0.9819088986966391,3.211509205364027,3.263810617578439,80,249248.99999999997,68,75.0,0,0,-9,0,0,0,-15.0,23.0,-995.0
1777477323.9938612,recenter,right,-,1,,,0,0.0777805593708466,0.9208611448457915,3.2319776215175717,3.274603104746664,80,249248.99999999997,68,75.0,0,0,-9,0,0,0,-15.0,23.0,-995.0
1777477324.044786,recenter,right,-,1,,,0,0.004271648964740111,0.9853683090714271,3.2228067674272998,3.2755393089421503,80,249246.0,68,75.0,0,0,-9,0,0,0,-10.0,23.0,-1007.0
1777477324.094804,recenter,right,-,1,,,0,0.06956462546381453,0.9210344313505977,3.244727047465843,3.287030533524927,80,249246.0,68,75.0,0,0,-9,0,0,0,-10.0,23.0,-1007.0
1777477324.145888,recenter,right,-,1,,,0,0.05514114844383271,1.0523839846834537,3.209208433768816,3.275311310562106,80,249248.99999999997,68,75.0,0,0,-9,0,0,0,-19.0,37.0,-1008.0
1777477324.194939,recenter,right,-,1,,,0,-0.05740776029641815,1.1629816444044714,3.184852068708834,3.2754723842828137,80,249248.99999999997,68,75.0,0,0,-9,0,0,0,-19.0,37.0,-1008.0
1777477324.245764,recenter,right,-,1,,,0,-0.010434569221812143,0.9905270837077129,3.2341815764399633,3.287668107673107,80,249258.0,68,75.0,0,0,-9,0,0,0,34.0,5.0,-974.0
1777477324.296166,recenter,right,-,1,,,0,-0.010953117722033062,1.1120144150811295,3.209925740571,3.2879640749332157,80,249258.0,68,75.0,0,0,-9,0,0,0,34.0,5.0,-974.0
1777477324.346472,recenter,right,-,1,,,0,0.04749233483319137,1.0612031227771124,3.2322757377228966,3.2995532328044366,80,249271.99999999997,68,75.0,0,0,-9,0,0,0,-6.0,22.0,-1012.0
1777477324.3956459,recenter,right,-,1,,,0,-0.09019445391587076,0.9351092371795551,3.265807882596384,3.310585758028441,80,249271.99999999997,68,75.0,0,0,-9,0,0,0,-6.0,22.0,-1012.0
1777477324.445131,recenter,right,-,1,,,0,-0.02142194627301199,0.9964537496278799,3.2453746447496807,3.299798866599508,80,249252.0,68,74.5,0,0,-9,0,0,0,17.0,15.0,-965.0
1777477324.493946,recenter,right,-,1,,,0,-0.022695504910525015,1.000837512365441,3.2570350588977792,3.3120685646734276,80,249252.0,68,74.5,0,0,-9,0,0,0,17.0,15.0,-965.0
1777477324.5439832,recenter,right,-,1,,,0,-0.01725584731610665,1.2171086566132723,3.1846617074618075,3.2878616929476365,80,249265.0,68,74.5,0,0,-9,0,0,0,-14.0,37.0,-1003.0
1777477324.593858,recenter,right,-,1,,,0,0.03867988087126572,1.0635636328579308,3.231725980286493,3.2993735223060945,80,249265.0,68,74.5,0,0,-9,0,0,0,-14.0,37.0,-1003.0
1777477324.644077,recenter,right,-,1,,,0,-0.020757126226863917,1.1242854132294826,3.2315951216248733,3.311831403953994,80,249255.00000000003,68,74.5,0,0,-9,0,0,0,-21.0,20.0,-979.0
1777477324.694835,recenter,right,-,1,,,0,-0.03552800518742042,0.8553969750713053,3.3044250136093933,3.335846716296199,80,249255.00000000003,68,74.5,0,0,-9,0,0,0,-21.0,20.0,-979.0
1777477324.745099,recenter,right,-,1,,,0,-0.01980408525405979,1.122627687562516,3.218984508355989,3.2991581110429595,80,249260.0,68,74.5,0,0,-9,0,0,0,3.0,4.0,-1015.0
1777477324.79566,recenter,right,-,1,,,0,-0.01980408525405979,1.122627687562516,3.218984508355989,3.2991581110429595,80,249260.0,68,74.5,0,0,-9,0,0,0,3.0,4.0,-1015.0
1777477324.8462021,recenter,right,-,1,,,0,0.044055857411066185,0.9403023696589643,3.2785039589714686,3.3230190758138765,80,249258.0,68,74.5,0,0,-9,0,0,0,1.0,5.0,-980.0
1777477324.8950799,recenter,right,-,1,,,0,-0.016605895810198286,1.1278955087744174,3.2296824184789776,3.3107334763918774,80,249258.0,68,74.5,0,0,-9,0,0,0,1.0,5.0,-980.0
1777477324.9450712,recenter,right,-,1,,,0,0.03891166129200399,1.0710883034970333,3.2414909856805267,3.310458795805068,80,249257.00000000003,68,74.5,0,0,-9,0,0,0,20.0,-10.0,-990.0
1777477324.994088,recenter,right,-,1,,,0,0.03621651383919439,1.075568997097314,3.253119488619878,3.322723508351574,80,249257.00000000003,68,74.5,0,0,-9,0,0,0,20.0,-10.0,-990.0
1777477325.04428,recenter,right,-,1,,,0,0.030625248597522695,1.177781370175962,3.204896774923687,3.2980668737247747,80,249260.0,68,74.5,0,0,-9,0,0,0,-23.0,42.0,-1033.0
1777477325.095078,recenter,right,-,1,,,0,-0.022713343742725777,1.0132734228358387,3.264921466779109,3.322097586070555,80,249260.0,68,74.5,0,0,-9,0,0,0,-23.0,42.0,-1033.0
1777477325.1442618,recenter,right,-,1,,,0,0.08935036406888736,1.1336573144084192,3.2252276850194033,3.308826100410814,80,249267.99999999997,68,74.5,0,0,-9,0,0,0,-15.0,21.0,-1016.0
1777477325.193377,recenter,right,-,1,,,0,-0.02032656363280364,1.1305266886918262,3.2276674535828103,3.309368459842135,80,249267.99999999997,68,74.5,0,0,-9,0,0,0,-15.0,21.0,-1016.0
1777477325.2431018,recenter,right,-,1,,,0,0.04660542226843233,0.9446801292516023,3.275588097345044,3.320892333704134,80,249262.0,68,74.5,0,0,-9,0,0,0,-5.0,14.0,-1015.0
1777477325.293538,recenter,right,-,1,,,0,0.034827024177676594,1.1851989351027332,3.214179717700137,3.308882220172618,80,249262.0,68,74.5,0,0,-9,0,0,0,-5.0,14.0,-1015.0
1777477325.343437,recenter,right,-,1,,,0,0.03135414053528334,1.1808057960258562,3.202418415837549,3.2963805125215373,80,249271.0,68,74.5,0,0,-9,0,0,0,16.0,-5.0,-1019.0
1777477325.3942888,recenter,right,-,1,,,0,0.03729274029867819,1.0805181562667143,3.2497594355614283,3.320456609942098,80,249271.0,68,74.5,0,0,-9,0,0,0,16.0,-5.0,-1019.0
1777477325.4434571,recenter,right,-,1,,,0,0.03254402821430354,1.186633185808983,3.2126519108630873,3.307715704706293,80,249259.0,68,74.5,0,0,-9,0,0,0,-3.0,20.0,-988.0
1777477325.494022,recenter,right,-,1,,,0,0.03888517232336611,1.0814220596079072,3.248904506949567,3.3198235759184715,80,249259.0,68,74.5,0,0,-9,0,0,0,-3.0,20.0,-988.0
1777477325.545013,recenter,right,-,1,,,0,-0.018166225349853213,1.1330773870107673,3.2250220959952896,3.307340319160979,80,249259.0,68,74.5,0,0,-9,0,0,0,-8.0,17.0,-983.0
1777477325.59583,recenter,right,-,1,,,0,0.04043509381614448,1.0823285553846285,3.2480598250224473,3.3192016933639397,80,249258.0,68,74.5,0,0,-9,0,0,0,-10.0,34.0,-1014.0
1777477325.6460001,recenter,right,-,1,,,0,0.052699753124993504,0.9499936633971683,3.2721169764048392,3.318436348799419,80,249258.0,68,74.5,0,0,-9,0,0,0,-10.0,34.0,-1014.0
1777477325.6952991,recenter,right,-,1,,,0,0.046027078728604905,1.07970393840756,3.2347609873395125,3.305721491758908,80,249257.00000000003,68,74.5,0,0,-9,0,0,0,12.0,1.0,-984.0
1777477325.744936,recenter,right,-,1,,,0,0.056233538695874545,0.9530062870715708,3.2706007618424726,3.3175001895673653,80,249257.00000000003,68,74.5,0,0,-9,0,0,0,12.0,1.0,-984.0
1777477325.796222,recenter,right,-,1,,,0,0.056233538695874545,0.9530062870715708,3.2706007618424726,3.3175001895673653,80,249266.0,68,74.5,0,0,-9,0,0,0,-7.0,16.0,-976.0
1777477325.844074,recenter,right,-,1,,,0,0.04455374317878312,1.0784605135682013,3.234725337240438,3.305410974733358,80,249266.0,68,74.5,0,0,-9,0,0,0,-7.0,16.0,-976.0
1777477325.891724,recenter,right,-,1,,,0,0.05370000507963178,1.0805457653826438,3.233414904369202,3.304693355384535,80,249266.0,68,74.5,0,0,-9,0,0,0,-7.0,16.0,-976.0
1777477325.939915,recenter,right,-,1,,,0,0.04716994278778105,1.0792696960931178,3.233879858167455,3.3047861141977397,80,249260.0,68,74.5,0,0,-9,0,0,0,6.0,-7.0,-1024.0
1777477325.9909241,recenter,right,-,1,,,0,-0.009889558203835119,1.0166282498704735,3.2466376340188865,3.3046912304370504,80,249260.0,68,74.5,0,0,-9,0,0,0,6.0,-7.0,-1024.0
1777477326.042847,recenter,right,-,1,,,0,0.12110462274938893,1.0278618338099563,3.2397618893306688,3.3022619386665704,80,249262.0,68,74.5,0,0,-9,0,0,0,31.0,6.0,-975.0
1777477326.093785,recenter,right,-,1,,,0,0.04540205215856191,1.1853797408708284,3.196592995232934,3.2919734903068103,80,249262.0,68,74.5,0,0,-9,0,0,0,31.0,6.0,-975.0
1777477326.1443079,recenter,right,-,1,,,0,0.07431190854921495,0.9537700979329857,3.2552899260171433,3.302892078700973,80,249264.0,68,74.5,0,-1,-9,0,0,0,26.0,-12.0,-1002.0
1777477326.195199,recenter,right,-,1,,,0,0.00041690569516776094,1.0153868879383878,3.2333863842944464,3.2914265457089518,80,249264.0,68,74.5,0,-1,-9,0,0,0,26.0,-12.0,-1002.0
1777477326.226721,pre_hover,right,x,1,,,0,0.13090470137236052,1.02822397775153,3.2254187131106016,3.288636082321574,80,249254.0,68,74.5,0,-1,-9,0,0,0,-8.0,19.0,-1008.0
1777477326.2772741,pre_hover,right,x,1,,,0,0.0030448740385091494,1.128716583248146,3.196944740007856,3.2789469042091337,80,249254.0,68,74.5,0,-1,-9,0,0,0,-8.0,19.0,-1008.0
1777477326.32794,pre_hover,right,x,1,,,0,0.004102559944302816,1.1287024394771716,3.1969476901994303,3.2789477900951014,80,249253.00000000003,68,74.5,0,-1,-9,0,0,0,-5.0,12.0,-995.0
1777477326.37675,pre_hover,right,x,1,,,0,0.008065104205522332,1.0175805523877912,3.231957628496584,3.2904438753746765,80,249253.00000000003,68,74.5,0,-1,-9,0,0,0,-5.0,12.0,-995.0
1777477326.425643,pre_hover,right,x,1,,,0,0.07793730737290402,0.9541865375533222,3.241507317188147,3.2894629697976807,80,249254.0,68,74.5,0,-1,-9,0,0,0,-5.0,29.0,-991.0
1777477326.4764879,pre_hover,right,x,1,,,0,0.13307881744769776,1.0261572090878637,3.2124731524881858,3.2756322408969174,80,249254.0,68,74.5,0,-1,-9,0,0,0,-5.0,29.0,-991.0
1777477326.52568,pre_hover,right,x,1,,,0,0.057886738701368415,1.1798198520859595,3.170609234680819,3.265613693514304,80,249252.0,68,74.5,0,-1,-9,0,0,0,-23.0,27.0,-1034.0
1777477326.573916,pre_hover,right,x,1,,,0,0.08587764917392184,0.953021105101317,3.2284485886425554,3.2765969545892015,80,249252.0,68,74.5,0,-1,-9,0,0,0,-23.0,27.0,-1034.0
1777477326.6228402,pre_hover,right,x,1,,,0,0.1668878220099035,0.8963771280864674,3.243618606223781,3.285620711686558,80,249254.0,68,74.5,0,0,-9,0,0,0,-12.0,32.0,-988.0
1777477326.6710641,pre_hover,right,x,1,,,0,0.11555937503007598,1.1366232597632626,3.1774268337905687,3.263741576790962,80,249254.0,68,74.5,0,0,-9,0,0,0,-12.0,32.0,-988.0
1777477326.717601,pre_hover,right,x,1,,,0,0.019252344654606002,0.8750103202080769,3.254814956952166,3.289350370677835,80,249248.0,68,74.5,0,0,-9,0,0,0,20.0,13.0,-1002.0
1777477326.767601,pre_hover,right,x,1,,,0,0.019252344654606002,0.8750103202080769,3.254814956952166,3.289350370677835,80,249248.0,68,74.5,0,0,-9,0,0,0,20.0,13.0,-1002.0
1777477326.819123,pre_hover,right,x,1,,,0,0.12216193242099163,0.7985492961006899,3.2602236928939745,3.2867649150589417,80,249255.00000000003,68,74.5,0,-1,-9,0,0,0,12.0,-1.0,-1042.0
1777477326.8699908,pre_hover,right,x,1,,,0,0.01668571569246268,1.014030554535808,3.2069492386173932,3.265246599275528,80,249255.00000000003,68,74.5,0,-1,-9,0,0,0,12.0,-1.0,-1042.0
1777477326.921172,pre_hover,right,x,1,,,0,0.023588532661990107,0.8773586309389586,3.2540704545600523,3.2889819404560017,80,249246.99999999997,68,74.5,0,-1,-9,0,0,0,-9.0,18.0,-992.0
1777477326.970998,pre_hover,right,x,1,,,0,0.07287217077664297,1.0776138266294568,3.1925062670039366,3.2644397859621375,80,249246.99999999997,68,74.5,0,-1,-9,0,0,0,-9.0,18.0,-992.0
1777477327.02191,pre_hover,right,x,1,,,0,0.09398847876031519,0.9578677443206898,3.2264904024711125,3.275712223552511,80,249242.99999999997,68,74.5,0,-1,-9,0,0,0,-2.0,27.0,-986.0
1777477327.0726469,pre_hover,right,x,1,,,0,0.17840603643659156,0.9043441120990341,3.2281619020358634,3.2721890170040266,80,249242.99999999997,68,74.5,0,-1,-9,0,0,0,-2.0,27.0,-986.0
1777477327.1222599,pre_hover,right,x,1,,,0,0.17840603643659156,0.9043441120990341,3.2281619020358634,3.2721890170040266,80,249246.0,68,74.5,0,-1,-9,0,0,0,2.0,10.0,-997.0
1777477327.171842,pre_hover,right,x,1,,,0,0.021076499452678345,1.0161457809723151,3.2062234115914765,3.2649576424934597,80,249246.0,68,74.5,0,-1,-9,0,0,0,2.0,10.0,-997.0
1777477327.2209768,pre_hover,right,x,1,,,0,0.07327446729754256,1.0792867197571283,3.1920058579486392,3.2643071228630687,80,249250.0,68,74.5,0,-1,-9,0,0,0,25.0,8.0,-1005.0
1777477327.2710989,pre_hover,right,x,1,,,0,0.021076499452678345,1.0161457809723151,3.2062234115914765,3.2649576424934597,80,249250.0,68,74.5,0,-1,-9,0,0,0,25.0,8.0,-1005.0
1777477327.3213608,pre_hover,right,x,1,,,0,0.02222466573252698,1.0164663333601354,3.2062024035174344,3.2650051344912745,80,249244.0,68,74.5,0,-1,-9,0,0,0,-4.0,2.0,-1007.0
1777477327.3718212,pre_hover,right,x,1,,,0,0.07890663463982943,1.0756787201316362,3.180326347497962,3.2522674653875927,80,249244.0,68,74.5,0,-1,-9,0,0,0,-4.0,2.0,-1007.0
1777477327.421294,pre_hover,right,x,1,,,0,0.07890663463982943,1.0756787201316362,3.180326347497962,3.2522674653875927,80,249257.00000000003,68,74.5,0,-1,-9,0,0,0,-11.0,19.0,-1035.0
1777477327.471321,pre_hover,right,x,1,,,0,0.09763179998526444,0.9592894223420125,3.2261923653135955,3.275767666413441,80,249257.00000000003,68,74.5,0,-1,-9,0,0,0,-11.0,19.0,-1035.0
1777477327.5207691,pre_hover,right,x,1,,,0,0.09763179998526444,0.9592894223420125,3.2261923653135955,3.275767666413441,80,249257.00000000003,68,74.5,0,-1,-9,0,0,0,-11.0,19.0,-1035.0
1777477327.569226,pre_hover,right,x,1,,,0,0.1355658183098224,0.8049195609315885,3.2462059440880204,3.2741702725043846,80,249251.00000000003,68,74.5,0,0,-9,0,0,0,11.0,-3.0,-1020.0
1777477327.6189508,pre_hover,right,x,1,,,0,0.18075779211289494,0.905792468287904,3.2277886298881127,3.2721734122172195,80,249251.00000000003,68,74.5,0,0,-9,0,0,0,11.0,-3.0,-1020.0
1777477327.66859,pre_hover,right,x,1,,,0,0.1355658183098224,0.8049195609315885,3.2462059440880204,3.2741702725043846,80,249253.00000000003,68,74.5,0,0,-9,0,0,0,13.0,6.0,-1008.0
1777477327.718287,pre_hover,right,x,1,,,0,0.1355658183098224,0.8049195609315885,3.2462059440880204,3.2741702725043846,80,249253.00000000003,68,74.5,0,0,-9,0,0,0,13.0,6.0,-1008.0
1777477327.767987,pre_hover,right,x,1,,,0,0.1355658183098224,0.8049195609315885,3.2462059440880204,3.2741702725043846,80,249248.99999999997,68,74.5,0,0,-9,0,0,0,0.0,9.0,-1030.0
1777477327.8186061,pre_hover,right,x,1,,,0,0.09416607692787152,0.9554444804034666,3.214956000391996,3.263943612458886,80,249248.99999999997,68,74.5,0,0,-9,0,0,0,0.0,9.0,-1030.0
1777477327.869246,pre_hover,right,x,1,,,0,0.05496206159793503,0.6675572487730213,3.2771641366258475,3.2885274041693373,80,249252.0,68,74.5,0,0,-9,0,0,0,5.0,8.0,-1019.0
1777477327.919326,pre_hover,right,x,1,,,0,0.09763179998526444,0.9592894223420125,3.2261923653135955,3.275767666413441,80,249252.0,68,74.5,0,0,-9,0,0,0,5.0,8.0,-1019.0
1777477327.9693289,pre_hover,right,x,1,,,0,0.026456155887692543,0.8745392382921788,3.2422816347970933,3.2769311277788225,80,249244.0,68,74.5,0,0,-9,0,0,0,-5.0,20.0,-1009.0
1777477328.01966,pre_hover,right,x,1,,,0,0.09763179998526444,0.9592894223420125,3.2261923653135955,3.275767666413441,80,249244.0,68,74.5,0,0,-9,0,0,0,-5.0,20.0,-1009.0
1777477328.070463,pre_hover,right,x,1,,,0,0.026456155887692543,0.8745392382921788,3.2422816347970933,3.2769311277788225,80,249257.00000000003,68,74.5,0,0,-9,0,0,0,0.0,6.0,-992.0
1777477328.120917,pre_hover,right,x,1,,,0,0.0929405949766354,0.9549387661826814,3.2150541730976925,3.263919166333605,80,249257.00000000003,68,74.5,0,0,-9,0,0,0,0.0,6.0,-992.0
1777477328.171795,pre_hover,right,x,1,,,0,-0.07144699418692087,0.791253060000014,3.2642240697762857,3.288364701131032,80,249248.99999999997,68,74.5,0,0,-9,0,0,0,-12.0,8.0,-1027.0
1777477328.221676,pre_hover,right,x,1,,,0,0.026456155887692543,0.8745392382921788,3.2422816347970933,3.2769311277788225,80,249248.99999999997,68,74.5,0,0,-9,0,0,0,-12.0,8.0,-1027.0
1777477328.27173,pre_hover,right,x,1,,,0,0.09642359721974991,0.9587915314031281,3.2262925741473554,3.2757456036247716,80,249252.0,68,74.5,0,0,-9,0,0,0,9.0,11.0,-1005.0
1777477328.321919,pre_hover,right,x,1,,,0,0.12768445725565755,0.8046954232907684,3.259161125297202,3.286672016935321,80,249252.0,68,74.5,0,0,-9,0,0,0,9.0,11.0,-1005.0
1777477328.370718,pre_hover,right,x,1,,,0,0.09642359721974991,0.9587915314031281,3.2262925741473554,3.2757456036247716,80,249255.00000000003,68,74.5,0,0,-9,0,0,0,15.0,9.0,-1014.0
1777477328.421804,pre_hover,right,x,1,,,0,0.09642359721974991,0.9587915314031281,3.2262925741473554,3.2757456036247716,80,249255.00000000003,68,74.5,0,0,-9,0,0,0,15.0,9.0,-1014.0
1777477328.4708889,pre_hover,right,x,1,,,0,0.09642359721974991,0.9587915314031281,3.2262925741473554,3.2757456036247716,80,249248.99999999997,68,75.5,0,0,-9,0,0,0,15.0,15.0,-993.0
1777477328.52016,pre_hover,right,x,1,,,0,0.09167725104944513,0.96148681864703,3.238248066910963,3.287844690481431,80,249248.99999999997,68,75.5,0,0,-9,0,0,0,15.0,15.0,-993.0
1777477328.569359,pre_hover,right,x,1,,,0,0.0199518195502744,0.879720429156348,3.253544837332083,3.2887815028948895,80,249248.99999999997,68,75.5,0,0,-9,0,0,0,-6.0,18.0,-992.0
1777477328.619943,pre_hover,right,x,1,,,0,0.07459975514071694,1.07913213053524,3.191748117898848,3.264052944163625,80,249248.99999999997,68,75.5,0,0,-9,0,0,0,-6.0,18.0,-992.0
1777477328.669933,pre_hover,right,x,1,,,0,0.08792801492798923,0.9588418380242294,3.226396536382714,3.2756175212802012,80,249246.0,68,75.5,0,0,-9,0,0,0,-1.0,15.0,-963.0
1777477328.720108,pre_hover,right,x,1,,,0,0.09473048230073297,0.9594312511071291,3.225778868341498,3.2752994514136833,80,249246.0,68,75.5,0,0,-9,0,0,0,-1.0,15.0,-963.0
1777477328.769349,pre_hover,right,x,1,,,0,0.09473048230073297,0.9594312511071291,3.225778868341498,3.2752994514136833,80,249244.99999999997,68,75.5,0,0,-9,0,0,0,-14.0,23.0,-974.0
1777477328.8186371,pre_hover,right,x,1,,,0,0.03027204850389574,0.8785640684093441,3.2531704832806603,3.2883214802968475,80,249244.99999999997,68,75.5,0,0,-9,0,0,0,-14.0,23.0,-974.0
1777477328.869458,pre_hover,right,x,1,,,0,0.09473048230073297,0.9594312511071291,3.225778868341498,3.2752994514136833,80,249253.00000000003,68,75.5,0,0,-9,0,0,0,3.0,8.0,-1006.0
1777477328.919969,pre_hover,right,x,1,,,0,0.14126234731728182,1.0333656734467707,3.208810596625607,3.2737703908623548,80,249253.00000000003,68,75.5,0,0,-9,0,0,0,3.0,8.0,-1006.0
1777477328.9696481,pre_hover,right,x,1,,,0,0.14126234731728182,1.0333656734467707,3.208810596625607,3.2737703908623548,80,249241.0,68,75.5,0,-1,-9,0,0,0,13.0,9.0,-982.0
1777477329.020239,pre_hover,right,x,1,,,0,0.1301931014828297,0.8092999380140482,3.269814470217506,3.2979028719135757,80,249241.0,68,75.5,0,-1,-9,0,0,0,13.0,9.0,-982.0
1777477329.068717,pre_hover,right,x,1,,,0,0.1301931014828297,0.8092999380140482,3.269814470217506,3.2979028719135757,80,249239.0,68,75.5,0,-1,-9,0,0,0,2.0,6.0,-984.0
1777477329.118179,pre_hover,right,x,1,,,0,0.12474721627759755,0.8047503843209102,3.258648846231658,3.286057979498209,80,249239.0,68,75.5,0,-1,-9,0,0,0,2.0,6.0,-984.0
1777477329.168777,pre_hover,right,x,1,,,0,0.12474721627759755,0.8047503843209102,3.258648846231658,3.286057979498209,80,249244.99999999997,68,75.5,0,-1,-9,0,0,0,8.0,1.0,-978.0
1777477329.219187,pre_hover,right,x,1,,,0,0.12474721627759755,0.8047503843209102,3.258648846231658,3.286057979498209,80,249244.99999999997,68,75.5,0,-1,-9,0,0,0,8.0,1.0,-978.0
1777477329.2700748,response,right,x,1,1777477329.269876,0.00019884109497070312,0,0.08710218138220312,0.9574843546364326,3.226577634172631,3.275542523767474,80,249244.0,68,75.5,0,-1,-9,0,0,0,0.0,15.0,-969.0
1777477329.320169,response,right,x,1,1777477329.269876,0.05029296875,0,0.019009953207407202,0.8785262688726452,3.2536581173983135,3.2887140211994814,80,249244.0,68,75.5,0,-1,-9,0,0,0,0.0,15.0,-969.0
1777477329.370292,response,right,x,1,1777477329.269876,0.10041594505310059,0,0.027710983824130047,0.8799371701842612,3.253324901099556,3.2886517751296527,80,249246.0,68,75.5,0,0,-9,0,0,0,20.0,12.0,-983.0
1777477329.419903,response,right,x,1,1777477329.269876,0.15002703666687012,0,-0.06464532512009595,0.793395004684424,3.2760778888987168,3.300246200195012,80,249246.0,68,75.5,0,0,-9,0,0,0,20.0,12.0,-983.0
1777477329.470261,response,right,x,1,1777477329.269876,0.20038509368896484,0,0.09763179998526444,0.9592894223420125,3.2261923653135955,3.275767666413441,80,249248.0,68,75.0,0,0,-9,0,0,0,8.0,13.0,-977.0
1777477329.520714,response,right,x,1,1777477329.269876,0.250838041305542,0,0.18047228266170248,0.9074288178270766,3.240286512644556,3.284739096792427,80,249248.0,68,75.0,0,0,-9,0,0,0,8.0,13.0,-977.0
1777477329.570783,response,right,x,1,1777477329.269876,0.3009068965911865,0,0.1474533511460369,1.0340171866787031,3.209335998566743,3.2746843871531444,80,249253.00000000003,68,75.0,1,4,-9,0,0,0,-17.0,44.0,-1001.0
1777477329.621377,response,right,x,1,1777477329.269876,0.3515009880065918,0,0.10302828729891977,0.9604173677860859,3.226391128929048,3.276321438890282,80,249253.00000000003,68,75.0,1,4,-9,0,0,0,-17.0,44.0,-1001.0
1777477329.671791,response,right,x,1,1777477329.269876,0.4019150733947754,0,0.10240294366815043,0.9615159116467686,3.225783770914325,3.2758918508703316,80,249244.0,68,75.0,0,4,-9,0,0,0,-2.0,3.0,-1016.0
1777477329.72149,response,right,x,1,1777477329.269876,0.4516139030456543,0,0.10320692189175411,0.9675372949217176,3.2231766248663227,3.274388157341474,80,249244.0,68,75.0,0,4,-9,0,0,0,-2.0,3.0,-1016.0
1777477329.770695,response,right,x,1,1777477329.269876,0.5008189678192139,0,0.10320692189175411,0.9675372949217176,3.2231766248663227,3.274388157341474,80,249253.00000000003,68,75.0,0,2,-9,0,1,0,8.0,3.0,-1026.0
1777477329.8195672,response,right,x,1,1777477329.269876,0.5496912002563477,0,0.03608668581962187,0.8938086577025043,3.2488058112957074,3.2863183714947874,80,249253.00000000003,68,75.0,0,2,-9,0,1,0,8.0,3.0,-1026.0
1777477329.86853,response,right,x,1,1777477329.269876,0.59865403175354,0,0.10028195029468481,0.9737016126317967,3.219968256438543,3.272214171224601,80,249253.00000000003,68,75.0,0,2,-9,0,1,0,8.0,3.0,-1026.0
1777477329.919428,response,right,x,1,1777477329.269876,0.6495521068572998,0,0.13336218790163962,0.8350695243934259,3.2620353386398255,3.2936219447217794,80,249254.0,68,75.0,0,0,-9,0,2,0,14.0,-11.0,-1001.0
1777477329.970428,response,right,x,1,1777477329.269876,0.7005519866943359,0,0.24229299482129632,0.7872456382320252,3.2673647924944547,3.2991419743475023,80,249250.0,68,75.0,0,0,-9,0,2,0,-19.0,22.0,-1003.0
1777477330.0216582,response,right,x,1,1777477329.269876,0.7517821788787842,0,0.1765237839521865,0.936013289485516,3.2411392461173967,3.2899018990736377,80,249250.0,68,75.0,0,0,-9,0,2,0,-19.0,22.0,-1003.0
1777477330.072583,response,right,x,1,1777477329.269876,0.8027069568634033,0,0.2413016838986485,0.7974371815742514,3.264241945687473,3.2971894540556126,80,249248.99999999997,68,75.0,0,0,-9,0,2,0,-6.0,15.0,-1028.0
1777477330.122574,response,right,x,1,1777477329.269876,0.8526980876922607,0,0.21078771417604344,0.6640258222050046,3.293027434027812,3.310312791338363,80,249248.99999999997,68,75.0,0,0,-9,0,2,0,-6.0,15.0,-1028.0
1777477330.172989,response,right,x,1,1777477329.269876,0.9031128883361816,0,0.1659800450770214,0.9421554611927431,3.2514182568020464,3.300485206773475,80,249255.00000000003,68,75.0,0,0,-9,0,2,0,-4.0,-1.0,-1013.0
1777477330.223958,response,right,x,1,1777477329.269876,0.9540820121765137,0,0.16334255762898187,0.9466137108761291,3.2500866021109274,3.29977730479975,80,249255.00000000003,68,75.0,0,0,-9,0,2,0,-4.0,-1.0,-1013.0
1777477330.274637,response,right,x,1,1777477329.269876,1.004760980606079,0,0.2625031158726596,0.911802718001935,3.254917402115688,3.3053497852107214,80,249250.0,68,75.0,0,0,-9,0,2,0,-10.0,25.0,-1012.0
1777477330.324619,response,right,x,1,1777477329.269876,1.0547430515289307,0,0.16377846523042436,0.9532647666967391,3.260146100396084,3.310812269469386,80,249250.0,68,75.0,0,0,-9,0,2,0,-10.0,25.0,-1012.0
1777477330.3744068,response,right,x,1,1777477329.269876,1.1045308113098145,0,0.20957076488486034,1.0343437005052656,3.240013770245284,3.3081718618058824,80,249258.0,68,75.0,0,0,-9,0,2,0,13.0,-12.0,-1031.0
1777477330.424326,response,right,x,1,1777477329.269876,1.1544499397277832,0,0.2516090733753446,0.9136561672842523,3.267706589314047,3.3173869442439767,80,249258.0,68,75.0,0,0,-9,0,2,0,13.0,-12.0,-1031.0
1777477330.475462,response,right,x,1,1777477329.269876,1.2055859565734863,0,0.15555210329620395,0.9562465840686253,3.2725700120918835,3.3231492899313086,80,249253.00000000003,68,74.5,0,0,-9,0,2,0,10.0,-15.0,-1003.0
1777477330.525335,response,right,x,1,1777477329.269876,1.2554590702056885,0,0.24664679557427738,0.9123931543874363,3.2811227551525315,3.330037225138768,80,249253.00000000003,68,74.5,0,0,-9,0,2,0,10.0,-15.0,-1003.0
1777477330.5753632,response,right,x,1,1777477329.269876,1.3054871559143066,0,0.3431391914846067,0.8833041905586383,3.2809636416570753,3.3340740638473987,80,249251.00000000003,68,74.5,0,0,-9,0,2,0,7.0,8.0,-999.0
1777477330.62397,response,right,x,1,1777477329.269876,1.3540940284729004,0,0.3419012177568617,0.8844514660121782,3.281143412821011,3.334290293469314,80,249251.00000000003,68,74.5,0,0,-9,0,2,0,7.0,8.0,-999.0
1777477330.685655,response,right,x,1,1777477329.269876,1.4157791137695312,0,0.34612198602206595,0.8861090999528605,3.2932034491129913,3.346833046854077,80,249248.0,68,74.5,0,0,-9,0,2,0,17.0,3.0,-1002.0
1777477330.735401,response,right,x,1,1777477329.269876,1.4655249118804932,0,0.34612198602206595,0.8861090999528605,3.2932034491129913,3.346833046854077,80,249248.0,68,74.5,0,0,-9,0,2,0,17.0,3.0,-1002.0
1777477330.7851362,response,right,x,1,1777477329.269876,1.5152602195739746,0,0.4396830047290851,0.8711677429846776,3.300031188420922,3.36236910990267,80,249248.0,68,74.5,0,-1,-9,0,2,0,4.0,-8.0,-988.0
1777477330.834191,response,right,x,1,1777477329.269876,1.5643150806427002,0,0.35944422448271673,0.9699900002744589,3.2781413511286828,3.346684847562831,80,249248.0,68,74.5,0,-1,-9,0,2,0,4.0,-8.0,-988.0
1777477330.884695,response,right,x,1,1777477329.269876,1.614819049835205,0,0.4510124221450035,0.9563352166397431,3.284601046403691,3.3617741019049627,80,249260.0,68,74.5,0,-3,-9,0,1,0,19.0,-7.0,-990.0
1777477330.934818,response,right,x,1,1777477329.269876,1.6649420261383057,0,0.3639308341133605,0.9713385527515572,3.290909841811225,3.359904906512783,80,249260.0,68,74.5,0,-3,-9,0,1,0,19.0,-7.0,-990.0
1777477330.984162,response,right,x,1,1777477329.269876,1.7142860889434814,0,0.45129990864377956,0.9531804013470625,3.2859816800132937,3.3626411889107892,80,249246.0,68,74.5,0,-4,-9,0,1,0,-2.0,16.0,-1008.0
1777477331.035291,response,right,x,1,1777477329.269876,1.7654149532318115,0,0.4504002466737525,0.9552900048297492,3.2995695173403052,3.3761466750467073,80,249246.0,68,74.5,0,-4,-9,0,1,0,-2.0,16.0,-1008.0
1777477331.0867221,response,right,x,1,1777477329.269876,1.8168461322784424,0,0.5353260454542869,0.868400265353269,3.3011226484659817,3.3768896226764347,80,249253.00000000003,68,74.5,0,-2,-9,0,0,0,2.0,8.0,-1008.0
1777477331.1381261,response,right,x,1,1777477329.269876,1.8682501316070557,0,0.36844004971921784,0.9741806550212112,3.3171963752882685,3.386624172692228,80,249253.00000000003,68,74.5,0,-2,-9,0,0,0,2.0,8.0,-1008.0
1777477331.1891341,response,right,x,1,1777477329.269876,1.9192581176757812,0,0.5366925043726527,0.8667630425733172,3.314842339462925,3.3902929545480474,80,249251.00000000003,68,74.5,0,-1,-9,0,0,0,6.0,14.0,-1009.0
1777477331.240148,response,right,x,1,1777477329.269876,1.9702720642089844,0,0.39043409469836443,1.0568242205583083,3.2972463043566456,3.384625537723268,80,249251.00000000003,68,74.5,0,-1,-9,0,0,0,6.0,14.0,-1009.0
1777477331.290375,response,right,x,1,1777477329.269876,2.0204989910125732,0,0.5375629851805869,0.952387693309617,3.30181090352943,3.390584222434537,80,249248.0,68,74.5,0,-1,-9,0,0,0,10.0,-4.0,-991.0
1777477331.34099,response,right,x,1,1777477329.269876,2.0711140632629395,0,0.46919080175661965,1.042362949182158,3.306822276732233,3.4011532951085237,80,249248.0,68,74.5,0,-1,-9,0,0,0,10.0,-4.0,-991.0
1777477331.391391,response,right,x,1,1777477329.269876,2.1215150356292725,0,0.5432415775427808,0.9592365465668368,3.3127167015368055,3.4032262444962518,80,249248.0,68,74.5,0,-1,-9,0,0,0,-19.0,-1.0,-1006.0
1777477331.441531,response,right,x,1,1777477329.269876,2.1716549396514893,0,0.4668268970670979,0.9709345403521341,3.3342134785925066,3.414802061909349,80,249248.0,68,74.5,0,-1,-9,0,0,0,-19.0,-1.0,-1006.0
1777477331.491167,response,right,x,1,1777477329.269876,2.2212910652160645,0,0.5476447494263438,0.9632550746914675,3.3244726229839063,3.416034143814934,80,249253.00000000003,68,75.0,0,-1,-9,0,0,0,-15.0,34.0,-1003.0
1777477331.5414898,response,right,x,1,1777477329.269876,2.271613836288452,0,0.46662805280227104,0.9726882610863485,3.361880851013813,3.4420860594211615,80,249253.00000000003,68,75.0,0,-1,-9,0,0,0,-15.0,34.0,-1003.0
1777477331.591382,response,right,x,1,1777477329.269876,2.3215060234069824,0,0.4644034286289128,0.9726077702987964,3.3485190521356945,3.4287213426647227,80,249252.0,68,75.0,-1,0,-9,0,0,0,6.0,14.0,-955.0
1777477331.641647,response,right,x,1,1777477329.269876,2.3717710971832275,0,0.3846136445481078,0.9934342406599848,3.378994005009484,3.4522010861840453,80,249252.0,68,75.0,-1,0,-9,0,0,0,6.0,14.0,-955.0
1777477331.690998,response,right,x,1,1777477329.269876,2.4211220741271973,0,0.3846136445481078,0.9934342406599848,3.378994005009484,3.4522010861840453,80,249252.0,68,75.0,0,-1,-9,0,0,0,2.0,28.0,-1013.0
1777477331.741848,response,right,x,1,1777477329.269876,2.4719719886779785,0,0.4010234082252556,1.0749976664880136,3.3601581132242333,3.4506672064363877,80,249252.0,68,75.0,0,-1,-9,0,0,0,2.0,28.0,-1013.0
1777477331.792772,response,right,x,1,1777477329.269876,2.5228960514068604,0,0.46509810334191815,0.889303085603513,3.4033374320614915,3.46964543315081,80,249242.0,68,75.0,0,-1,-9,0,0,0,4.0,9.0,-975.0
1777477331.842871,response,right,x,1,1777477329.269876,2.5729949474334717,0,0.4693817162790067,0.9799526390523129,3.373935624181211,3.455445825829111,80,249242.0,68,75.0,0,-1,-9,0,0,0,4.0,9.0,-975.0
1777477331.891348,response,right,x,1,1777477329.269876,2.621471881866455,0,0.6377454300759475,0.8901799048950949,3.3603386480735646,3.4552671969737148,80,249254.0,68,75.0,-1,-1,-9,0,0,0,8.0,-4.0,-991.0
1777477331.94099,response,right,x,1,1777477329.269876,2.671113967895508,0,0.46603351984456004,0.9779326943972101,3.389246792155391,3.4696090931122967,80,249254.0,68,75.0,-1,-1,-9,0,0,0,8.0,-4.0,-991.0
1777477331.9912379,response,right,x,1,1777477329.269876,2.7213618755340576,0,0.3789802854993217,0.998886101746553,3.407578189018489,3.4804999258636475,80,249253.00000000003,68,75.0,0,0,-9,0,0,0,-4.0,25.0,-1000.0
