timestamp,elapsed,target_x,target_y,target_z,pos_x,pos_y,pos_z,marker_id,publish_count,err_x_cm,err_y_cm,err_z_cm,err_3d_cm,cmd_lr,cmd_fb,cmd_ud,vel_x_pub,vel_y_pub,vel_z_pub,tello_height_cm,tello_baro_cm,tello_battery,tello_temp_c,tello_pitch,tello_roll,tello_yaw,tello_vgx,tello_vgy,tello_vgz
1778185498.3600051,7.152557373046875e-06,0.07439837399280824,1.3591796747986546,3.828763191722516,0.0523471235396068,1.296689995926597,3.8614649540251365,2,0,2.2051250453201443,6.24896788720577,-3.270176230262045,7.389602742894776,12,18,30,0.0,0.0,0.0,130,252256.0,62,81.5,0,0,-2,0,0,0
1778185498.432153,0.07215499877929688,0.07439837399280824,1.3591796747986546,3.828763191722516,0.05880977416092792,1.3727192897365952,3.8451522991011338,2,3,1.5588599831880323,-1.3539614937940536,-1.6389107378617762,2.63614957476632,-1,-4,-27,0.08957510112557304,1.0537985233285445,-0.22610037275160827,130,252263.0,62,81.5,0,0,-2,0,0,0
1778185498.504909,0.1449110507965088,0.07439837399280824,1.3591796747986546,3.828763191722516,0.05880977416092792,1.3727192897365952,3.8451522991011338,2,7,1.5588599831880323,-1.3539614937940536,-1.6389107378617762,2.63614957476632,0,1,0,0.0,0.0,0.0,130,252263.0,62,81.5,0,0,-2,0,0,0
1778185498.5755782,0.21558022499084473,0.07439837399280824,1.3591796747986546,3.828763191722516,0.06286730671600271,1.3699711602746554,3.846944437045837,2,10,1.153106727680553,-1.0791485476000728,-1.8181245323320994,2.4082760490187405,0,1,0,0.05741587617702771,-0.03888724459100963,0.025359542758699304,130,252259.0,62,81.5,0,0,-2,0,0,0
1778185498.644692,0.28469395637512207,0.07439837399280824,1.3591796747986546,3.828763191722516,0.13950660393155578,1.4535159129476303,3.8400085093137224,2,14,-6.510822993874754,-9.433623814897562,-1.1245317591206394,11.5173193936715,-30,-1,-30,1.1088866956037005,1.2088010732405696,-0.10035527807853897,130,252261.0,62,81.5,-1,0,-2,0,0,0
1778185498.714781,0.3547830581665039,0.07439837399280824,1.3591796747986546,3.828763191722516,0.060272801232759354,1.3728451734912017,3.8449854093738964,2,17,1.4125572760048888,-1.3665498692547073,-1.6222217651380433,2.5484073572413806,29,2,27,-1.1304725081886986,-1.1509740800580188,0.0710081871927484,130,252261.0,62,81.5,-1,0,-2,0,0,0
1778185498.7844648,0.4244668483734131,0.07439837399280824,1.3591796747986546,3.828763191722516,0.060272801232759354,1.3728451734912017,3.8449854093738964,2,21,1.4125572760048888,-1.3665498692547073,-1.6222217651380433,2.5484073572413806,0,1,-1,0.0,0.0,0.0,130,252261.0,62,81.5,0,0,-2,0,0,0
1778185498.855938,0.4959399700164795,0.07439837399280824,1.3591796747986546,3.828763191722516,0.06411459791465157,1.3714962181980281,3.8465980930795594,2,24,1.028377607815667,-1.2316543399373492,-1.7834901357043353,2.3990352188948476,0,1,0,0.05375162849438674,-0.018873602581823756,0.022563498957224665,130,252262.0,62,81.5,0,-1,-2,0,0,0
1778185498.926234,0.5662360191345215,0.07439837399280824,1.3591796747986546,3.828763191722516,0.14228466510909143,1.3749217410441568,3.8626798051877387,2,28,-6.788629111628319,-1.5742066245502118,-3.391661346522268,7.750288923744618,-30,7,-2,1.1120122421556824,0.04872994839832955,0.22877120848107288,130,252262.0,62,81.5,0,-1,-2,0,0,0
1778185498.99701,0.6370120048522949,0.07439837399280824,1.3591796747986546,3.828763191722516,0.1342669985947471,1.3793793313874585,3.880349922428509,2,31,-5.986862460193887,-2.019965658880385,-5.158673070599296,8.156879993579729,0,9,-3,-0.11328230095325834,0.06298167800978194,0.24966260888589667,130,252266.0,62,81.5,0,-1,-2,0,0,0
1778185499.068223,0.7082250118255615,0.07439837399280824,1.3591796747986546,3.828763191722516,0.061538763747139735,1.3743578704271435,3.8446608250284267,2,35,1.2859610245668507,-1.5178195628488877,-1.5897633305910652,2.546530861655482,26,-11,0,-1.02127740336691,-0.07051325556579896,-0.5011598149967184,130,252273.0,62,81.5,0,0,-2,0,0,0
1778185499.139385,0.7793869972229004,0.07439837399280824,1.3591796747986546,3.828763191722516,0.05539574107134393,1.2968526448646465,3.861239206424318,2,39,1.9002632921464313,6.232702993400818,-3.2476014701801947,7.280419115170725,3,7,30,-0.08632449813612883,-1.0891380437144942,0.23296681933934985,130,252259.0,62,82.0,0,-1,-2,0,0,0
1778185499.209707,0.8497090339660645,0.07439837399280824,1.3591796747986546,3.828763191722516,0.1432817837581759,1.453795424158736,3.840677814178672,2,42,-6.8883409765367665,-9.461574936008144,-1.1914622456155932,11.763937434441768,-30,-6,-30,1.2497653190537785,2.2317723797916855,-0.2923890319153017,130,252259.0,62,82.0,0,-1,-2,0,0,0
1778185499.278754,0.9187560081481934,0.07439837399280824,1.3591796747986546,3.828763191722516,0.14208248431547066,1.4552647076173275,3.839281005692237,2,46,-6.768411032266242,-9.608503281867286,-1.0517813969721068,11.800040988334507,-3,0,-7,-0.01736932656225879,0.021279476414358473,-0.020229829083464646,130,252262.0,62,82.0,0,-1,-2,0,0,0
1778185499.348144,0.9881460666656494,0.07439837399280824,1.3591796747986546,3.828763191722516,0.1432817837581759,1.453795424158736,3.840677814178672,2,49,-6.8883409765367665,-9.461574936008144,-1.1914622456155932,11.763937434441768,-4,1,-6,0.017283447633979838,-0.021174264584627945,0.020129807010949227,130,252261.0,62,82.0,0,0,-2,0,0,0
1778185499.420022,1.0600240230560303,0.07439837399280824,1.3591796747986546,3.828763191722516,0.061538763747139735,1.3743578704271435,3.8446608250284267,2,53,1.2859610245668507,-1.5178195628488877,-1.5897633305910652,2.546530861655482,28,2,26,-1.137247413756125,-1.1051726804829327,0.055413523836464425,130,252261.0,62,82.0,0,0,-2,0,0,0
1778185499.493166,1.1331679821014404,0.07439837399280824,1.3591796747986546,3.828763191722516,0.061538763747139735,1.3743578704271435,3.8446608250284267,2,56,1.2859610245668507,-1.5178195628488877,-1.5897633305910652,2.546530861655482,0,1,-1,0.0,0.0,0.0,130,252267.0,62,82.0,0,0,-2,0,0,0
1778185499.571275,1.2112770080566406,0.07439837399280824,1.3591796747986546,3.828763191722516,0.061538763747139735,1.3743578704271435,3.8446608250284267,2,60,1.2859610245668507,-1.5178195628488877,-1.5897633305910652,2.546530861655482,0,1,-1,0.0,0.0,0.0,130,252265.0,62,82.0,0,-1,-2,0,0,0
1778185499.64128,1.2812819480895996,0.07439837399280824,1.3591796747986546,3.828763191722516,0.1406522507990413,1.4550747239485244,3.8395265201062156,2,64,-6.625387680623307,-9.589504914986978,-1.0763328383699644,11.705249199058859,-30,0,-30,1.1301129179548501,1.1530165368812353,-0.0733420372875647,130,252265.0,62,82.0,0,-1,-2,0,0,0
1778185499.711236,1.3512380123138428,0.07439837399280824,1.3591796747986546,3.828763191722516,0.06130410849680967,1.4511359855787331,3.8235949499174566,2,67,1.309426549599857,-9.19563107800785,0.516824180505937,9.302759593001229,28,-5,-5,-1.1342568107874438,-0.05630302981548156,-0.22773679973891317,130,252267.0,62,82.0,0,-1,-2,0,0,0
1778185499.7805529,1.4205548763275146,0.07439837399280824,1.3591796747986546,3.828763191722516,0.06007846380911874,1.3742467062800925,3.844815825728911,2,71,1.43199101836895,-1.5067031481437843,-1.6052634006395117,2.6263326595746515,1,8,26,-0.017681767707338678,-1.1092434776546614,0.30614304489119615,130,252266.0,62,82.0,0,0,-2,0,0,0
1778185499.8516102,1.491612195968628,0.07439837399280824,1.3591796747986546,3.828763191722516,0.06368292354816774,1.4409041262379816,3.808120399089816,2,74,1.0715450444640506,-8.172445143932695,2.064279263269997,8.496959296693792,0,-13,-29,0.05072608645040246,0.9380795714579919,-0.5164200792322508,130,252266.0,62,82.0,0,0,-2,0,0,0
1778185499.922664,1.5626659393310547,0.07439837399280824,1.3591796747986546,3.828763191722516,0.14035994346815062,1.4453753368855384,3.8238848216702093,2,78,-6.596156947534237,-8.61956620868838,0.4878370052306735,10.864814450607943,-30,5,-8,1.0791411724625577,0.06292716521282146,0.22186617951967702,130,252261.0,62,82.0,0,0,-2,0,0,0
1778185499.9932969,1.6332988739013672,0.07439837399280824,1.3591796747986546,3.828763191722516,0.05493481566129732,1.2917506572112507,3.8640557234216972,2,81,1.9463558331510922,6.742901758740394,-3.529253169918123,7.855612840169932,30,16,30,-1.2094234555951475,-2.17497234978054,0.5687276338702777,130,252261.0,62,82.0,0,0,-2,0,0,0
1778185500.062891,1.7028930187225342,0.07439837399280824,1.3591796747986546,3.828763191722516,0.05493481566129732,1.2917506572112507,3.8640557234216972,2,85,1.9463558331510922,6.742901758740394,-3.529253169918123,7.855612840169932,1,2,4,0.0,0.0,0.0,130,252257.00000000003,62,82.0,0,0,-2,0,0,0
1778185500.1323578,1.772359848022461,0.07439837399280824,1.3591796747986546,3.828763191722516,0.13532973829833983,1.5181528618249587,3.7999415101364815,2,88,-6.093136430553159,-15.897318702630404,2.8821681586034487,17.26725070151019,-30,-24,-30,1.1573138352109482,3.259141188612544,-0.9229471667462922,130,252266.0,62,81.0,0,0,-2,0,0,0
1778185500.2038422,1.8438441753387451,0.07439837399280824,1.3591796747986546,3.828763191722516,0.13952966036234504,1.4424378741835784,3.8246211329138826,2,92,-6.51312863695368,-8.325819938492373,0.41420588086333865,10.57883210952159,-5,8,19,0.058753047299760594,-1.0591830473045853,0.3452452265264454,130,252266.0,62,81.0,0,0,-2,0,0,0
