timestamp,elapsed,target_x,target_y,target_z,pos_x,pos_y,pos_z,marker_id,publish_count,err_x_cm,err_y_cm,err_z_cm,err_3d_cm,cmd_lr,cmd_fb,cmd_ud,vel_x_pub,vel_y_pub,vel_z_pub,tello_height_cm,tello_baro_cm,tello_battery,tello_temp_c,tello_pitch,tello_roll,tello_yaw,tello_vgx,tello_vgy,tello_vgz
1778078524.5934238,3.814697265625e-06,-0.02807285961662173,1.4138448112550805,2.9289105199027077,0.07018942774881266,1.4013401973882806,2.9624662977381475,0,0,-9.82622873654344,1.2504613866799907,-3.3555777835439837,10.45840939741143,-30,18,7,0.0,0.0,0.0,140,247867.99999999997,63,68.0,0,0,5,0,0,0
1778078524.660388,0.06696796417236328,-0.02807285961662173,1.4138448112550805,2.9289105199027077,-0.013674043309132088,1.5392479747552543,2.89021667591332,0,3,-1.4398816307489644,-12.540316350017378,3.8693843989387577,13.202459198794447,29,-28,-30,-1.252363715739144,2.0594269985950953,-1.0789298810058852,140,247867.0,63,68.0,0,0,5,0,0,0
1778078524.7322361,0.13881611824035645,-0.02807285961662173,1.4138448112550805,2.9289105199027077,-0.020552776547077847,1.4840302354472743,2.9122263546565756,0,7,-0.7520083069543885,-7.018542419219376,1.6684165246132032,7.253210867175486,1,6,14,-0.09573987428314583,-0.7685338617847436,0.306336036447461,140,247879.0,63,68.0,0,0,5,0,0,0
1778078524.800682,0.2072620391845703,-0.02807285961662173,1.4138448112550805,2.9289105199027077,0.005695034176383897,1.4536078460450526,2.9236075904585554,0,10,-3.3767893793005626,-3.9763034789972007,0.5302929444152227,5.243558569915939,-11,3,8,0.38348246851488416,-0.4444733737605372,0.1662807022679403,140,247885.0,63,68.0,0,0,5,0,0,0
1778078524.869004,0.27558398246765137,-0.02807285961662173,1.4138448112550805,2.9289105199027077,-0.0171249572845541,1.5332327735559925,2.881745573612129,0,13,-1.0947902332067634,-11.938796230091198,4.716494629057877,12.88327375569954,7,-18,-30,-0.33400676802161505,1.1654371009475946,-0.6127170105946484,140,247877.0,63,68.0,0,-1,5,0,0,0
1778078524.940008,0.3465878963470459,-0.02807285961662173,1.4138448112550805,2.9289105199027077,0.010227822248866144,1.451630755176439,2.92343281247778,0,17,-3.830068186548788,-3.7785943921358367,0.547770742492748,5.408072732519837,-12,14,26,0.38522918018126423,-1.1492608494534646,0.5871118447985866,140,247877.0,63,68.0,0,-1,5,0,0,0
1778078525.012251,0.41883087158203125,-0.02807285961662173,1.4138448112550805,2.9289105199027077,0.010600791635318248,1.5037084383478008,2.893182410050713,0,21,-3.8673651251939978,-8.986362709272022,3.5728109851994816,10.415191121152011,-2,-12,-24,0.00516270800363555,0.7208684720136224,-0.41873140369249173,140,247877.0,63,68.0,0,0,5,0,0,0
1778078525.083589,0.49016904830932617,-0.02807285961662173,1.4138448112550805,2.9289105199027077,0.036451924935770416,1.4748111576049778,2.903716419468722,0,24,-6.4524784552392145,-6.096634634989728,2.519410043398551,9.227722311310634,-13,2,5,0.36237446044175653,-0.4050745627168021,0.14766300319501793,140,247867.0,63,68.0,0,0,5,0,0,0
1778078525.155426,0.5620059967041016,-0.02807285961662173,1.4138448112550805,2.9289105199027077,-0.01636382971501223,1.4763393466125114,2.9028576193228095,0,28,-1.1709029901609502,-6.249453535743088,2.6052900579898175,6.871260407963027,17,-1,-5,-0.7352171247661721,0.02127302233295786,-0.011954852831347763,140,247867.0,63,68.0,0,0,5,0,0,0
1778078525.226283,0.6328630447387695,-0.02807285961662173,1.4138448112550805,2.9289105199027077,-0.02073206486704843,1.4768955962594084,2.902748533415802,0,31,-0.7340794749573301,-6.305078500432781,2.6161986486905597,6.865666969900566,0,-1,-5,-0.06164856246761749,0.007850307941487758,-0.0015395209091133787,140,247863.0,63,68.0,0,-1,5,0,0,0
1778078525.2968478,0.703427791595459,-0.02807285961662173,1.4138448112550805,2.9289105199027077,0.04013406603284672,1.4206693759916185,2.9341514133039377,0,35,-6.820692564946845,-0.6824564736537919,-0.5240893401230018,6.87475552586299,-25,11,18,0.8625572061288436,-0.7968032590264967,0.4450222141647017,140,247867.0,63,68.0,0,-1,5,0,0,0
1778078525.3678038,0.7743837833404541,-0.02807285961662173,1.4138448112550805,2.9289105199027077,-0.01963502381000847,1.477908149832305,2.902031684452959,0,38,-0.843783580661326,-6.406333857722446,2.6878835449748895,6.998414261741111,20,-12,-25,-0.8423402784313984,0.8066799213573655,-0.45267112841452856,140,247867.99999999997,63,68.0,0,0,5,0,0,0
1778078525.438505,0.8450849056243896,-0.02807285961662173,1.4138448112550805,2.9289105199027077,-0.021601231101066837,1.476979656835573,2.9013641531917878,0,42,-0.6471628515554894,-6.313484558049254,2.7546366710919923,6.918593080307916,0,-2,-4,-0.027810128432786144,-0.013132648630429039,-0.00944159356467107,140,247867.99999999997,63,68.0,0,0,5,0,0,0
1778078525.5105631,0.9171431064605713,-0.02807285961662173,1.4138448112550805,2.9289105199027077,0.007506683513375372,1.4470063803403064,2.9129661072401047,0,45,-3.55795431299971,-3.316156908522583,1.5944412662602936,5.118415622718521,-12,2,7,0.40395006087671614,-0.4159592683060249,0.16100810058653933,140,247861.0,63,68.0,0,0,5,0,0,0
1778078525.58035,0.9869298934936523,-0.02807285961662173,1.4138448112550805,2.9289105199027077,0.007506683513375372,1.4470063803403064,2.9129661072401047,0,49,-3.55795431299971,-3.316156908522583,1.5944412662602936,5.118415622718521,-2,-1,-2,0.0,0.0,0.0,140,247861.0,63,68.0,0,0,5,0,0,0
1778078525.6534069,1.0599868297576904,-0.02807285961662173,1.4138448112550805,2.9289105199027077,-0.0278787897679982,1.4234858201330027,2.93206673360163,0,53,-0.019406984862353066,-0.9641008877922186,-0.3156213698922272,1.0146349107121426,12,6,6,-0.48435473879558094,-0.32194835165680935,0.26144849946202026,140,247860.0,63,68.0,0,0,5,0,0,0
1778078525.723849,1.1304290294647217,-0.02807285961662173,1.4138448112550805,2.9289105199027077,-0.15538860682546063,1.6700001746438526,2.734275440878839,0,56,12.73157472088389,-25.61553633887721,19.463507902386866,34.59879819687476,30,-30,-30,-1.810133947942783,3.499526640793471,-2.8078523036674596,140,247857.00000000003,63,68.0,0,0,5,0,0,0
1778078525.793159,1.1997389793395996,-0.02807285961662173,1.4138448112550805,2.9289105199027077,-0.08021622365327026,1.4795855403451426,2.895975097940316,0,60,5.214336403664853,-6.574072909006201,3.2935421962391853,9.014164350727237,-24,30,30,1.0845828529366364,-2.747291473193342,2.3329934209068943,140,247869.0,63,68.0,0,0,5,0,0,0
1778078525.864463,1.271043062210083,-0.02807285961662173,1.4138448112550805,2.9289105199027077,-0.08425830351230351,1.4753824801300706,2.8860078034223147,0,63,5.618544389568178,-6.1537668874990015,4.290271648039301,9.372476661864624,4,-6,-3,-0.05668791598337051,-0.0589455757071643,-0.13978574741793864,140,247857.00000000003,63,68.0,0,0,5,0,0,0
1778078525.934738,1.341317892074585,-0.02807285961662173,1.4138448112550805,2.9289105199027077,-0.08472722633887612,1.4750063853813304,2.8851486853551234,0,67,5.6654366722254395,-6.11615741262499,4.376183454758431,9.415706867394816,3,-3,-5,-0.006672699563652453,-0.005351770320401677,-0.012225117710676492,140,247857.00000000003,63,68.0,0,0,5,0,0,0
1778078526.0046809,1.4112608432769775,-0.02807285961662173,1.4138448112550805,2.9289105199027077,-0.06955051681787655,1.3874452360752008,2.9270234965116164,0,70,4.147765720125482,2.6399575179879786,0.18870233910912582,4.920258604851432,-3,14,30,0.2169869766730749,-1.2518938334866034,0.5986995177730021,140,247861.0,63,68.0,0,0,5,0,0,0
1778078526.0746958,1.4812757968902588,-0.02807285961662173,1.4138448112550805,2.9289105199027077,-0.03181803648858349,1.4687871128066146,2.889287369729682,0,74,0.37451768719617556,-5.494230155153401,3.9623150173025756,6.784303117650422,-13,-16,-30,0.5389203074775091,1.1617786277585125,-0.5389723885323874,140,247859.0,63,68.0,0,0,5,0,0,0
1778078526.143876,1.5504560470581055,-0.02807285961662173,1.4138448112550805,2.9289105199027077,-0.0056970183332649,1.3853327593433704,2.940430179827728,0,77,-2.237584128335683,2.8512051911710135,-1.1519659925020242,3.803048700900564,-10,18,30,0.37757912253776454,-1.2063320566312685,0.7392689383742059,140,247859.0,63,68.0,0,0,5,0,0,0
1778078526.214588,1.6211678981781006,-0.02807285961662173,1.4138448112550805,2.9289105199027077,-0.0056970183332649,1.3853327593433704,2.940430179827728,0,81,-2.237584128335683,2.8512051911710135,-1.1519659925020242,3.803048700900564,-1,0,1,0.0,0.0,0.0,140,247859.0,63,68.5,0,0,5,0,0,0
1778078526.285999,1.6925790309906006,-0.02807285961662173,1.4138448112550805,2.9289105199027077,-0.05973569013902134,1.4971200645353724,2.876731537173429,0,84,3.1662830522399608,-8.327525328029184,5.217898272927846,10.32470284523932,20,-25,-30,-0.7567261528765072,1.565404451509197,-0.8919987702974614,140,247866.0,63,68.5,0,0,5,0,0,0
1778078526.358783,1.7653629779815674,-0.02807285961662173,1.4138448112550805,2.9289105199027077,-0.0030605777615334076,1.44629099405625,2.9192269351292244,0,88,-2.5012281855088325,-3.244618280116951,0.96835847734833,4.209680315689692,-21,13,14,0.7786759954708401,-0.6983555108028247,0.5838567391937298,140,247866.0,63,68.5,0,0,5,0,0,0
1778078526.4299798,1.836559772491455,-0.02807285961662173,1.4138448112550805,2.9289105199027077,-0.0030605777615334076,1.44629099405625,2.9192269351292244,0,91,-2.5012281855088325,-3.244618280116951,0.96835847734833,4.209680315689692,-1,0,-3,0.0,0.0,0.0,140,247859.0,63,68.5,0,0,5,0,0,0
1778078526.502651,1.9092309474945068,-0.02807285961662173,1.4138448112550805,2.9289105199027077,-0.00396788404602896,1.4415267999661707,2.910147840210745,0,95,-2.4104975570592773,-2.7681988711090177,1.876267969196288,4.122354297586507,-1,-4,-1,-0.012485091708747667,-0.06555823667195781,-0.124933922123845,140,247864.0,63,68.5,0,0,5,0,0,0
1778078526.573644,1.9802238941192627,-0.02807285961662173,1.4138448112550805,2.9289105199027077,-0.033039375188401277,1.4714944071991671,2.897515937156416,0,99,0.4966515571779545,-5.7649595944086585,3.139458274629181,6.5831314852849,10,-6,-15,-0.409498302641728,0.42212091000243734,-0.17793180386069615,140,247864.0,63,68.5,0,0,5,0,0,0
1778078526.6428952,2.0494751930236816,-0.02807285961662173,1.4138448112550805,2.9289105199027077,-0.033039375188401277,1.4714944071991671,2.897515937156416,0,102,0.4966515571779545,-5.7649595944086585,3.139458274629181,6.5831314852849,0,-2,-5,0.0,0.0,0.0,140,247864.0,63,68.5,0,0,5,0,0,0
1778078526.713634,2.1202139854431152,-0.02807285961662173,1.4138448112550805,2.9289105199027077,-0.012677358772324633,1.3846905104539393,2.9400829262883836,0,106,-1.5395500844297099,2.915430080114123,-1.117240638567596,3.4811167258465634,-8,15,30,0.28784795046179956,-1.2271045882510818,0.6017488802971653,140,247864.0,63,68.5,0,0,5,0,0,0
1778078526.784495,2.191075086593628,-0.02807285961662173,1.4138448112550805,2.9289105199027077,0.021321129011741886,1.4148601763402362,2.9300686562115295,0,109,-4.939398862836362,-0.10153650851556506,-0.11581363088217778,4.9417996302813405,-15,-3,-11,0.4797905653745339,0.4257577908959519,-0.14132252976965948,140,247855.00000000003,63,68.5,0,0,5,0,0,0
1778078526.853781,2.2603609561920166,-0.02807285961662173,1.4138448112550805,2.9289105199027077,0.019259061589684424,1.3551912389219147,2.9608180710338057,0,113,-4.733192120630616,5.8653572333165815,-3.1907551131098,8.184524501585612,-2,12,24,-0.02976173112945123,-0.8611992281281715,0.4438049922807253,140,247855.00000000003,63,68.5,0,0,5,0,0,0
1778078526.922944,2.329524040222168,-0.02807285961662173,1.4138448112550805,2.9289105199027077,-0.009922824077396909,1.38904254646032,2.9496683900353,0,116,-1.8150035539224822,2.4802264794760553,-2.0757870132592338,3.7087266028464705,9,-3,-11,-0.42192863543157805,0.48944184622605785,-0.16120855735185266,140,247861.0,63,68.5,0,0,5,0,0,0
1778078526.995683,2.4022629261016846,-0.02807285961662173,1.4138448112550805,2.9289105199027077,-0.06569561829217127,1.5034047546769465,2.884414863762525,0,120,3.762275867554954,-8.95599434218659,4.449565614018258,10.684717521503236,21,-25,-30,-0.766753484610081,1.5722293080767553,-0.8970927377257291,140,247863.0,63,68.5,0,0,5,0,0,0
1778078527.067482,2.474061965942383,-0.02807285961662173,1.4138448112550805,2.9289105199027077,-0.0397592865440215,1.4244634155273377,2.9368025660368104,0,123,1.1686426927399767,-1.0618604272257137,-0.789204613410277,1.765252738853727,-8,18,26,0.36123507787423276,-1.0994762510022038,0.7296434937085349,140,247863.0,63,68.5,0,0,5,0,0,0
1778078527.137063,2.543642997741699,-0.02807285961662173,1.4138448112550805,2.9289105199027077,-0.04357521363681445,1.4275982277640469,2.9370642808130447,0,127,1.550235402019272,-1.3753416508966332,-0.8153760910337038,2.2270232661995992,2,0,-3,-0.05484148472817616,0.045052683980751095,0.0037612948452546333,140,247857.00000000003,63,68.5,0,0,5,0,0,0
1778078527.207927,2.614506959915161,-0.02807285961662173,1.4138448112550805,2.9289105199027077,-0.039473293052003935,1.4826068544835822,2.90576870109082,0,130,1.1400433435382205,-6.876204322850166,2.3141818811887482,7.344203326021918,0,-12,-25,0.057884437434782,0.7762567182580667,-0.4416289854865681,140,247867.99999999997,63,68.5,0,0,5,0,0,0
1778078527.2779899,2.684569835662842,-0.02807285961662173,1.4138448112550805,2.9289105199027077,-0.07018769351624753,1.4619178966820416,2.9238318970484327,0,134,4.21148338996258,-4.807308542696109,0.5078622854274961,6.411297206460588,13,5,2,-0.43838338258989246,-0.2952913020020513,0.2578140814925154,140,247867.99999999997,63,68.5,0,0,5,0,0,0
1778078527.349431,2.7560110092163086,-0.02807285961662173,1.4138448112550805,2.9289105199027077,-0.042082303373945196,1.4341695726566228,2.9461911158080127,0,137,1.4009443757323465,-2.032476140154227,-1.7280595905305063,3.0132697112301083,-9,8,7,0.39340605346114826,-0.3884080096283958,0.31297384473739526,140,247858.0,63,68.5,0,0,5,0,0,0
1778078527.421195,2.827775001525879,-0.02807285961662173,1.4138448112550805,2.9289105199027077,-0.0362866909826042,1.486149076003584,2.905652007157017,0,141,0.8213831365982471,-7.230426474850349,2.3258512745690574,7.639589086902471,-1,-15,-24,0.0807593363304023,0.724311756831139,-0.5648948357850685,140,247857.00000000003,63,68.5,0,0,4,0,0,0
1778078527.491095,2.897675037384033,-0.02807285961662173,1.4138448112550805,2.9289105199027077,-0.0362866909826042,1.486149076003584,2.905652007157017,0,145,0.8213831365982471,-7.230426474850349,2.3258512745690574,7.639589086902471,0,-1,-6,0.0,0.0,0.0,140,247857.00000000003,63,68.5,0,0,4,0,0,0
1778078527.5628102,2.9693901538848877,-0.02807285961662173,1.4138448112550805,2.9289105199027077,-0.07731209178243886,1.4111354176906241,2.953606134871575,0,148,4.923923216581713,0.27093935644564304,-2.4695614968867297,5.515175605959343,17,17,25,-0.5720607146938935,-1.045995070119786,0.6686753093957045,140,247856.0,63,68.5,0,0,4,0,0,0
1778078527.633645,3.040225028991699,-0.02807285961662173,1.4138448112550805,2.9289105199027077,-0.04101282844495526,1.495156064081824,2.915030993250991,0,152,1.293996882833353,-8.131125282674345,1.3879526651716656,8.349613098586396,-12,-14,-30,0.5124490342186407,1.186148013453904,-0.544578381234056,140,247871.99999999997,63,68.5,0,0,4,0,0,0
1778078527.7047172,3.111297130584717,-0.02807285961662173,1.4138448112550805,2.9289105199027077,-0.06307786819196419,1.5204494583100994,2.8924688722236547,0,155,3.500500857534246,-10.660464705501882,3.6441647679053,11.797412887853488,9,-10,-17,-0.31045993086514684,0.3558835838725261,-0.3174539731009297,140,247866.0,63,68.5,0,0,4,0,0,0
1778078527.774407,3.1809868812561035,-0.02807285961662173,1.4138448112550805,2.9289105199027077,-0.06977894733381708,1.4700138009227026,2.922942859073146,0,159,4.170608771719535,-5.616898966762207,0.5967660829561794,7.021371752537045,4,10,12,-0.09615587769069497,-0.7237170014457329,0.4372807558630461,140,247866.0,63,68.5,0,0,4,0,0,0
1778078527.845967,3.252547025680542,-0.02807285961662173,1.4138448112550805,2.9289105199027077,-0.04184927351174772,1.442579036667465,2.945275088225601,0,162,1.3776413895125987,-2.873422541238435,-1.6364568322893458,3.582240062103855,-8,8,5,0.3902964987942521,-0.3833805042722704,0.31207635663782396,140,247864.0,63,68.5,0,0,4,0,0,0
1778078527.919135,3.3257150650024414,-0.02807285961662173,1.4138448112550805,2.9289105199027077,-0.015215796062768497,1.4149137716473894,2.9672362095064,0,166,-1.2857063553853234,-0.10689603923088598,-3.8325689603692314,4.043890754145957,-9,9,7,0.3640042523458428,-0.3781058680329458,0.3001463683368898,140,247873.99999999997,63,68.5,0,0,4,0,0,0
1778078527.990826,3.3974058628082275,-0.02807285961662173,1.4138448112550805,2.9289105199027077,-0.06615240267213762,1.5252130157178976,2.9012755149125944,0,169,3.807954305551589,-11.136820446281703,2.7635004990113288,12.089922276587346,20,-25,-30,-0.7105041116624043,1.538541171899275,-0.9200719843081722,140,247873.99999999997,63,68.5,0,0,4,0,0,0
1778078528.061014,3.4675939083099365,-0.02807285961662173,1.4138448112550805,2.9289105199027077,-0.03945034191671229,1.500050114217844,2.9233640365244793,0,173,1.1377482300090558,-8.62053029627634,0.5546483378228384,8.71295864804583,-8,7,1,0.38043602104257446,-0.35850694117762466,0.31470489673839225,140,247867.0,63,68.5,0,0,4,0,0,0
1778078528.131008,3.537587881088257,-0.02807285961662173,1.4138448112550805,2.9289105199027077,-0.047959808187598964,1.4465583245961264,2.9541645681418554,0,177,1.9886948570977232,-3.2713513341045886,-2.5254048239147675,4.586318383022137,4,12,15,-0.1215742717996194,-0.7642342261544823,0.4400454838436619,140,247862.0,63,68.5,0,0,5,0,0,0
1778078528.200421,3.6070010662078857,-0.02807285961662173,1.4138448112550805,2.9289105199027077,-0.050577025865844456,1.4460503493077121,2.9541749470645664,0,180,2.2504166249222726,-3.22055380526316,-2.5264427161858727,4.6711084976149095,2,1,-3,-0.03770490683772681,-0.007318138298060021,0.00014952379282357406,140,247862.0,63,68.5,0,0,5,0,0,0
1778078528.270346,3.6769258975982666,-0.02807285961662173,1.4138448112550805,2.9289105199027077,-0.04131018175277974,1.4990322130902758,2.9228038814249127,0,183,1.3237322136158012,-8.518740183519524,0.6106638477795023,8.6425755202173,-2,-12,-26,0.13252579847249368,0.7576974120505644,-0.4486398467593485,140,247859.0,63,68.5,0,-1,5,0,0,0
1778078528.340786,3.747365951538086,-0.02807285961662173,1.4138448112550805,2.9289105199027077,-0.08445591996990708,1.4207249280766558,2.9710376125301394,0,187,5.638306035328535,-0.68801168215753,-4.212709262743175,7.071829632790198,18,19,25,-0.6125171092854219,-1.1116868973513563,0.6847486395515171,140,247866.0,63,68.5,0,0,5,0,0,0
1778078528.4121401,3.8187201023101807,-0.02807285961662173,1.4138448112550805,2.9289105199027077,-0.04823091198156494,1.4487698039348453,2.9633198510561245,0,191,2.015805236494321,-3.492499267976479,-3.4409331153416822,5.301041651651984,-11,-1,-14,0.507679057158775,0.3930377638122955,-0.10816135278051968,140,247866.0,63,68.5,0,0,5,0,0,0
1778078528.483673,3.8902530670166016,-0.02807285961662173,1.4138448112550805,2.9289105199027077,-0.07759426913557158,1.4771222385480853,2.939980294904111,0,194,4.952140951894984,-6.327742729300478,-1.1069775001403492,8.111068193614662,13,-7,-16,-0.4104870708842708,0.3963548096965013,-0.3262769304725649,140,247857.00000000003,63,68.5,0,0,5,0,0,0
1778078528.5538182,3.9603981971740723,-0.02807285961662173,1.4138448112550805,2.9289105199027077,-0.05483455424344784,1.449291831516919,2.9629701843513976,0,198,2.6761694626826107,-3.5447020261838436,-3.405966444868991,5.59708878534192,-6,9,5,0.32446607257025306,-0.3967546566481396,0.3277474772044159,140,247854.0,63,68.5,0,0,5,0,0,0
1778078528.6247838,4.0313637256622314,-0.02807285961662173,1.4138448112550805,2.9289105199027077,-0.07528769420083589,1.5340729528435078,2.917753231822702,0,201,4.721483458421416,-12.02281415884272,1.115728808000549,12.964772158399793,10,-16,-30,-0.2882123249571899,1.1946803347027108,-0.637167840386618,140,247854.0,63,68.5,0,0,5,0,0,0
1778078528.6956851,4.102265119552612,-0.02807285961662173,1.4138448112550805,2.9289105199027077,-0.0728762879517511,1.5343481305323583,2.9181754282962182,0,205,4.480342833512937,-12.050331927727775,1.0735091606489444,12.90102295913868,2,0,-10,0.034010702988618385,0.0038811322845922307,0.005954699200537503,140,247854.0,63,68.5,0,0,5,0,0,0
1778078528.7671192,4.173699140548706,-0.02807285961662173,1.4138448112550805,2.9289105199027077,-0.024358911816351053,1.4214161768436409,2.984799279877754,0,208,-0.37139478002706783,-0.7571365588560308,-5.588875997504639,5.652143378124017,-17,26,30,0.6791914477004332,-1.5809267365040662,0.9326627656194665,140,247858.0,63,68.5,0,0,5,0,0,0
1778078528.8386922,4.245272159576416,-0.02807285961662173,1.4138448112550805,2.9289105199027077,-0.05780148201802409,1.454243068350729,2.971891195725797,0,212,2.972862240140236,-4.039825709564848,-4.298067582308951,6.6054134317700255,13,-2,-16,-0.4672510766763315,0.4586489707019209,-0.18034846548752442,140,247869.0,63,68.5,0,0,5,0,0,0
1778078528.910412,4.3169920444488525,-0.02807285961662173,1.4138448112550805,2.9289105199027077,-0.06445843606764505,1.394265115953469,3.0036888690607113,0,215,3.638557645102332,1.9579695301611633,-7.477834915800363,8.543463082716233,4,15,20,-0.0928188055720007,-0.8362806563889357,0.443359235607678,140,247852.0,63,68.5,0,0,5,0,0,0
1778078528.9823518,4.388931751251221,-0.02807285961662173,1.4138448112550805,2.9289105199027077,-0.08554601719456291,1.4865864798857809,2.957520736371269,0,219,5.747315757794118,-7.274166863070031,-2.8610216468561323,9.702091879350249,11,-14,-30,-0.29312853866432054,1.283315821482787,-0.6417614797385095,140,247852.0,63,68.5,0,0,5,0,0,0
1778078529.0535522,4.460132122039795,-0.02807285961662173,1.4138448112550805,2.9289105199027077,-0.11875752623404535,1.459022472638798,2.9646330479526335,0,223,9.068466661742363,-4.517766138371737,-3.5722528049925817,10.742824981303954,17,4,4,-0.466451349503534,-0.38713291717023235,0.09989149638678332,140,247860.0,63,68.5,0,0,5,0,0,0
1778078529.123486,4.530066013336182,-0.02807285961662173,1.4138448112550805,2.9289105199027077,-0.08341887745714632,1.4854100656605227,2.957929682867516,0,226,5.534601784052459,-7.156525440544215,-2.901916296480822,9.500988973837101,-8,0,-16,0.5053150642959414,0.3773219612489681,-0.09585288278480136,140,247858.0,63,68.5,-1,0,5,0,0,0
1778078529.194335,4.60091495513916,-0.02807285961662173,1.4138448112550805,2.9289105199027077,-0.08509609869356159,1.484853762600312,2.9580049913252804,0,230,5.7023239076939864,-7.100895134523144,-2.909447142257271,9.560548746454979,4,1,-7,-0.023673200950261163,-0.007851960044198124,0.0010629440023806134,140,247858.0,63,68.5,-1,0,5,0,0,0
1778078529.2651331,4.67171311378479,-0.02807285961662173,1.4138448112550805,2.9289105199027077,-0.05898076229744055,1.4526627515221353,2.9707754233643957,0,233,3.0907902680818817,-3.8817940267054762,-4.186490346168803,6.492149934004958,-6,6,6,0.3688702770765218,-0.454687123139801,0.18037802512683843,140,247858.0,63,68.5,-1,0,5,0,0,0
1778078529.335506,4.742085933685303,-0.02807285961662173,1.4138448112550805,2.9289105199027077,-0.09875378370989753,1.4293816741042118,2.9883735739648047,0,237,7.06809240932758,-1.553686284913125,-5.9463054062097065,9.366451802184223,18,9,4,-0.565175894168868,-0.3308248475879805,0.2500702774919046,140,247857.00000000003,63,68.5,0,0,4,0,0,0
1778078529.4062521,4.8128321170806885,-0.02807285961662173,1.4138448112550805,2.9289105199027077,-0.06087558920226033,1.4516169486004378,2.9702385129442965,0,240,3.2802729585638595,-3.7772137345357226,-4.132799304158885,6.489034162917218,-11,-4,-12,0.5354097237435952,0.3142964528836508,-0.25633977905430066,140,247863.0,63,68.5,0,0,4,0,0,0
1778078529.477451,4.884031057357788,-0.02807285961662173,1.4138448112550805,2.9289105199027077,-0.06495388602398555,1.3925634063948262,3.0018374591615564,0,244,3.688102640736382,2.1281404860254316,-7.292693925884874,8.444789382424252,4,15,19,-0.05728030228895086,-0.8294160274827221,0.443812029986398,140,247863.0,63,68.5,0,0,4,0,0,0
1778078529.548695,4.955275058746338,-0.02807285961662173,1.4138448112550805,2.9289105199027077,-0.11818505194221371,1.5132006055126994,2.9322284429186727,0,247,9.011219232559197,-9.935579425761887,-0.33179230159650075,13.417447473877676,24,-24,-30,-0.7471669878270392,1.6932962321970557,-0.9770509079529489,140,247863.0,63,68.5,0,0,4,0,0,0
1778078529.619083,5.025662899017334,-0.02807285961662173,1.4138448112550805,2.9289105199027077,-0.06280301432872773,1.4483894623303342,2.9604160238130848,0,251,3.4730154712105996,-3.454465107525362,-3.1505503910377097,5.824185214160541,-17,11,18,0.7868125716070112,-0.9207718681641555,0.40046094305335606,140,247869.0,63,68.5,0,0,4,0,0,0
1778078529.691523,5.098103046417236,-0.02807285961662173,1.4138448112550805,2.9289105199027077,-0.09229300564998236,1.4829249138240974,2.9462083442765143,0,255,6.422014603336063,-6.908010256901687,-1.729782437380667,9.589318252909909,14,-3,-19,-0.407094579176607,0.4767446330984385,-0.1961299092634036,140,247861.0,63,68.5,0,0,5,0,0,0
1778078529.7619882,5.168568134307861,-0.02807285961662173,1.4138448112550805,2.9289105199027077,-0.1242057067910484,1.4570338214032192,2.953197745771797,0,258,9.613284717442667,-4.31890101481387,-2.428722586908938,10.815121008964192,17,3,3,-0.45288670029902656,-0.3674314926146972,0.0991895661314092,140,247861.0,63,68.5,0,0,5,0,0,0
1778078529.8318982,5.238478183746338,-0.02807285961662173,1.4138448112550805,2.9289105199027077,-0.07041768010926738,1.392519119538297,2.990442041150886,0,262,4.234482049264566,2.1325691716783446,-6.15315212481784,7.767880699952014,-16,17,22,0.7693890522723272,-0.9228244348718059,0.5327459453717792,140,247865.0,63,68.5,0,0,5,0,0,0
1778078529.9019892,5.3085691928863525,-0.02807285961662173,1.4138448112550805,2.9289105199027077,-0.12552674852307633,1.4574797477235797,2.9526583090963516,0,265,9.74538889064546,-4.363493646849914,-2.3747789193643953,10.93856738114608,26,-11,-28,-0.7862501780181592,0.9268040078509421,-0.5390667436255228,140,247869.0,63,68.5,0,0,5,0,0,0
1778078529.9712489,5.37782883644104,-0.02807285961662173,1.4138448112550805,2.9289105199027077,-0.08865065008376287,1.4790225800587784,2.9357666971490515,0,269,6.0577790467141135,-6.5177768803697855,-0.6856177246343798,8.9245825731753,-8,-5,-14,0.5324326916322641,0.31104451639559,-0.24388823101525953,140,247869.0,63,68.5,0,0,5,0,0,0
1778078530.042853,5.449433088302612,-0.02807285961662173,1.4138448112550805,2.9289105199027077,-0.1022245542117121,1.4249550543423526,2.9663305611013597,0,272,7.415169459509037,-1.1110243087272043,-3.7420041198652054,8.379839375603,9,13,15,-0.18956840934796382,-0.7550882009206794,0.42684426074858434,140,247869.0,63,68.5,0,0,5,0,0,0
1778078530.1141288,5.520708799362183,-0.02807285961662173,1.4138448112550805,2.9289105199027077,-0.1022245542117121,1.4249550543423526,2.9663305611013597,0,276,7.415169459509037,-1.1110243087272043,-3.7420041198652054,8.379839375603,5,2,-3,0.0,0.0,0.0,140,247865.0,63,68.5,0,0,5,0,0,0
1778078530.1844711,5.59105110168457,-0.02807285961662173,1.4138448112550805,2.9289105199027077,-0.08946261819794568,1.4808317131956406,2.935341192016041,0,279,6.138975858132395,-6.698690194056001,-0.6430672113333369,9.108952208732155,0,-10,-26,0.1814261915294846,0.7943535683150965,-0.440550963818194,140,247865.0,63,68.5,0,0,5,0,0,0
1778078530.254123,5.66070294380188,-0.02807285961662173,1.4138448112550805,2.9289105199027077,-0.09938996404569334,1.4306030839098458,2.9757480953468964,0,283,7.131710442907161,-1.675827265476526,-4.683757544418876,8.695244424401555,8,17,14,-0.142528116213032,-0.7211385622967199,0.5801268437782444,140,247864.0,63,68.5,0,0,5,0,0,0
1778078530.323201,5.729780912399292,-0.02807285961662173,1.4138448112550805,2.9289105199027077,-0.0942596235849508,1.4820990723570069,2.9355728087791984,0,286,6.618676396832907,-6.825426110192634,-0.6662288876490674,9.53085409406893,3,-13,-25,0.07426883802333958,0.7454763000817353,-0.5815933413132127,140,247867.99999999997,63,68.5,0,0,5,0,0,0
1778078530.3935559,5.800135850906372,-0.02807285961662173,1.4138448112550805,2.9289105199027077,-0.10308784582791125,1.426897458085445,2.965895898235504,0,290,7.501498621128952,-1.3052646830364445,-3.698537833279625,8.464950062450608,8,13,16,-0.1254812018927717,-0.7846160545788374,0.43100157714236437,140,247867.99999999997,63,68.5,0,0,5,0,0,0
1778078530.464392,5.870971918106079,-0.02807285961662173,1.4138448112550805,2.9289105199027077,-0.08774021218348116,1.5331117317905263,2.9044547580344187,0,293,5.966735256685943,-11.926692053544574,2.4455761868289017,13.558346353779541,0,-23,-30,0.21666411266397306,1.4994377568369661,-0.8673708554127547,140,247859.0,63,68.5,0,0,5,0,0,0
1778078530.534728,5.94130802154541,-0.02807285961662173,1.4138448112550805,2.9289105199027077,-0.1205041066708662,1.5086867726700386,2.911077937134281,0,297,9.243124705424446,-9.484196141495804,1.7832582768426697,13.362834312088118,18,1,0,-0.46581901591471847,-0.3472606232950569,0.09416471450647239,140,247855.00000000003,63,68.5,0,0,5,0,0,0
1778078530.605324,6.011904001235962,-0.02807285961662173,1.4138448112550805,2.9289105199027077,-0.09197689992463393,1.4820877371479733,2.935018914467017,0,300,6.3904040308012195,-6.824292589289271,-0.610839456430945,9.369170606977,-5,8,1,0.40409109514844255,-0.37677833268493083,0.33912663918934605,140,247855.00000000003,63,68.5,0,0,5,0,0,0
1778078530.675416,6.081995964050293,-0.02807285961662173,1.4138448112550805,2.9289105199027077,-0.10449785392837009,1.427323786131573,2.9654065538673455,0,304,7.642499431174836,-1.3478974876492522,-3.6496033964637853,8.57579326617654,10,13,15,-0.17863608751981078,-0.7813157003673339,0.43353956973388286,140,247856.0,63,68.5,0,0,5,0,0,0
1778078530.746222,6.152801990509033,-0.02807285961662173,1.4138448112550805,2.9289105199027077,-0.09419114199075866,1.4827515847610915,2.9339871804014988,0,307,6.611828237413693,-6.890677350601093,-0.5076660498791075,9.563233334461092,1,-10,-27,0.1455626371523236,0.7828118791811746,-0.44373869057820003,140,247861.0,63,68.5,0,0,5,0,0,0
1778078530.817842,6.224421977996826,-0.02807285961662173,1.4138448112550805,2.9289105199027077,-0.09210125524186258,1.4815896599017067,2.9344039814134764,0,311,6.402839562524084,-6.774484864662611,-0.5493461510768682,9.337653925835406,4,0,-7,0.029180216615540277,-0.016223471968392376,0.005819618609241562,140,247864.0,63,68.5,0,0,5,0,0,0
1778078530.8882382,6.294818162918091,-0.02807285961662173,1.4138448112550805,2.9289105199027077,-0.11900249572027007,1.5077999033856355,2.911143253560616,0,314,9.092963610364833,-9.395509213055497,1.776726634209158,13.195239221959486,16,-9,-18,-0.3821406019160763,0.37232477176489015,-0.33042597235740073,140,247864.0,63,68.5,0,0,5,0,0,0
1778078530.958401,6.364980936050415,-0.02807285961662173,1.4138448112550805,2.9289105199027077,-0.0715928912230286,1.3911728490707702,2.9788444368722935,0,318,4.352003160640687,2.2671962184310335,-4.993391696958582,7.001004988024892,-13,27,30,0.675708817948641,-1.6622355290163815,0.9649160129973148,140,247862.0,63,68.5,0,0,5,0,0,0
1778078531.028699,6.43527889251709,-0.02807285961662173,1.4138448112550805,2.9289105199027077,-0.16582102161999415,1.4306533315319854,2.946286690136498,0,321,13.774816200337241,-1.6808520276904826,-1.7376170233790234,13.985354404233064,30,-10,-18,-1.3404106624583745,0.5616163604973515,-0.46313930549645205,140,247853.00000000003,63,68.5,0,0,4,0,0,0
1778078531.099663,6.506242990493774,-0.02807285961662173,1.4138448112550805,2.9289105199027077,-0.14074172890775247,1.3994839476151126,2.971068879163527,0,325,11.266886929113074,1.4360863639967913,-4.215835926081946,12.115211829510855,0,11,9,0.3534081800135267,-0.4392275080719481,0.34922150402266044,140,247853.00000000003,63,68.5,0,0,4,0,0,0
1778078531.168753,6.575332880020142,-0.02807285961662173,1.4138448112550805,2.9289105199027077,-0.09754382188825926,1.476443523688534,2.924393287994895,0,328,6.947096227163753,-6.25987124334535,0.45172319078128353,9.36227471364863,-10,-16,-30,0.6252420913628373,1.1139050387980556,-0.6755777363172538,140,247863.0,63,68.5,0,0,4,0,0,0
1778078531.2394938,6.646073818206787,-0.02807285961662173,1.4138448112550805,2.9289105199027077,-0.09707974419993588,1.4778707718185755,2.92444574606018,0,332,6.900688458331415,-6.402596056349497,0.4464773842527858,9.424016103253418,5,0,-8,0.006560242205142063,0.020175702593535943,0.0007415517326978305,140,247860.0,63,68.5,0,0,4,0,0,0
1778078531.310176,6.7167558670043945,-0.02807285961662173,1.4138448112550805,2.9289105199027077,-0.10986926561788367,1.5586059634233047,2.87999873685116,0,335,8.179640600126193,-14.476115216822416,4.891178305154753,17.331706705652703,10,-18,-30,-0.18094440717995583,1.1422304952691478,-0.6288302329250564,140,247860.0,63,68.5,0,0,4,0,0,0
1778078531.382756,6.7893359661102295,-0.02807285961662173,1.4138448112550805,2.9289105199027077,-0.1295878363938374,1.4568129627460653,2.9396855119224785,0,339,10.151497677721565,-4.296815149098476,-1.0774992019770835,11.075943754668032,14,21,29,-0.2716801302131107,-1.4024918942147864,0.8223573101530794,140,247860.0,63,68.5,0,0,4,0,0,0
1778078531.453703,6.860282897949219,-0.02807285961662173,1.4138448112550805,2.9289105199027077,-0.12935639704348215,1.4506123819072534,2.93041132192649,0,343,10.128353742686041,-3.6767570652172843,-0.15008020237821107,10.776113219558964,7,-3,-3,0.003262147415768247,-0.08739744874216475,-0.13072009959551267,140,247862.0,63,68.5,0,0,4,0,0,0
1778078531.5231822,6.929762125015259,-0.02807285961662173,1.4138448112550805,2.9289105199027077,-0.11861687333512708,1.502262328833175,2.900378055077673,0,346,9.054401371850535,-8.841751757809435,2.8532464825034687,12.973040269698291,3,-12,-27,0.1545717211008572,0.7433868957239292,-0.4322625353945023,140,247862.0,63,68.5,0,0,4,0,0,0
1778078531.593158,6.999737977981567,-0.02807285961662173,1.4138448112550805,2.9289105199027077,-0.11909254064187168,1.5009054428877864,2.9003106467555466,0,350,9.101968102524994,-8.706063163270583,2.859987314716106,12.91591601794377,7,-1,-8,-0.00679759212043648,-0.019390773929427084,-0.0009633083309299191,140,247879.0,63,68.5,0,0,4,0,0,0
1778078531.6640792,7.070659160614014,-0.02807285961662173,1.4138448112550805,2.9289105199027077,-0.12856003460949575,1.4487718750408152,2.9308260607838843,0,353,10.048717499287402,-3.4927063785734624,-0.1915540881176625,10.640132245234886,11,10,12,-0.1334931767380415,-0.7350916314686525,0.4302722105817923,140,247869.99999999997,63,68.5,0,0,4,0,0,0
1778078531.735877,7.142457008361816,-0.02807285961662173,1.4138448112550805,2.9289105199027077,-0.1122252388325522,1.3545898471622304,2.9757927355595597,0,357,8.415237921593047,5.925496409285014,-4.688221565685202,11.309604697885026,1,18,30,0.22751093924599505,-1.3117667288497108,0.6262955810823945,140,247869.99999999997,63,68.5,0,0,4,0,0,0
1778078531.804688,7.211267948150635,-0.02807285961662173,1.4138448112550805,2.9289105199027077,-0.10007392339472906,1.4139098718794623,2.945196010237405,0,360,7.200106377810734,-0.006506062438171867,-1.6285490334697172,7.381987952784426,1,-9,-24,0.1765898776432305,0.8620725846687425,-0.4446491417797313,140,247859.0,63,68.5,0,0,5,0,0,0
1778078531.874891,7.281471014022827,-0.02807285961662173,1.4138448112550805,2.9289105199027077,-0.09136696940361937,1.4677579747090612,2.9159515870349404,0,364,6.329410978699763,-5.391316345398067,1.295893286776728,8.414693974480263,2,-11,-26,0.12402526702980567,0.7670334929194073,-0.41656903212325724,140,247863.0,63,68.5,0,0,5,0,0,0
1778078531.9443111,7.35089111328125,-0.02807285961662173,1.4138448112550805,2.9289105199027077,-0.06484617111174208,1.4358728468562156,2.9290008184074643,0,367,3.677331149512035,-2.2028035601135088,-0.009029850475661405,4.286629147222777,-5,4,6,0.3820334251201675,-0.45930686059883313,0.18797483022815775,140,247866.0,63,68.5,0,0,5,0,0,0
1778078532.0162718,7.422851800918579,-0.02807285961662173,1.4138448112550805,2.9289105199027077,-0.0629941957132148,1.4369597125970173,2.9294854788908697,0,371,3.4921336096593065,-2.311490134193672,-0.05749589881620665,4.188232272279977,3,0,-5,0.02573593248387175,0.01510360415508079,0.0067350729866294135,140,247866.0,63,68.5,0,0,5,0,0,0
1778078532.087772,7.494351863861084,-0.02807285961662173,1.4138448112550805,2.9289105199027077,-0.09404888467122936,1.4096353892512465,2.9375731958922744,0,374,6.597602505460763,0.4209422003834007,-0.8662675989566715,6.667531080477083,16,3,6,-0.4343309317501787,-0.38215803205296406,0.11311482351992051,140,247863.0,63,68.5,0,0,5,0,0,0
1778078532.159339,7.565918922424316,-0.02807285961662173,1.4138448112550805,2.9289105199027077,-0.09382089499774537,1.4101965610425293,2.938136550524292,0,378,6.574803538112365,0.36482502125512184,-0.9226030621584336,6.6492356907552,5,0,-3,0.0031856789710387563,0.007841202398823898,0.007871703033873804,140,247859.0,63,68.5,0,0,5,0,0,0
1778078532.2287092,7.635289192199707,-0.02807285961662173,1.4138448112550805,2.9289105199027077,-0.09208605640146855,1.410685108910449,2.9381462155271074,0,381,6.401319678484682,0.31597023446314765,-0.9235695624399742,6.475315556163073,5,0,-3,0.025008387626196935,0.0070426116188041146,0.00013932485554258732,140,247859.0,63,68.5,0,0,5,0,0,0
1778078532.299196,7.70577597618103,-0.02807285961662173,1.4138448112550805,2.9289105199027077,-0.11807198019165015,1.4402777168117855,2.9154416816222675,0,385,8.999912057502842,-2.6432905556704966,1.346883828044021,9.476259707855647,16,-8,-15,-0.3686637738652829,0.41983200580093916,-0.32211050955106607,140,247861.0,63,68.5,0,0,5,0,0,0
1778078532.370091,7.776670932769775,-0.02807285961662173,1.4138448112550805,2.9289105199027077,-0.08516443592846458,1.4666645553649027,2.9090577437253584,0,388,5.709157631184285,-5.281974410982215,1.9852776177349263,8.02714530549061,-6,-3,-16,0.4641732761623523,0.3721962721013389,-0.09004784266871999,140,247867.99999999997,63,68.5,0,0,5,0,0,0
1778078532.439926,7.846505880355835,-0.02807285961662173,1.4138448112550805,2.9289105199027077,-0.07941514766775346,1.468147673088294,2.9089336420878777,0,392,5.134228805113173,-5.430286183321353,1.997687781482993,7.73557172601425,3,-1,-7,0.08232680712799441,0.021237471705175877,-0.0017770706755057416,140,247867.99999999997,63,68.5,0,0,5,0,0,0
1778078532.510667,7.91724705696106,-0.02807285961662173,1.4138448112550805,2.9289105199027077,-0.09592609245004068,1.3548033170329992,2.9698240890522194,0,395,6.785323283341895,5.904149422208138,-4.091356914951172,9.88123443020866,12,24,30,-0.23339935204113924,-1.602240187321451,0.8607497059901117,140,247858.0,63,68.5,0,0,5,0,0,0
1778078532.581846,7.988425970077515,-0.02807285961662173,1.4138448112550805,2.9289105199027077,-0.08535007538154613,1.4192994756338022,2.9497326068105507,0,399,5.727721576492439,-0.5454664378721663,-2.082208690784304,6.118816971003437,2,-5,-26,0.1485835706874484,0.9061132823885854,-0.28226733679955485,140,247869.0,63,68.5,0,0,5,0,0,0
1778078532.652153,8.058732986450195,-0.02807285961662173,1.4138448112550805,2.9289105199027077,-0.09375076785133653,1.5496303388543637,2.8670305728542775,0,403,6.56779082347148,-13.57855275992832,6.187994704843014,16.303504219099597,9,-30,-30,-0.11948583375036628,1.8537390710723496,-1.1762984439261295,140,247865.0,63,68.5,0,0,5,0,0,0
1778078532.7221901,8.128770112991333,-0.02807285961662173,1.4138448112550805,2.9289105199027077,-0.07369042752400197,1.4712563206010394,2.910688364250316,0,406,4.561756790738023,-5.741150934595884,1.8222155652391603,7.5558526082670205,-2,14,20,0.2864243768703406,-1.1190353191787474,0.6233521212552212,140,247854.0,63,68.5,0,0,5,0,0,0
1778078532.7926888,8.199268817901611,-0.02807285961662173,1.4138448112550805,2.9289105199027077,-0.07174904150813069,1.4722995906264087,2.911289663332493,0,410,4.367618189150896,-5.845477937132815,1.7620856570214727,7.506706789424311,4,0,-8,0.027537896169043476,0.014798428236334876,0.00852922167779014,140,247854.0,63,68.5,0,0,5,0,0,0
1778078532.8641548,8.270734786987305,-0.02807285961662173,1.4138448112550805,2.9289105199027077,-0.09661816624114913,1.5110917527058727,2.9079315629713895,0,413,6.85453066245274,-9.724694145079216,2.0978956931318127,12.08120164375646,15,-2,-24,-0.34798555244102813,0.5428060736565278,-0.046988803259307536,140,247859.0,63,68.5,0,0,5,0,0,0
1778078532.934902,8.341481924057007,-0.02807285961662173,1.4138448112550805,2.9289105199027077,-0.06363626768461886,1.5300880598959874,2.891102734151746,0,417,3.556340806799713,-11.624324864090685,3.7807785750961553,12.730544965315973,-7,-8,-18,0.46619410936778327,0.2685099069295055,-0.23787293050548705,140,247860.0,63,68.5,0,0,5,0,0,0
1778078533.004838,8.411417961120605,-0.02807285961662173,1.4138448112550805,2.9289105199027077,-0.04509512720589048,1.3955475308679053,2.97515701832712,0,420,1.7022267589268745,1.8297280387175263,-4.624649842441242,5.256697328139368,-3,30,30,0.2651156865217768,-1.9237654101809238,1.2018737078129897,140,247860.0,63,68.5,0,0,5,0,0,0
1778078533.074144,8.480723857879639,-0.02807285961662173,1.4138448112550805,2.9289105199027077,-0.09470297407226133,1.5121038104367153,2.9085909836497565,0,424,6.66301144556396,-9.825899918163472,2.031953625295113,12.04461980557424,24,-25,-30,-0.7157810400874015,1.6817656941091128,-0.9604671144910546,140,247861.0,63,68.5,0,0,5,0,0,0
1778078533.144296,8.550875902175903,-0.02807285961662173,1.4138448112550805,2.9289105199027077,-0.09470297407226133,1.5121038104367153,2.9085909836497565,0,427,6.66301144556396,-9.825899918163472,2.031953625295113,12.04461980557424,6,-1,-10,0.0,0.0,0.0,140,247861.0,63,68.5,0,0,5,0,0,0
1778078533.216067,8.622647047042847,-0.02807285961662173,1.4138448112550805,2.9289105199027077,-0.08322167088114286,1.366012571688496,2.9839759852081613,0,431,5.514881126452114,4.7832239566584445,-5.506546530545364,9.144134729514334,1,29,30,0.15997101916659784,-2.035514955474905,1.0503525016656923,140,247861.0,63,68.5,0,0,5,0,0,0
1778078533.288329,8.694908857345581,-0.02807285961662173,1.4138448112550805,2.9289105199027077,-0.08322167088114286,1.366012571688496,2.9839759852081613,0,434,5.514881126452114,4.7832239566584445,-5.506546530545364,9.144134729514334,5,3,0,0.0,0.0,0.0,140,247861.0,63,68.5,0,0,5,0,0,0
1778078533.3605728,8.767152786254883,-0.02807285961662173,1.4138448112550805,2.9289105199027077,-0.07309163547415759,1.4324296730071242,2.9635819032123965,0,438,4.5018775857535855,-1.8584861752043658,-3.4671383309688775,5.978454722301571,1,-4,-28,0.14021988504671404,0.9193450899107534,-0.2822947520111829,140,247856.0,63,69.0,-2,0,5,0,0,0
1778078533.431201,8.837780952453613,-0.02807285961662173,1.4138448112550805,2.9289105199027077,-0.088720116929903,1.5191897479122258,2.9194417697338952,0,442,6.064725731328127,-10.534493665714528,0.9468750168812434,12.192334775866632,11,-15,-30,-0.22127831284434982,1.2284061667547745,-0.6249650225138454,140,247854.0,63,69.0,-1,0,5,0,0,0
1778078533.502253,8.908833026885986,-0.02807285961662173,1.4138448112550805,2.9289105199027077,-0.08749129406790358,1.5221635237945748,2.9195811931347175,0,445,5.941843445128185,-10.831871253949421,0.9329326767990143,12.389725653459319,5,0,-12,0.017294679596849875,0.0418534702344173,0.001962270657628639,140,247854.0,63,69.0,-1,0,5,0,0,0
1778078533.573267,8.979846954345703,-0.02807285961662173,1.4138448112550805,2.9289105199027077,-0.059703391424751215,1.496490264397266,2.942283164350671,0,449,3.1630531808129483,-8.264545314218541,-1.3372644447963378,8.949630767285264,-5,8,0,0.39130215208721236,-0.3615242856673736,0.31968336392648317,140,247859.0,63,69.0,0,0,5,0,0,0
1778078533.644324,9.050904035568237,-0.02807285961662173,1.4138448112550805,2.9289105199027077,,,,,452,,,,,0,0,0,,,,140,247858.0,63,69.0,0,0,5,0,0,0
1778078533.713591,9.120171070098877,-0.02807285961662173,1.4138448112550805,2.9289105199027077,,,,,456,,,,,0,0,0,,,,140,247858.0,63,69.0,0,0,5,0,0,0
1778078533.781278,9.187857866287231,-0.02807285961662173,1.4138448112550805,2.9289105199027077,,,,,459,,,,,0,0,0,,,,140,247861.0,63,69.0,0,0,4,0,0,0
1778078533.851389,9.25796890258789,-0.02807285961662173,1.4138448112550805,2.9289105199027077,,,,,463,,,,,0,0,0,,,,140,247867.99999999997,63,69.0,0,0,4,0,0,0
1778078533.9223318,9.328911781311035,-0.02807285961662173,1.4138448112550805,2.9289105199027077,0.22369516731440067,1.7334158218244973,2.893005394144328,1,466,-25.17680269310224,-31.957101056941674,3.5905125758379786,40.84139422654708,-30,-5,-30,0.8118794471586738,0.6787437149912614,-0.1411708267336751,140,247867.99999999997,63,69.0,0,0,4,0,0,0
1778078533.992471,9.399050951004028,-0.02807285961662173,1.4138448112550805,2.9289105199027077,0.04434596949185295,1.8220082110961282,2.8883066615511566,1,470,-7.241882910847469,-40.816339984104765,4.060385835155111,41.652193350684215,30,-4,-30,-2.5570476326933838,1.2630943545441091,-0.06699156282770663,140,247873.99999999997,63,69.0,0,0,4,0,0,0
1778078534.063519,9.470098972320557,-0.02807285961662173,1.4138448112550805,2.9289105199027077,,,,,473,,,,,0,0,0,,,,140,247876.00000000003,63,69.0,0,0,4,0,0,0
1778078534.1349602,9.541540145874023,-0.02807285961662173,1.4138448112550805,2.9289105199027077,,,,,477,,,,,0,0,0,,,,140,247877.0,63,69.0,0,0,4,0,0,0
1778078534.20679,9.613369941711426,-0.02807285961662173,1.4138448112550805,2.9289105199027077,,,,,480,,,,,0,0,0,,,,140,247877.0,63,69.0,0,0,4,0,0,0
1778078534.277878,9.684458017349243,-0.02807285961662173,1.4138448112550805,2.9289105199027077,,,,,484,,,,,0,0,0,,,,140,247871.99999999997,63,68.5,0,0,4,0,0,0
1778078534.351584,9.758163928985596,-0.02807285961662173,1.4138448112550805,2.9289105199027077,,,,,488,,,,,0,0,0,,,,140,247873.0,63,68.5,0,0,4,0,0,0
1778078534.423788,9.830368041992188,-0.02807285961662173,1.4138448112550805,2.9289105199027077,,,,,491,,,,,0,0,0,,,,140,247873.0,63,68.5,0,0,4,0,0,0
1778078534.495821,9.902400970458984,-0.02807285961662173,1.4138448112550805,2.9289105199027077,-0.1256930186040768,1.0290576648920653,2.899632832481701,1,495,9.762015898745508,38.478714636301525,2.927768742100678,39.805530573985656,16,-1,30,-0.33781460519273165,-1.5753462114945298,0.022501580396894955,140,247869.0,63,68.5,0,0,4,0,0,0
1778078534.568191,9.97477102279663,-0.02807285961662173,1.4138448112550805,2.9289105199027077,-0.1256930186040768,1.0290576648920653,2.899632832481701,1,498,9.762015898745508,38.478714636301525,2.927768742100678,39.805530573985656,8,-1,23,0.0,0.0,0.0,140,247871.0,63,68.5,0,0,4,0,0,0
1778078534.640812,10.047391891479492,-0.02807285961662173,1.4138448112550805,2.9289105199027077,-0.1256930186040768,1.0290576648920653,2.899632832481701,1,502,9.762015898745508,38.478714636301525,2.927768742100678,39.805530573985656,8,-1,23,0.0,0.0,0.0,140,247882.00000000003,63,68.5,-1,0,4,0,0,0
1778078534.7128088,10.119388818740845,-0.02807285961662173,1.4138448112550805,2.9289105199027077,-0.1256930186040768,1.0290576648920653,2.899632832481701,1,506,9.762015898745508,38.478714636301525,2.927768742100678,39.805530573985656,8,-1,24,0.0,0.0,0.0,140,247882.00000000003,63,68.5,-1,0,4,0,0,0
1778078534.7860212,10.192601203918457,-0.02807285961662173,1.4138448112550805,2.9289105199027077,-0.1256930186040768,1.0290576648920653,2.899632832481701,1,509,9.762015898745508,38.478714636301525,2.927768742100678,39.805530573985656,8,-1,24,0.0,0.0,0.0,140,247879.0,63,68.5,0,0,4,0,0,0
1778078534.8588119,10.265391826629639,-0.02807285961662173,1.4138448112550805,2.9289105199027077,-0.1256930186040768,1.0290576648920653,2.899632832481701,1,513,9.762015898745508,38.478714636301525,2.927768742100678,39.805530573985656,8,-1,24,0.0,0.0,0.0,140,247875.0,63,68.5,0,0,4,0,0,0
1778078534.9317918,10.338371753692627,-0.02807285961662173,1.4138448112550805,2.9289105199027077,-0.1256930186040768,1.0290576648920653,2.899632832481701,1,517,9.762015898745508,38.478714636301525,2.927768742100678,39.805530573985656,8,-1,25,0.0,0.0,0.0,140,247875.0,63,68.5,0,0,4,0,0,0
1778078535.003901,10.410480976104736,-0.02807285961662173,1.4138448112550805,2.9289105199027077,-0.1256930186040768,1.0290576648920653,2.899632832481701,1,520,9.762015898745508,38.478714636301525,2.927768742100678,39.805530573985656,8,-1,25,0.0,0.0,0.0,140,247883.0,63,68.5,0,0,4,0,0,0
1778078535.084645,10.491225004196167,-0.02807285961662173,1.4138448112550805,2.9289105199027077,,,,,524,,,,,0,0,0,,,,140,247873.0,63,68.5,0,0,4,0,0,0
1778078535.1546948,10.561274766921997,-0.02807285961662173,1.4138448112550805,2.9289105199027077,,,,,528,,,,,0,0,0,,,,140,247873.0,63,68.5,0,0,4,0,0,0
1778078535.224242,10.630821943283081,-0.02807285961662173,1.4138448112550805,2.9289105199027077,,,,,531,,,,,0,0,0,,,,140,247869.99999999997,63,68.5,0,0,4,0,0,0
1778078535.293536,10.70011591911316,-0.02807285961662173,1.4138448112550805,2.9289105199027077,,,,,535,,,,,0,0,0,,,,140,247882.00000000003,63,68.5,0,0,5,0,0,0
1778078535.362805,10.769384860992432,-0.02807285961662173,1.4138448112550805,2.9289105199027077,-0.2514333753358868,1.3517792154463268,2.9363203043777175,1,538,22.336051571926504,6.20655958087537,-0.740978447500984,23.194172343810358,25,2,-19,-0.3503454880995657,0.8991865625952876,0.10222088263964182,140,247876.00000000003,63,68.5,0,0,5,0,0,0
1778078535.432627,10.83920693397522,-0.02807285961662173,1.4138448112550805,2.9289105199027077,,,,,542,,,,,0,0,0,,,,140,247876.00000000003,63,68.5,0,0,5,0,0,0
1778078535.502223,10.90880298614502,-0.02807285961662173,1.4138448112550805,2.9289105199027077,-0.22851883835259923,1.2166828583578118,2.9433060821488852,1,545,20.04459787359775,19.71619528972688,-1.4395562246177551,28.152914285038477,11,1,30,0.16435837849783483,-0.9690013901754683,0.05010666843727844,150,247876.00000000003,63,68.5,0,0,5,0,0,0
1778078535.572831,10.979410886764526,-0.02807285961662173,1.4138448112550805,2.9289105199027077,-0.38412561632928427,1.2976183704353417,2.9143630656801154,1,549,35.605275671266256,11.622644081973888,1.4547454222592293,37.482499854287894,30,-11,-21,-2.2038153890911123,1.146267080134229,-0.40991186842869765,150,247873.99999999997,63,68.5,0,0,5,0,0,0
1778078535.644107,11.050687074661255,-0.02807285961662173,1.4138448112550805,2.9289105199027077,,,,,552,,,,,0,0,0,,,,150,247873.99999999997,63,68.5,0,0,5,0,0,0
1778078535.713616,11.120195865631104,-0.02807285961662173,1.4138448112550805,2.9289105199027077,-0.23886231629042273,1.2346007439217022,2.942584133039545,1,556,21.0789456673801,17.92440673333784,-1.3673613136837126,27.703356911259835,-9,5,22,1.0318096519127125,-0.44761612368718495,0.200455102430883,150,247871.0,63,68.5,0,0,5,0,0,0
1778078535.7850182,11.191598176956177,-0.02807285961662173,1.4138448112550805,2.9289105199027077,,,,,559,,,,,0,0,0,,,,150,247875.0,63,68.5,0,0,5,0,0,0
1778078535.856676,11.263256072998047,-0.02807285961662173,1.4138448112550805,2.9289105199027077,0.12720491216212915,1.7040847997604927,2.9457527861765183,1,563,-15.527777177875087,-29.02399885054121,-1.684226627381058,32.959687387691275,-30,1,-30,2.558833341500792,3.281723579741387,0.02214908810278733,150,247875.0,63,68.5,0,0,5,0,0,0
1778078535.926219,11.332798957824707,-0.02807285961662173,1.4138448112550805,2.9289105199027077,0.12293067626556703,1.691497604362393,2.9478163464289944,1,566,-15.100353588218876,-27.765279310731252,-1.8905826526286695,31.662370670222657,-3,1,-16,-0.061461872155805855,-0.18099904008115208,0.02967320463652988,150,247867.99999999997,63,68.5,0,0,5,0,0,0
1778078535.9969049,11.40348482131958,-0.02807285961662173,1.4138448112550805,2.9289105199027077,0.021910177662126447,1.7610335461404176,2.9445117741210587,1,570,-4.998303727874818,-34.71887348853371,-1.5601254218351013,35.111496803764325,30,0,-30,-1.429147125164111,0.9837319421452371,-0.04675011585839039,150,247867.99999999997,63,68.5,0,0,5,0,0,0
1778078536.067871,11.474451065063477,-0.02807285961662173,1.4138448112550805,2.9289105199027077,-0.265876079776908,1.2709118730722535,2.9605884231260893,1,573,23.78032201602863,14.293293818282704,-3.16779032233816,27.92555924038181,30,7,30,-4.055255601206676,-6.906405739000628,0.2265393820623805,150,247867.0,63,68.5,0,-1,5,0,0,0
1778078536.138166,11.544745922088623,-0.02807285961662173,1.4138448112550805,2.9289105199027077,0.12936014057871528,1.6735328455571679,2.9591279749646384,1,577,-15.743300019533702,-25.96880343020873,-3.0217455061930742,30.518210842152406,-30,1,-30,5.622548178940545,5.727602125158108,-0.020776031465977826,150,247880.00000000003,63,68.5,0,-1,5,0,0,0
1778078536.2075572,11.614137172698975,-0.02807285961662173,1.4138448112550805,2.9289105199027077,0.381289713529483,1.5581649178646564,2.944332780249078,1,580,-40.93625731461047,-14.432010660957584,-1.5422260346370287,43.43315042439248,-30,-4,29,3.6305668327756817,-1.6625716740620504,-0.21321412404913995,150,247880.00000000003,63,68.5,0,-1,5,0,0,0
1778078536.27697,11.683549880981445,-0.02807285961662173,1.4138448112550805,2.9289105199027077,0.12287237924316216,1.6728974008314772,2.9606028620929954,1,584,-15.09452388597839,-25.905258957639667,-3.1692342190287714,30.14914822249221,30,7,-30,-3.722910986770716,1.6529031326644699,0.23439629783219726,150,247867.99999999997,63,68.5,0,0,5,0,0,0
1778078536.34623,11.752810001373291,-0.02807285961662173,1.4138448112550805,2.9289105199027077,0.16509723168272275,1.786546369358954,2.9545451269356304,1,587,-19.317009129934448,-37.27015581038735,-2.563460703292275,42.056898205096445,-23,0,-30,0.6096560647118353,1.6409005338786165,-0.08746353779191765,150,247865.0,63,68.5,0,0,5,0,0,0
1778078536.41536,11.821939945220947,-0.02807285961662173,1.4138448112550805,2.9289105199027077,0.34868101426318315,1.6558529116988363,2.947876237099579,1,591,-37.675387387980486,-24.200810044375576,-1.8965717196871346,44.818645739538646,-30,-1,27,2.6556333241790204,-1.8905477190626812,-0.09646890283533052,150,247865.0,63,68.5,0,0,5,0,0,0
1778078536.4868119,11.893391847610474,-0.02807285961662173,1.4138448112550805,2.9289105199027077,,,,,594,,,,,0,0,0,,,,150,247865.0,63,68.5,0,0,5,0,0,0
1778078536.556175,11.962754964828491,-0.02807285961662173,1.4138448112550805,2.9289105199027077,0.225959364906284,1.6502261931057176,2.9738650150288413,1,598,-25.403222452290574,-23.638138185063706,-4.495449512613359,34.989917892689924,9,7,-18,-0.871509656419666,-0.03995822752999321,0.18455970110073353,150,247867.0,63,68.5,0,0,5,0,0,0
1778078536.625346,12.031925916671753,-0.02807285961662173,1.4138448112550805,2.9289105199027077,0.09176740648749158,1.690999394936368,2.9748747880603728,1,601,-11.984026610411332,-27.715458368128743,-4.596426815766508,30.543258926107114,30,3,-30,-1.9400045082922288,0.5894555553180851,0.014598223743105224,150,247867.0,63,68.5,0,0,5,0,0,0
1778078536.696364,12.102943897247314,-0.02807285961662173,1.4138448112550805,2.9289105199027077,0.2219279415542164,1.651998177090028,2.974760463100391,1,605,-25.00008011708381,-23.81533658349475,-4.584994319768354,34.830969486335874,-30,2,-6,1.8327828250232623,-0.5491738504848572,-0.001609803025304254,150,247863.0,63,68.5,0,-1,5,0,0,0
1778078536.767029,12.173609018325806,-0.02807285961662173,1.4138448112550805,2.9289105199027077,0.3316101742764792,1.6569817510304758,2.964446186652688,1,608,-35.968303389310094,-24.31369397753953,-3.5535666749980432,43.56033057326993,-30,-1,-22,1.552141014524455,0.0705238152059811,-0.14595993455167983,150,247877.0,63,68.5,-1,-1,5,0,0,0
1778078536.8381922,12.24477219581604,-0.02807285961662173,1.4138448112550805,2.9289105199027077,0.21833756225277,1.6620700488211027,2.975618204466547,1,612,-24.641042186939174,-24.82252375660221,-4.670768456383945,35.28674997330795,27,6,-22,-1.5917306677214271,0.07150183521983776,0.15699155388883718,150,247881.0,63,68.5,-1,0,5,0,0,0
1778078536.9079318,12.314511775970459,-0.02807285961662173,1.4138448112550805,2.9289105199027077,0.2162167042295361,1.6689291372094248,2.9853084538593073,1,615,-24.428956384615784,-25.508432595434428,-5.639793395659964,35.76676268636863,-11,6,-23,-0.030411109710409306,0.0983528775644278,0.138949064093931,150,247881.0,63,68.5,-1,0,5,0,0,0
1778078536.9792829,12.385862827301025,-0.02807285961662173,1.4138448112550805,2.9289105199027077,0.1403477419840428,1.8112925530081463,2.968164324480907,1,619,-16.842060160066453,-39.744774175306574,-3.925380457819916,43.34409621182622,18,-3,-30,-1.0633194722527017,1.9952532323477306,-0.24027858116585357,150,247871.99999999997,63,68.5,0,-1,5,0,0,0
1778078537.0510452,12.457625150680542,-0.02807285961662173,1.4138448112550805,2.9289105199027077,0.4275262406045376,1.6014454107058052,2.9554250977001657,1,622,-45.559910022115936,-18.76005994507246,-2.6514577797458028,49.34243081490602,-30,-2,30,4.001800458741353,-2.924196603732574,-0.17751970924031338,150,247873.99999999997,63,68.5,0,-1,5,0,0,0
1778078537.1217349,12.52831482887268,-0.02807285961662173,1.4138448112550805,2.9289105199027077,,,,,626,,,,,0,0,0,,,,150,247873.99999999997,63,68.5,0,-1,5,0,0,0
1778078537.1926951,12.5992751121521,-0.02807285961662173,1.4138448112550805,2.9289105199027077,,,,,630,,,,,0,0,0,,,,140,247869.0,63,68.5,0,0,5,0,0,0
1778078537.262975,12.669554948806763,-0.02807285961662173,1.4138448112550805,2.9289105199027077,,,,,633,,,,,0,0,0,,,,140,247865.0,63,69.5,0,0,5,0,0,0
1778078537.33465,12.741230010986328,-0.02807285961662173,1.4138448112550805,2.9289105199027077,,,,,637,,,,,0,0,0,,,,140,247865.0,63,69.5,0,0,5,0,0,0
1778078537.405622,12.812201976776123,-0.02807285961662173,1.4138448112550805,2.9289105199027077,,,,,640,,,,,0,0,0,,,,140,247869.0,63,69.5,0,0,5,0,0,0
1778078537.476506,12.88308596611023,-0.02807285961662173,1.4138448112550805,2.9289105199027077,,,,,644,,,,,0,0,0,,,,140,247871.99999999997,63,69.5,0,0,5,0,0,0
1778078537.5474439,12.954023838043213,-0.02807285961662173,1.4138448112550805,2.9289105199027077,,,,,647,,,,,0,0,0,,,,140,247871.99999999997,63,69.5,0,0,5,0,0,0
1778078537.618403,13.024982929229736,-0.02807285961662173,1.4138448112550805,2.9289105199027077,-0.005476989007365596,1.4449922600251957,3.0423779349715905,0,651,-2.2595870609256137,-3.1147448770115105,-11.34674150688828,11.98148205185457,19,11,0,-0.763192549715538,-0.2757574789591852,0.1532592670074502,140,247871.0,63,69.5,0,0,5,0,0,0
1778078537.689065,13.0956449508667,-0.02807285961662173,1.4138448112550805,2.9289105199027077,0.0011426567067109941,1.502759673474701,3.0089231514790677,0,654,-2.9215516323332724,-8.891486221962053,-8.001263157636007,12.31317194282097,-2,-6,-30,0.09368038956040697,0.8175171345407365,-0.47344786799904875,140,247873.0,63,69.5,0,0,5,0,0,0
1778078537.760409,13.166989088058472,-0.02807285961662173,1.4138448112550805,2.9289105199027077,-0.0680291640733832,1.5061838030805714,3.0049697906942114,0,658,3.9956304456761473,-9.233899182549088,-7.605927079150376,12.612695330707382,28,3,-12,-0.9695515777864258,0.047994547844433515,-0.055412553020715724,140,247860.0,63,69.5,0,0,5,0,0,0
1778078537.831455,13.238034963607788,-0.02807285961662173,1.4138448112550805,2.9289105199027077,-0.04395062758993316,1.4776198274273544,3.02743939608683,0,662,1.5877767973311425,-6.377501617227388,-9.852887618412254,11.843688465040888,-5,14,1,0.33891533178074446,-0.4020497380370709,0.31626896310147556,140,247860.0,63,69.5,0,0,5,0,0,0
1778078537.901715,13.308295011520386,-0.02807285961662173,1.4138448112550805,2.9289105199027077,-0.046313645406609705,1.415936669817342,3.059719487209402,0,665,1.8240785789987974,-0.20918585622613506,-13.080896730669433,13.209121116230465,3,20,17,-0.03363245381808027,-0.8779264951077939,0.45943736279154973,140,247861.0,63,69.5,0,0,5,0,0,0
1778078537.970939,13.377518892288208,-0.02807285961662173,1.4138448112550805,2.9289105199027077,-0.07886007201921547,1.4469978845493512,3.0348571933625106,0,669,5.078721240259373,-3.315307329427064,-10.594667345980291,12.207851911650778,16,-1,-17,-0.47016183218283975,0.44870663689296736,-0.3591577584371477,140,247873.0,63,69.5,-1,0,5,0,0,0
1778078538.0421178,13.448697805404663,-0.02807285961662173,1.4138448112550805,2.9289105199027077,-0.08096307418335794,1.446050673717949,3.034136711967107,0,672,5.289021456673621,-3.2205862462868495,-10.522619206439954,12.209481508346903,5,7,-6,-0.029545297505481297,-0.013307464106011618,-0.010122118530028685,140,247873.0,63,69.5,-1,0,5,0,0,0
