timestamp,elapsed,target_x,target_y,target_z,pos_x,pos_y,pos_z,marker_id,err_x_cm,err_y_cm,err_z_cm,err_3d_cm,cmd_lr,cmd_fb,cmd_ud,feedback,tello_height_cm,tello_baro_cm,tello_battery,tello_temp_c,tello_pitch,tello_roll,tello_yaw,tello_vgx,tello_vgy,tello_vgz,tello_agx,tello_agy,tello_agz,perturbation
1777593846.302944,9.5367431640625e-07,0.9497719084662868,1.3903628462884563,3.0452505188984396,0.9186717304631755,1.3814015246571028,3.020478934457045,2,3.1100178003111267,0.8961321631353547,2.477158444139471,4.075730306267724,17,-13,5,ok,130,252559.0,80,76.5,0,0,0,0,0,0,1.0,20.0,-994.0,0
1777593846.378266,0.07532310485839844,0.9497719084662868,1.3903628462884563,3.0452505188984396,0.9537247649193421,1.4076761431380187,3.0011517119256825,2,-0.395285645305532,-1.7313296849562398,4.409880697275703,4.754029972938762,-11,-9,-9,ok,130,252550.0,80,76.5,0,0,0,0,0,0,24.0,6.0,-1036.0,0
1777593846.453017,0.15007400512695312,0.9497719084662868,1.3903628462884563,3.0452505188984396,0.9541982544488824,1.3430333912556414,3.033739224253634,2,-0.4426345982595614,4.732945503281494,1.1511294644805492,4.890991470919183,0,10,24,ok,130,252559.0,80,76.5,0,0,0,0,0,0,-1.0,6.0,-990.0,0
1777593846.5260758,0.22313284873962402,0.9497719084662868,1.3903628462884563,3.0452505188984396,0.9541982544488824,1.3430333912556414,3.033739224253634,2,-0.4426345982595614,4.732945503281494,1.1511294644805492,4.890991470919183,0,0,3,ok,130,252561.0,80,76.5,0,0,0,0,0,0,0.0,5.0,-1006.0,0
1777593846.616193,0.3132500648498535,0.9497719084662868,1.3903628462884563,3.0452505188984396,0.9550975391609519,1.3414836669173908,3.0337791525673086,2,-0.5325630694665073,4.887917937106545,1.1471366331130994,5.048889743089816,0,0,3,ok,130,252554.0,80,77.0,0,0,0,0,0,0,-27.0,28.0,-962.0,0
1777593846.689718,0.38677501678466797,0.9497719084662868,1.3903628462884563,3.0452505188984396,0.9550975391609519,1.3414836669173908,3.0337791525673086,2,-0.5325630694665073,4.887917937106545,1.1471366331130994,5.048889743089816,0,0,3,ok,130,252554.0,80,77.0,0,0,0,0,0,0,-27.0,28.0,-962.0,0
1777593846.766741,0.46379804611206055,0.9497719084662868,1.3903628462884563,3.0452505188984396,0.9550975391609519,1.3414836669173908,3.0337791525673086,2,-0.5325630694665073,4.887917937106545,1.1471366331130994,5.048889743089816,0,0,3,ok,130,252557.00000000003,80,77.0,0,0,0,0,0,0,-22.0,10.0,-1002.0,0
1777593846.8428748,0.5399317741394043,0.9497719084662868,1.3903628462884563,3.0452505188984396,0.9551215216317458,1.3427187531168907,3.0329775208436356,2,-0.5349613165459011,4.764409317156559,1.2272998054803974,4.948943782681409,0,-1,3,ok,130,252548.0,80,77.0,0,0,0,0,0,0,11.0,26.0,-1010.0,0
1777593846.918219,0.6152760982513428,0.9497719084662868,1.3903628462884563,3.0452505188984396,0.9194783071545961,1.379882079028178,3.020543031353106,2,3.0293601311690677,1.0480767260278245,2.4707487545333695,4.047232021516196,13,-5,-11,ok,130,252551.00000000003,80,77.0,0,0,0,0,0,0,-11.0,20.0,-975.0,0
1777593846.992903,0.6899600028991699,0.9497719084662868,1.3903628462884563,3.0452505188984396,0.9542276215910452,1.3442632247542092,3.0329402902445337,2,-0.44557131247584536,4.609962153424707,1.2310228653905853,4.792254390745973,-12,3,15,ok,130,252555.00000000003,80,77.0,0,0,0,0,0,0,8.0,-4.0,-1035.0,0
1777593847.066391,0.7634479999542236,0.9497719084662868,1.3903628462884563,3.0452505188984396,0.9611350418928009,1.4091867291167488,3.000507080684249,2,-1.1363133426514072,-1.8823882828292504,4.474343821419069,4.985413352199742,-3,-13,-23,ok,130,252555.00000000003,80,77.0,0,0,0,0,0,0,8.0,-4.0,-1035.0,0
1777593847.140275,0.837332010269165,0.9497719084662868,1.3903628462884563,3.0452505188984396,0.9548092574117831,1.3452934243547694,3.0329125366145435,2,-0.5037348945496345,4.50694219336869,1.2337982283896043,4.699844130046362,1,10,25,ok,130,252553.00000000003,80,77.0,0,0,0,0,0,0,-27.0,19.0,-995.0,0
1777593847.2137852,0.9108421802520752,0.9497719084662868,1.3903628462884563,3.0452505188984396,0.9548092574117831,1.3452934243547694,3.0329125366145435,2,-0.5037348945496345,4.50694219336869,1.2337982283896043,4.699844130046362,0,0,3,ok,130,252555.00000000003,80,77.0,0,0,0,0,0,0,-15.0,46.0,-991.0,0
1777593847.289183,0.9862399101257324,0.9497719084662868,1.3903628462884563,3.0452505188984396,0.9539270276317565,1.3468607479903727,3.032873094354306,2,-0.4155119165469734,4.35020982980836,1.2377424544133486,4.541913924725016,0,0,2,ok,130,252557.00000000003,80,77.0,0,0,0,0,0,0,-10.0,-9.0,-992.0,0
1777593847.364809,1.061866044998169,0.9497719084662868,1.3903628462884563,3.0452505188984396,0.9193633619159967,1.3790112144331363,3.00934043463147,2,3.0408546550290128,1.1351631855319955,3.5910084266969733,4.8405303440230005,13,-10,-9,ok,130,252557.00000000003,80,77.0,0,0,0,0,0,0,-10.0,-9.0,-992.0,0
1777593847.439023,1.136080026626587,0.9497719084662868,1.3903628462884563,3.0452505188984396,0.9248305623000999,1.4408466539779399,2.977440259260344,2,2.494134616618693,-5.048380768948357,6.781025963809562,8.81414595953361,0,-15,-24,ok,130,252559.0,80,77.0,0,0,0,0,0,0,-2.0,2.0,-998.0,0
1777593847.513398,1.2104549407958984,0.9497719084662868,1.3903628462884563,3.0452505188984396,0.9915940408964681,1.3791913727391187,3.0115849196245112,2,-4.182213243018129,1.1171473549337563,3.3665599273928315,5.483853714992672,-24,9,21,ok,130,252559.0,80,77.0,0,0,0,0,0,0,0.0,-6.0,-965.0,0
1777593847.5875578,1.2846148014068604,0.9497719084662868,1.3903628462884563,3.0452505188984396,0.9240908772802016,1.4422813579313476,2.9773849827489185,2,2.5681031186085224,-5.19185116428913,6.786553614952107,8.922319323391017,24,-15,-24,ok,130,252558.0,80,76.5,0,0,0,0,0,0,0.0,6.0,-956.0,0
1777593847.6640031,1.3610601425170898,0.9497719084662868,1.3903628462884563,3.0452505188984396,0.9240908772802016,1.4422813579313476,2.9773849827489185,2,2.5681031186085224,-5.19185116428913,6.786553614952107,8.922319323391017,1,-4,-3,ok,130,252558.0,80,76.5,0,0,0,0,0,0,0.0,6.0,-956.0,0
1777593847.7375429,1.4345998764038086,0.9497719084662868,1.3903628462884563,3.0452505188984396,0.9192471330157412,1.3814647508875506,3.0092486074451466,2,3.052477545054555,0.8898095400905692,3.600191145329301,4.803202729804976,3,8,21,ok,130,252560.0,79,76.5,0,0,0,0,0,0,6.0,1.0,-1041.0,0
1777593847.8107011,1.5077581405639648,0.9497719084662868,1.3903628462884563,3.0452505188984396,0.919268353917332,1.382676470262898,3.0085012641397957,2,3.0503554548954814,0.7686376025558328,3.674925475864388,4.837411437786794,1,-2,0,ok,130,252563.0,79,76.5,0,0,0,0,0,0,21.0,5.0,-971.0,0
1777593847.8856902,1.582747220993042,0.9497719084662868,1.3903628462884563,3.0452505188984396,0.9532066241477094,1.4075414827920034,2.989970500143553,2,-0.34347156814226176,-1.7178636503547118,5.528001875488675,5.798951023654056,-11,-9,-9,ok,130,252554.0,79,76.5,0,0,0,0,0,0,-11.0,-6.0,-976.0,0
1777593847.963275,1.6603319644927979,0.9497719084662868,1.3903628462884563,3.0452505188984396,0.9294702674910785,1.4421872754543363,2.9768100689505372,2,2.0301640975208257,-5.182442916588004,6.844044994790233,8.821577678469366,9,-8,-15,ok,130,252554.0,79,76.5,0,0,0,0,0,0,-11.0,-6.0,-976.0,0
1777593848.036848,1.7339050769805908,0.9497719084662868,1.3903628462884563,3.0452505188984396,0.9560894724076957,1.3498022023333478,3.0312920264284386,2,-0.6317563941408921,4.05606439551085,1.3958492470000916,4.3358009228306855,-9,17,30,ok,130,252554.0,79,76.5,0,0,0,0,0,0,10.0,-8.0,-1020.0,0
1777593848.110595,1.8076519966125488,0.9497719084662868,1.3903628462884563,3.0452505188984396,0.9215290680975649,1.3817375449901075,3.007844193931867,2,2.8242840368721933,0.862530129834882,3.740632496657259,4.76580213823994,13,-10,-9,ok,130,252554.0,79,76.5,0,0,0,0,0,0,-6.0,0.0,-1003.0,0
1777593848.185697,1.8827540874481201,0.9497719084662868,1.3903628462884563,3.0452505188984396,0.8822193526141767,1.3539991720103761,3.025759725974965,2,6.755255585211007,3.6363674278080182,1.9490792923474665,7.91552627305382,17,4,12,ok,130,252554.0,79,76.5,0,0,0,0,0,0,-6.0,0.0,-1003.0,0
1777593848.261336,1.9583930969238281,0.9497719084662868,1.3903628462884563,3.0452505188984396,0.9275169538576133,1.4475123540608723,2.986100539047635,2,2.225495460867344,-5.714950777241601,5.914997985080461,8.520604062866754,-13,-17,-30,ok,130,252553.00000000003,79,76.5,0,0,0,0,0,0,-12.0,12.0,-1009.0,0
1777593848.3352032,2.0322601795196533,0.9497719084662868,1.3903628462884563,3.0452505188984396,0.9576054942753685,1.3504720558173104,3.0305339926666326,2,-0.7833585809081667,3.9890790471145854,1.471652623180697,4.323443506480187,-10,13,30,ok,130,252559.0,79,76.5,0,0,0,0,0,0,-15.0,26.0,-1064.0,0
1777593848.4105952,2.107652187347412,0.9497719084662868,1.3903628462884563,3.0452505188984396,0.9576054942753685,1.3504720558173104,3.0305339926666326,2,-0.7833585809081667,3.9890790471145854,1.471652623180697,4.323443506480187,0,-1,3,ok,130,252558.0,79,76.5,0,0,0,0,0,0,-24.0,37.0,-978.0,0
1777593848.485433,2.182490110397339,0.9497719084662868,1.3903628462884563,3.0452505188984396,0.9576054942753685,1.3504720558173104,3.0305339926666326,2,-0.7833585809081667,3.9890790471145854,1.471652623180697,4.323443506480187,0,-1,3,ok,130,252558.0,79,76.5,0,0,0,0,0,0,-24.0,37.0,-978.0,0
1777593848.561735,2.258791923522949,0.9497719084662868,1.3903628462884563,3.0452505188984396,0.9609419817853878,1.4185792661946892,3.008379544100597,2,-1.1170073319101026,-2.8216419906232915,3.6870974797842404,4.775359329748998,-1,-10,-24,ok,130,252557.00000000003,79,76.5,0,0,0,0,0,0,-20.0,40.0,-994.0,0
1777593848.6357288,2.3327858448028564,0.9497719084662868,1.3903628462884563,3.0452505188984396,0.9609419817853878,1.4185792661946892,3.008379544100597,2,-1.1170073319101026,-2.8216419906232915,3.6870974797842404,4.775359329748998,0,-2,-1,ok,130,252556.0,79,77.0,0,0,0,0,0,0,-35.0,0.0,-979.0,0
1777593848.709483,2.4065399169921875,0.9497719084662868,1.3903628462884563,3.0452505188984396,0.9609419817853878,1.4185792661946892,3.008379544100597,2,-1.1170073319101026,-2.8216419906232915,3.6870974797842404,4.775359329748998,0,-2,-1,ok,130,252561.0,79,77.0,0,0,0,0,0,0,14.0,-14.0,-1004.0,0
1777593848.7829561,2.480013132095337,0.9497719084662868,1.3903628462884563,3.0452505188984396,1.0368983124343287,1.2852072712101725,3.0736995055016796,2,-8.712640396804193,10.515557507828376,-2.8448986603240023,13.949211474917977,-30,23,30,ok,130,252561.0,79,77.0,0,0,0,0,0,0,14.0,-14.0,-1004.0,0
1777593848.8591821,2.556239128112793,0.9497719084662868,1.3903628462884563,3.0452505188984396,0.9954367515655693,1.3175841999863858,3.053008085374959,2,-4.566484309928254,7.277864630207054,-0.7757566476519262,8.626812325813974,11,-6,-5,ok,130,252556.0,79,77.0,0,0,0,0,0,0,-1.0,2.0,-1001.0,0
1777593848.930915,2.62797212600708,0.9497719084662868,1.3903628462884563,3.0452505188984396,0.922584532895652,1.391317454295443,3.0278611812845897,2,2.7187375570634775,-0.0954608006986657,1.7389337613849865,3.2287052041247204,27,-10,-25,ok,130,252553.00000000003,79,77.0,0,0,0,0,0,0,-7.0,8.0,-1007.0,0
1777593849.00452,2.7015769481658936,0.9497719084662868,1.3903628462884563,3.0452505188984396,0.922584532895652,1.391317454295443,3.0278611812845897,2,2.7187375570634775,-0.0954608006986657,1.7389337613849865,3.2287052041247204,1,-1,0,ok,130,252553.00000000003,79,77.0,0,0,0,0,0,0,-7.0,8.0,-1007.0,0
1777593849.079682,2.7767391204833984,0.9497719084662868,1.3903628462884563,3.0452505188984396,0.9218105631910947,1.392848400444712,3.027806635087135,2,2.7961345275192118,-0.24855541562556205,1.7443883811304683,3.30500210511958,2,-1,0,ok,130,252556.0,79,77.0,-1,-1,0,0,0,0,-33.0,15.0,-1029.0,0
1777593849.156103,2.8531599044799805,0.9497719084662868,1.3903628462884563,3.0452505188984396,0.9203235358074969,1.3922561256095438,3.0285219765544733,2,2.9448372658789856,-0.18932793210875154,1.6728542343966257,3.392101542985545,2,-1,0,ok,130,252559.0,79,77.0,0,-1,0,0,0,0,4.0,1.0,-1000.0,0
1777593849.234265,2.9313220977783203,0.9497719084662868,1.3903628462884563,3.0452505188984396,0.9608347941788387,1.419787061273587,3.009790978746703,2,-1.1062885712551873,-2.9424214985130703,3.545954015173658,4.738724359522078,-13,-8,-10,ok,130,252557.00000000003,79,77.0,0,0,0,0,0,0,2.0,21.0,-995.0,0
1777593849.309126,3.006182909011841,0.9497719084662868,1.3903628462884563,3.0452505188984396,0.9549699543056348,1.4772502550112212,2.9781676132346826,2,-0.519804583934802,-8.68874087227649,6.708290566375696,10.989339246468498,1,-15,-24,ok,130,252557.00000000003,79,77.0,0,0,0,0,0,0,2.0,21.0,-995.0,0
1777593849.384448,3.081505060195923,0.9497719084662868,1.3903628462884563,3.0452505188984396,0.9507142381647867,1.3559398673351595,3.043157945420987,2,-0.09423296984999441,3.4422978953296823,0.20925734774523974,3.4499396067733246,1,20,30,ok,130,252563.0,79,77.0,0,0,0,0,0,0,-21.0,5.0,-989.0,0
1777593849.4613461,3.158403158187866,0.9497719084662868,1.3903628462884563,3.0452505188984396,0.9078920335530836,1.3212194605066272,3.0525623536535536,2,4.187987491320322,6.91433857818291,-0.7311834755113988,8.11676946057142,16,2,16,ok,130,252544.99999999997,79,77.0,0,0,0,0,0,0,-18.0,17.0,-1025.0,0
1777593849.53506,3.232116937637329,0.9497719084662868,1.3903628462884563,3.0452505188984396,0.914991585866814,1.3861422366399747,3.0209761592820827,2,3.4780322599472835,0.4220609648481588,2.427435961635682,4.262310313330637,0,-12,-21,ok,130,252558.0,79,77.0,0,0,0,0,0,0,-10.0,15.0,-1008.0,0
1777593849.609188,3.3062450885772705,0.9497719084662868,1.3903628462884563,3.0452505188984396,0.9198337587735296,1.4462194171642988,2.9897162593386155,2,2.993814969275721,-5.58565708758425,5.553425955982405,8.426329747815394,0,-14,-23,ok,130,252558.0,79,77.0,0,0,0,0,0,0,-10.0,15.0,-1008.0,0
1777593849.68644,3.3834969997406006,0.9497719084662868,1.3903628462884563,3.0452505188984396,0.9442400839900034,1.3479680480825023,3.034911874564912,2,0.553182447628342,4.239479820595404,1.033864433352738,4.39864474993736,-7,13,30,ok,130,252552.0,78,76.0,0,0,0,0,0,0,10.0,0.0,-1056.0,0
1777593849.761605,3.4586620330810547,0.9497719084662868,1.3903628462884563,3.0452505188984396,0.9466493834049997,1.3495345934739738,3.0351141734947715,2,0.31225250612870736,4.082825281448255,1.0136345403668034,4.218343144866394,0,-1,2,ok,130,252554.0,78,76.0,0,0,0,0,0,0,-12.0,0.0,-980.0,0
1777593849.835945,3.5330018997192383,0.9497719084662868,1.3903628462884563,3.0452505188984396,0.9460038114428098,1.3472117119333662,3.035966376682474,2,0.3768097023477024,4.31511343550901,0.928414221596574,4.429914500298681,0,-1,4,ok,130,252542.0,78,76.0,0,0,0,0,0,0,-8.0,1.0,-960.0,0
1777593849.90957,3.6066269874572754,0.9497719084662868,1.3903628462884563,3.0452505188984396,0.9046792576673898,1.3157554876482975,3.0549320403286324,2,4.509265079889701,7.460735864015877,-0.9681521430192852,8.771166955733896,16,6,16,ok,130,252542.0,78,76.0,0,0,0,0,0,0,-8.0,1.0,-960.0,0
1777593849.982111,3.6791679859161377,0.9497719084662868,1.3903628462884563,3.0452505188984396,0.9111022542556796,1.377410857610529,3.0130174377507575,2,3.8669654210607196,1.295198867792724,3.2233081147682086,5.19814167540107,0,-17,-19,ok,130,252554.0,78,76.0,0,0,0,0,0,0,10.0,-10.0,-1021.0,0
1777593850.055565,3.752622127532959,0.9497719084662868,1.3903628462884563,3.0452505188984396,0.946441557739826,1.4079899565612397,3.0043014910708497,2,0.3330350726460818,-1.7627110272783408,4.094902782758991,4.4706030158747465,-11,-6,-10,ok,130,252546.99999999997,78,76.0,0,0,0,0,0,0,16.0,16.0,-1006.0,0
1777593850.133474,3.830531120300293,0.9497719084662868,1.3903628462884563,3.0452505188984396,0.9127510763795369,1.3730832957455428,3.0139324863936188,2,3.702083208674989,1.7279550542913524,3.131803250482079,5.147760712517089,13,0,13,ok,130,252546.0,78,76.0,0,0,0,0,0,0,-7.0,-5.0,-999.0,0
1777593850.207905,3.9049620628356934,0.9497719084662868,1.3903628462884563,3.0452505188984396,0.9417942100880282,1.3399626638971558,3.037611595801258,2,0.7977698378258569,5.040018239130051,0.7638923097181394,5.159627120805803,-8,6,15,ok,130,252546.0,78,76.0,0,0,0,0,0,0,-7.0,-5.0,-999.0,0
1777593850.284037,3.9810941219329834,0.9497719084662868,1.3903628462884563,3.0452505188984396,0.9121643542711584,1.3721550481861984,3.0139998586564234,2,3.76075541951284,1.8207798102257922,3.125066024201617,5.2177157931742855,12,-10,-8,ok,130,252553.00000000003,78,76.0,0,0,0,0,0,0,-7.0,19.0,-991.0,0
1777593850.359443,4.05649995803833,0.9497719084662868,1.3903628462884563,3.0452505188984396,0.9129912664758326,1.3693713815513089,3.0148571285634165,2,3.6780641990454166,2.0991464737147414,3.0393390335023085,5.212691620552609,2,-2,2,ok,130,252541.0,78,76.0,0,0,0,0,0,0,-5.0,-6.0,-984.0,0
1777593850.433366,4.130423069000244,0.9497719084662868,1.3903628462884563,3.0452505188984396,0.8806708093685378,1.3988651982440974,2.9913982324803,2,6.9101099097748975,-0.8502351955641085,5.385228641813944,8.801886523783322,15,-12,-10,ok,130,252544.0,78,76.0,0,0,0,0,0,0,-2.0,13.0,-1035.0,0
1777593850.507387,4.20444393157959,0.9497719084662868,1.3903628462884563,3.0452505188984396,0.9499283575652934,1.3950516351263524,2.9968918646292697,2,-0.015644909900658366,-0.46887888378961406,4.835865426916985,4.85856836919278,-22,-1,1,ok,130,252538.0,78,76.0,0,0,0,0,0,0,-21.0,27.0,-996.0,0
1777593850.5823748,4.2794318199157715,0.9497719084662868,1.3903628462884563,3.0452505188984396,0.9073879800601397,1.3612073725452438,3.0060201033365845,2,4.238392840614713,2.915547374321248,3.9230415561855025,6.469516629149657,16,0,13,ok,130,252538.0,78,76.0,0,0,0,0,0,0,-21.0,27.0,-996.0,0
1777593850.658161,4.355217933654785,0.9497719084662868,1.3903628462884563,3.0452505188984396,0.9412046183891333,1.3282564228358926,3.029726709951357,2,0.8567290077153511,6.2106423452563675,1.5523808947082607,6.458788537768337,-10,5,15,ok,130,252556.0,78,76.5,0,0,0,0,0,0,-27.0,12.0,-992.0,0
1777593850.732638,4.429694890975952,0.9497719084662868,1.3903628462884563,3.0452505188984396,0.9068303373102767,1.3590102865259674,3.0069013701172684,2,4.2941571156010045,3.135255976248885,3.8349148781171127,6.5556225861831825,14,-10,-7,ok,130,252552.0,78,76.5,0,0,0,0,0,0,12.0,13.0,-991.0,0
1777593850.807967,4.505023956298828,0.9497719084662868,1.3903628462884563,3.0452505188984396,0.879470598330875,1.3947328920607038,2.9931033092181982,2,7.030131013541174,-0.4370045772247533,5.2147209680241335,8.763961994578672,13,-8,-11,ok,130,252552.0,78,76.5,0,0,0,0,0,0,-12.0,22.0,-1033.0,0
1777593850.88221,4.5792670249938965,0.9497719084662868,1.3903628462884563,3.0452505188984396,0.9074458121875525,1.3617531726231569,3.017263885798049,2,4.23260962787343,2.860967366529943,2.7986633100390623,5.825172517383063,-6,5,13,ok,130,252552.0,78,76.5,0,0,0,0,0,0,-12.0,22.0,-1033.0,0
1777593850.957543,4.654599905014038,0.9497719084662868,1.3903628462884563,3.0452505188984396,0.9007924183734398,1.2882464264227989,3.0388928249138103,2,4.897949009284696,10.211641986565745,0.6357693984629265,11.343356614660728,5,5,30,ok,130,252546.0,78,76.5,0,0,0,0,0,0,-11.0,12.0,-1000.0,0
1777593851.031693,4.728749990463257,0.9497719084662868,1.3903628462884563,3.0452505188984396,0.9003085762086888,1.2924509084832443,3.049420163842997,2,4.946333225759803,9.791193780521201,-0.41696449445574046,10.977592970119138,3,2,6,ok,130,252546.99999999997,78,76.5,0,0,0,0,0,0,15.0,6.0,-998.0,0
1777593851.1050181,4.802075147628784,0.9497719084662868,1.3903628462884563,3.0452505188984396,0.9081424382532202,1.3538483934623566,3.007949790798148,2,4.162947021306662,3.6514452826099664,3.7300728100291725,6.676572752709245,0,-17,-17,ok,130,252546.0,78,76.5,0,0,0,0,0,0,-46.0,27.0,-1018.0,0
1777593851.1788878,4.8759448528289795,0.9497719084662868,1.3903628462884563,3.0452505188984396,0.8805937811149387,1.3898009935984366,2.9941619949550566,2,6.9178127351348095,0.05618526900197374,5.108852394338292,8.599980384278926,14,-8,-11,ok,130,252546.0,78,76.5,0,0,0,0,0,0,-46.0,27.0,-1018.0,0
1777593851.2528052,4.949862241744995,0.9497719084662868,1.3903628462884563,3.0452505188984396,0.9178195112525108,1.4210693532331629,2.986537863340171,2,3.1952397213775963,-3.0706506944706558,5.871265555826843,7.355964368562493,-9,-7,-11,ok,130,252544.0,78,76.5,0,-1,0,0,0,0,-4.0,25.0,-1008.0,0
1777593851.328358,5.025414943695068,0.9497719084662868,1.3903628462884563,3.0452505188984396,0.8693370888885139,1.327025405195605,3.025357661196807,2,8.043481957777288,6.333744109285133,1.9892857701632405,10.429341988944788,21,10,30,ok,130,252544.99999999997,78,76.5,0,-1,0,0,0,0,-2.0,1.0,-1004.0,0
1777593851.402487,5.099544048309326,0.9497719084662868,1.3903628462884563,3.0452505188984396,0.9022327645413858,1.2875877699484,3.040021655335524,2,4.753914392490099,10.277507634005634,0.5228863562915631,11.33579619434667,-7,3,21,ok,130,252544.99999999997,78,76.5,0,-1,0,0,0,0,-2.0,1.0,-1004.0,0
1777593851.477822,5.17487907409668,0.9497719084662868,1.3903628462884563,3.0452505188984396,0.8678839882594958,1.3307894875276571,3.036644646173048,2,8.188792020679102,5.957335876079917,0.8605872725391706,10.163010181635313,16,-2,-9,ok,130,252544.0,78,76.5,0,-1,0,0,0,0,0.0,40.0,-998.0,0
1777593851.554037,5.251094102859497,0.9497719084662868,1.3903628462884563,3.0452505188984396,0.8769379430112333,1.3899361517448305,2.9956555242519385,2,7.283396545505349,0.042669454362576076,4.959499464650108,8.811714978440891,2,-17,-18,ok,130,252540.0,78,76.5,0,0,0,0,0,0,30.0,-12.0,-1065.0,0
1777593851.6318521,5.328909158706665,0.9497719084662868,1.3903628462884563,3.0452505188984396,0.9028736786001655,1.3531347402229326,3.010379769392096,2,4.689822986612125,3.7228106065523736,3.487074950634339,6.929173844648134,-4,1,15,ok,130,252551.00000000003,77,76.5,0,0,0,0,0,0,-13.0,2.0,-1011.0,0
1777593851.704725,5.401782035827637,0.9497719084662868,1.3903628462884563,3.0452505188984396,0.8638139998135601,1.3264274237815101,3.027603955996713,2,8.595790865272669,6.393542250694617,1.7646562901726615,10.857210273977756,19,3,14,ok,130,252551.00000000003,77,76.5,0,0,0,0,0,0,-13.0,2.0,-1011.0,0
1777593851.781479,5.478535890579224,0.9497719084662868,1.3903628462884563,3.0452505188984396,0.8732315139835648,1.3900643276944007,2.9971721713053183,2,7.654039448272199,0.029851859405560788,4.807834759312124,9.038832119365136,2,-14,-19,ok,130,252541.0,77,76.5,0,0,0,0,0,0,-7.0,0.0,-984.0,0
1777593851.854918,5.5519750118255615,0.9497719084662868,1.3903628462884563,3.0452505188984396,0.9002022338623827,1.358059284967072,3.02148967560246,2,4.956967460390405,3.2303561321384233,2.3760843295979495,6.37593160919834,-5,5,14,ok,130,252552.0,77,76.5,0,0,0,0,0,0,-23.0,35.0,-979.0,0
1777593851.925906,5.622962951660156,0.9497719084662868,1.3903628462884563,3.0452505188984396,0.8896596917381249,1.289182495351094,3.0543136528690242,2,6.011221672816191,10.118035093736232,-0.9063133970584669,11.803847852776684,8,10,30,ok,130,252546.99999999997,77,76.5,0,0,0,0,0,0,2.0,2.0,-1042.0,0
1777593851.99838,5.695436954498291,0.9497719084662868,1.3903628462884563,3.0452505188984396,0.8972759761254885,1.3565241799137189,3.0232378913329536,2,5.24959323407983,3.3838666374737425,2.2012627565485943,6.622260963362324,1,-13,-19,ok,130,252546.99999999997,77,76.5,0,0,0,0,0,0,2.0,2.0,-1042.0,0
1777593852.071607,5.768664121627808,0.9497719084662868,1.3903628462884563,3.0452505188984396,0.888029664613607,1.2883366990211842,3.055170801917667,2,6.174224385267979,10.20261472672721,-0.9920283019227316,11.966558159031543,7,10,30,ok,130,252555.00000000003,77,76.5,0,0,0,0,0,0,-8.0,-9.0,-991.0,0
1777593852.142314,5.839370965957642,0.9497719084662868,1.3903628462884563,3.0452505188984396,0.8958064723495032,1.3557447191342018,3.0241239833134625,2,5.396543611678362,3.4618127154254497,2.1126535584977013,6.750565553171146,1,-13,-20,ok,130,252548.0,77,76.5,0,0,0,0,0,0,-4.0,17.0,-1056.0,0
1777593852.2133918,5.910448789596558,0.9497719084662868,1.3903628462884563,3.0452505188984396,0.8632112237710001,1.3884324883560408,3.000052016031196,2,8.656068469528666,0.19303579324154718,4.519850286724347,9.766976542464043,17,-12,-10,ok,130,252548.0,77,76.5,0,0,0,0,0,0,-4.0,17.0,-1056.0,0
1777593852.283551,5.980607986450195,0.9497719084662868,1.3903628462884563,3.0452505188984396,0.8923042091482785,1.35799870247414,3.0248323608612444,2,5.7467699318008325,3.2364143814316293,2.0418158037195155,6.904256257824327,-5,6,14,ok,130,252557.00000000003,77,76.5,0,-1,0,0,0,0,2.0,15.0,-968.0,0
1777593852.35409,6.051146984100342,0.9497719084662868,1.3903628462884563,3.0452505188984396,0.8661779448194025,1.3979363582390696,3.0105418248675324,2,8.359396364688433,-0.7573511950613288,3.470869403090715,9.082952318929033,15,-8,-13,ok,130,252551.00000000003,77,76.5,0,-1,0,0,0,0,23.0,4.0,-1033.0,0
1777593852.425573,6.1226301193237305,0.9497719084662868,1.3903628462884563,3.0452505188984396,0.87820868025634,1.2899501095305248,3.058321355328165,2,7.156322820994676,10.04127367579315,-1.3070836429725396,12.399540354391853,1,16,30,ok,130,252551.00000000003,77,76.5,0,-1,0,0,0,0,23.0,4.0,-1033.0,0
1777593852.4968488,6.193905830383301,0.9497719084662868,1.3903628462884563,3.0452505188984396,0.8765200260278881,1.2890750035153205,3.0592079479738707,2,7.3251882438398646,10.128784277313585,-1.3957429075431182,12.577708535659488,6,0,8,ok,130,252557.00000000003,77,76.5,0,0,0,0,0,0,-5.0,12.0,-957.0,0
1777593852.567779,6.264836072921753,0.9497719084662868,1.3903628462884563,3.0452505188984396,0.8428936422036699,1.3253431962759734,3.03425332976738,2,10.687826626261687,6.501965001248289,1.0997189131059404,12.558446104448146,19,-10,-6,ok,130,252557.00000000003,77,76.5,0,0,0,0,0,0,-36.0,33.0,-989.0,0
1777593852.63888,6.335937023162842,0.9497719084662868,1.3903628462884563,3.0452505188984396,0.8456468695816667,1.3306246256625514,3.045023985040031,2,10.41250388846201,5.973822062590495,0.02265338584086507,12.004470019064543,6,2,3,ok,130,252550.0,77,76.5,0,0,0,0,0,0,14.0,-6.0,-1012.0,0
1777593852.7105029,6.407559871673584,0.9497719084662868,1.3903628462884563,3.0452505188984396,0.873734517657339,1.289917425755637,3.05997682022253,2,7.603739080894778,10.044542053281935,-1.4726301324090585,12.683781477830458,-3,4,22,ok,130,252550.0,77,76.5,0,0,0,0,0,0,14.0,-6.0,-1012.0,0
1777593852.780902,6.477958917617798,0.9497719084662868,1.3903628462884563,3.0452505188984396,0.869622104621983,1.294771109424206,3.0702504706854596,2,8.01498038443038,9.559173686425027,-2.499995178702008,12.722723294309976,7,3,6,ok,130,252548.0,77,76.5,0,0,0,0,0,0,-44.0,42.0,-994.0,0
1777593852.852297,6.549354076385498,0.9497719084662868,1.3903628462884563,3.0452505188984396,0.8514971419947964,1.398573730771449,3.013174468603137,2,9.827476647149036,-0.8210884482992675,3.2076050295302583,10.370256193347297,13,-23,-30,ok,130,252550.0,77,76.5,0,0,0,0,0,0,-13.0,32.0,-974.0,0
1777593852.923837,6.620893955230713,0.9497719084662868,1.3903628462884563,3.0452505188984396,0.8765085738797904,1.3685787114789265,3.037895276362573,2,7.3263334586496365,2.1784134809529787,0.7355242535866502,7.678648524899484,-2,6,13,ok,130,252550.0,77,76.5,0,0,0,0,0,0,-13.0,32.0,-974.0,0
1777593852.9959161,6.6929731369018555,0.9497719084662868,1.3903628462884563,3.0452505188984396,0.8479455282008743,1.4084375617104112,3.023096419533554,2,10.182638026541246,-1.8074715421954934,2.215409936488566,10.576441355300119,17,-7,-13,ok,130,252548.99999999997,77,76.5,0,0,0,0,0,0,-18.0,21.0,-983.0,0
1777593853.067143,6.76419997215271,0.9497719084662868,1.3903628462884563,3.0452505188984396,0.8470093125935615,1.4100137334427942,3.022972859595506,2,10.276259587272529,-1.9650887154337937,2.227765930293346,10.69701013389777,8,-2,0,ok,130,252552.0,77,76.5,0,0,0,0,0,0,-43.0,58.0,-922.0,0
1777593853.137462,6.834518909454346,0.9497719084662868,1.3903628462884563,3.0452505188984396,0.8470093125935615,1.4100137334427942,3.022972859595506,2,10.276259587272529,-1.9650887154337937,2.227765930293346,10.69701013389777,7,-2,0,ok,130,252552.0,77,76.5,0,0,0,0,0,0,-43.0,58.0,-922.0,0
1777593853.207506,6.904562950134277,0.9497719084662868,1.3903628462884563,3.0452505188984396,0.8460765217883217,1.4115994394311486,3.0228488766183506,2,10.369538667796508,-2.123659314269233,2.2401642280089007,10.819223485743334,8,-2,0,ok,130,252551.00000000003,77,76.5,0,0,0,0,0,0,-24.0,30.0,-1003.0,0
1777593853.278686,6.975743055343628,0.9497719084662868,1.3903628462884563,3.0452505188984396,0.8346508931850194,1.3436767050578196,3.0435884663479182,2,11.512101528126738,4.668614123063675,0.16620525505213202,12.423850595156663,12,5,28,ok,130,252546.99999999997,77,76.5,0,0,0,0,0,0,-24.0,41.0,-984.0,0
1777593853.349875,7.046931982040405,0.9497719084662868,1.3903628462884563,3.0452505188984396,0.8451478722710585,1.41319478308839,3.0227245043730826,2,10.462403619522831,-2.283193679993367,2.2526014525356963,10.942992103722455,4,-9,-24,ok,130,252546.99999999997,77,76.5,0,0,0,0,0,0,-24.0,41.0,-984.0,0
1777593853.421037,7.118093967437744,0.9497719084662868,1.3903628462884563,3.0452505188984396,0.8658240696980126,1.3102125274902132,3.0688316440526435,2,8.394783876827416,8.015031879824308,-2.3581125154203963,11.843725216696976,0,16,30,ok,130,252548.99999999997,77,76.5,0,0,0,0,0,0,-1.0,7.0,-995.0,0
1777593853.492061,7.189117908477783,0.9497719084662868,1.3903628462884563,3.0452505188984396,0.8442226848775595,1.4147983982686103,3.0226001189447507,2,10.554922358872732,-2.4435551980154013,2.2650399953688893,11.068322103562052,15,-18,-30,ok,130,252546.99999999997,77,76.5,0,0,0,0,0,0,-4.0,-4.0,-1028.0,0
1777593853.567051,7.264107942581177,0.9497719084662868,1.3903628462884563,3.0452505188984396,0.8475522594856509,1.419222017704734,3.02179369793103,2,10.221964898063584,-2.8859171416277807,2.345682096740953,10.87746793259149,7,-3,-1,ok,130,252557.00000000003,77,76.5,0,0,0,0,0,0,-13.0,19.0,-948.0,0
1777593853.63863,7.335686922073364,0.9497719084662868,1.3903628462884563,3.0452505188984396,0.8820131471675907,1.4436945464357969,3.0047047539374283,2,6.775876129869607,-5.333170014734057,4.0545764961011255,9.528630032493174,-5,-9,-10,ok,130,252557.00000000003,77,76.5,0,0,0,0,0,0,-13.0,19.0,-948.0,0
1777593853.708575,7.405632019042969,0.9497719084662868,1.3903628462884563,3.0452505188984396,0.8430811642662379,1.4203419156005324,3.0213804937328703,2,10.669074420004886,-2.9979069312076057,2.387002516556924,11.336418127514277,22,3,7,ok,130,252558.0,77,76.5,0,0,0,0,0,0,-10.0,30.0,-990.0,0
1777593853.778198,7.475255012512207,0.9497719084662868,1.3903628462884563,3.0452505188984396,0.8430811642662379,1.4203419156005324,3.0213804937328703,2,10.669074420004886,-2.9979069312076057,2.387002516556924,11.336418127514277,8,-2,0,ok,130,252548.0,77,76.5,0,0,0,0,0,0,-5.0,6.0,-989.0,0
1777593853.848869,7.545926094055176,0.9497719084662868,1.3903628462884563,3.0452505188984396,0.8690841310301565,1.3842166205710624,3.0360241363077147,2,8.068777743613031,0.6146225717393872,0.9226382590724835,8.14458080803554,-1,3,14,ok,130,252548.0,77,76.5,0,0,0,0,0,0,-5.0,6.0,-989.0,0
1777593853.923123,7.620179891586304,0.9497719084662868,1.3903628462884563,3.0452505188984396,0.8727318542829334,1.3911041662197074,3.045992693221585,2,7.704005418335336,-0.07413199312511498,-0.07421743231454947,7.704719544889631,5,1,0,ok,130,252548.0,77,76.5,0,0,0,0,0,0,-28.0,13.0,-972.0,0
1777593853.995497,7.692553997039795,0.9497719084662868,1.3903628462884563,3.0452505188984396,0.8727318542829334,1.3911041662197074,3.045992693221585,2,7.704005418335336,-0.07413199312511498,-0.07421743231454947,7.704719544889631,7,-1,1,ok,130,252548.99999999997,77,76.5,0,0,0,0,0,0,0.0,11.0,-1016.0,0
1777593854.068555,7.7656121253967285,0.9497719084662868,1.3903628462884563,3.0452505188984396,0.8733223462795567,1.3922709550811043,3.0458199306367084,2,7.644956218673005,-0.19081087926480222,-0.05694117382688546,7.647549063219512,6,-1,1,ok,130,252548.99999999997,77,76.5,0,0,0,0,0,0,-17.0,15.0,-1010.0,0
1777593854.143048,7.840105056762695,0.9497719084662868,1.3903628462884563,3.0452505188984396,0.851453419056807,1.4885240310829317,2.999080308425827,2,9.831848940947975,-9.816118479447544,4.617021047261272,14.640297775353647,15,-19,-30,ok,130,252548.99999999997,77,76.5,0,0,0,0,0,0,-17.0,15.0,-1010.0,0
1777593854.218966,7.916023015975952,0.9497719084662868,1.3903628462884563,3.0452505188984396,0.8848664004521223,1.4572325148168646,3.013049660300851,2,6.49055080141645,-6.6869668528408255,3.220085859758859,9.859600820569694,-4,1,6,ok,130,252551.00000000003,77,76.5,0,0,0,0,0,0,-19.0,8.0,-1008.0,0
1777593854.296885,7.993942022323608,0.9497719084662868,1.3903628462884563,3.0452505188984396,0.8185041866018321,1.464513670910264,3.003881492349326,2,13.126772186445468,-7.4150824621807665,4.136902654911356,15.633603536356924,30,-6,-6,ok,130,252546.0,77,76.5,0,0,0,0,0,0,-9.0,28.0,-1024.0,0
1777593854.3737228,8.070779800415039,0.9497719084662868,1.3903628462884563,3.0452505188984396,0.8741406523685342,1.3959808213201477,3.0440374563132666,2,7.563125609775256,-0.5617975031691369,0.12130625851729526,7.584932473803632,-11,11,23,ok,130,252548.99999999997,77,76.5,0,0,0,0,0,0,-8.0,21.0,-969.0,0
1777593854.448747,8.145803928375244,0.9497719084662868,1.3903628462884563,3.0452505188984396,0.877797551564568,1.456026158091908,3.0125089665116054,2,7.197435690171883,-6.566331180345175,3.2741552386834183,10.278126201362355,5,-13,-23,ok,130,252552.0,77,76.5,0,0,0,0,0,0,-9.0,13.0,-1002.0,0
1777593854.524076,8.22113299369812,0.9497719084662868,1.3903628462884563,3.0452505188984396,0.8741406523685342,1.3959808213201477,3.0440374563132666,2,7.563125609775256,-0.5617975031691369,0.12130625851729526,7.584932473803632,8,8,20,ok,130,252555.00000000003,77,76.5,0,0,0,0,0,0,6.0,12.0,-1067.0,0
1777593854.600466,8.297523021697998,0.9497719084662868,1.3903628462884563,3.0452505188984396,0.9045413114853831,1.3567090258546637,3.0581139660022125,2,4.52305969809037,3.3653820433792614,-1.2863447103772963,5.782607374213174,-4,4,16,ok,130,252555.00000000003,77,76.5,0,0,0,0,0,0,6.0,12.0,-1067.0,0
1777593854.674418,8.371474981307983,0.9497719084662868,1.3903628462884563,3.0452505188984396,0.8758073698185836,1.396702711996498,3.043178934525123,2,7.396453864770313,-0.6339865708041792,0.20715843733167816,7.4264650651432715,16,-6,-12,ok,130,252559.0,76,76.0,0,0,0,0,0,0,-22.0,26.0,-981.0,0
1777593854.749503,8.44655990600586,0.9497719084662868,1.3903628462884563,3.0452505188984396,0.8468827867074927,1.4278793163784052,3.0177370917248223,2,10.288912175879405,-3.751647008994885,2.7513427173617266,11.291875654267503,18,-11,-11,ok,130,252559.0,76,76.0,0,0,0,0,0,0,-22.0,26.0,-981.0,0
1777593854.82675,8.523807048797607,0.9497719084662868,1.3903628462884563,3.0452505188984396,0.8484945623235118,1.4285127909341861,3.01693749306552,2,10.127734614277495,-3.814994464572985,2.8313025832919614,11.186664628034254,8,-3,-1,ok,130,252553.00000000003,76,76.0,0,0,0,0,0,0,-3.0,2.0,-1005.0,0
1777593854.902323,8.599380016326904,0.9497719084662868,1.3903628462884563,3.0452505188984396,0.9203746845884546,1.4252674539931927,3.022404407786206,2,2.939722387783217,-3.4904607704736357,2.284611111223356,5.103403965685499,-19,-1,0,ok,130,252553.00000000003,76,76.0,0,0,0,0,0,0,-3.0,2.0,-1005.0,0
1777593854.9742699,8.671326875686646,0.9497719084662868,1.3903628462884563,3.0452505188984396,0.8606539020887514,1.4879518375256038,2.983896009528147,2,8.911800637753542,-9.758899123714748,6.135450937029274,14.570520269180449,28,-18,-27,ok,130,252552.0,76,76.0,0,0,0,0,0,0,-26.0,15.0,-977.0,0
1777593855.048105,8.745162010192871,0.9497719084662868,1.3903628462884563,3.0452505188984396,0.8907706083844453,1.4602510351774396,3.0077050799214153,2,5.900130008184146,-6.988818888898329,3.7545438977024226,9.886947125127737,-3,4,5,ok,130,252555.00000000003,76,76.0,0,0,0,0,0,0,6.0,-3.0,-1036.0,0
1777593855.123127,8.820183992385864,0.9497719084662868,1.3903628462884563,3.0452505188984396,0.8929122248810153,1.4542479169719456,2.996680258916268,2,5.685968358527149,-6.388507068348925,4.857025998217157,9.835342408064577,5,-8,-1,ok,130,252555.00000000003,76,76.0,0,0,0,0,0,0,6.0,-3.0,-1036.0,0
1777593855.200623,8.897680044174194,0.9497719084662868,1.3903628462884563,3.0452505188984396,0.887176689852939,1.395042781756186,3.0277580710717267,2,6.2595218613347825,-0.4679935467729601,1.7492447826712887,6.516171360703455,8,7,20,ok,130,252557.00000000003,76,76.0,0,0,0,0,0,0,-30.0,24.0,-978.0,0
1777593855.275362,8.972419023513794,0.9497719084662868,1.3903628462884563,3.0452505188984396,0.8959156370707966,1.4554741815019683,2.995048727308657,2,5.385627139549021,-6.511133521351198,5.020179158978255,9.828633588009568,3,-15,-23,ok,130,252553.00000000003,76,76.0,0,0,0,0,0,0,-34.0,3.0,-980.0,0
1777593855.350236,9.047292947769165,0.9497719084662868,1.3903628462884563,3.0452505188984396,0.8904408468151108,1.3963594612117811,3.0261744554704277,2,5.9331061651175965,-0.5996614923324817,1.9076063428011825,6.261014664656053,8,7,20,ok,130,252551.00000000003,76,76.0,0,0,0,0,0,0,19.0,-9.0,-1059.0,0
1777593855.420646,9.117702960968018,0.9497719084662868,1.3903628462884563,3.0452505188984396,0.8989062995655493,1.4566738598092228,2.993449519791542,2,5.086560890073743,-6.6311013520766515,5.180099910689773,9.832499271023048,3,-15,-24,ok,130,252551.00000000003,76,76.0,0,0,0,0,0,0,19.0,-9.0,-1059.0,0
1777593855.497979,9.195035934448242,0.9497719084662868,1.3903628462884563,3.0452505188984396,0.8717326545772781,1.4902238406730035,2.9786042403242226,2,7.8039253889008675,-9.98609943845472,6.664627857421701,14.319242226743656,16,-10,-17,ok,130,252556.0,76,76.0,0,0,0,0,0,0,-21.0,17.0,-986.0,0
1777593855.572929,9.269985914230347,0.9497719084662868,1.3903628462884563,3.0452505188984396,0.9351181727548584,1.4297332100158764,3.0148035403058504,2,1.4653735711428362,-3.937036372742009,3.044697859258916,5.188232854978011,-16,8,18,ok,130,252546.0,76,76.0,0,0,0,0,0,0,14.0,14.0,-1017.0,0
1777593855.648718,9.345775127410889,0.9497719084662868,1.3903628462884563,3.0452505188984396,0.9312287484634857,1.367195832510896,3.046444258494161,2,1.8543160002801096,2.3167013777560364,-0.11937395957213326,2.969822089758151,5,8,23,ok,130,252550.0,76,76.5,0,0,0,0,0,0,-6.0,19.0,-969.0,0
1777593855.724389,9.421446084976196,0.9497719084662868,1.3903628462884563,3.0452505188984396,0.932290218648263,1.4309830255199487,3.0137933564260164,2,1.7481689818023782,-4.0620179231492415,3.145716247242314,5.426934227083088,3,-14,-23,ok,130,252550.0,76,76.5,0,0,0,0,0,0,-6.0,19.0,-969.0,0
1777593855.7980402,9.495097160339355,0.9497719084662868,1.3903628462884563,3.0452505188984396,0.9333788301687247,1.3710299580365388,3.04500634392647,2,1.6393078297562091,1.933288825191748,0.024417497196971283,2.534863321064997,3,8,22,ok,130,252553.00000000003,76,76.5,0,0,0,0,0,0,7.0,0.0,-1007.0,0
1777593855.8714151,9.568472146987915,0.9497719084662868,1.3903628462884563,3.0452505188984396,0.9345098925740647,1.433822182487074,3.0121622769438323,2,1.5262015892222092,-4.345933619861775,3.3088241954607245,5.67139734771384,3,-14,-23,ok,130,252551.00000000003,76,76.5,0,0,0,0,0,0,-13.0,17.0,-1019.0,0
1777593855.94662,9.643676996231079,0.9497719084662868,1.3903628462884563,3.0452505188984396,0.9395302970918968,1.4354107168846348,3.0115256126910688,2,1.0241611374389947,-4.504787059617854,3.3724906207370786,5.719764459739611,2,-4,-2,ok,130,252551.00000000003,76,76.5,0,0,0,0,0,0,-13.0,17.0,-1019.0,0
1777593856.022065,9.719121932983398,0.9497719084662868,1.3903628462884563,3.0452505188984396,0.9366830039186643,1.3723856618401555,3.043450083414152,2,1.308890454762246,1.7977184448300765,0.18004354842875436,2.2310090785966796,5,8,22,ok,130,252551.00000000003,76,76.5,0,0,0,0,0,0,7.0,5.0,-1036.0,0
1777593856.0976,9.794656991958618,0.9497719084662868,1.3903628462884563,3.0452505188984396,0.941052667499305,1.436017154123777,3.010750625805726,2,0.8719240966981734,-4.565430783532065,3.4499893092713396,5.7884225920117185,2,-15,-24,ok,130,252559.0,76,76.5,0,0,0,0,0,0,10.0,-5.0,-1012.0,0
1777593856.171726,9.868782997131348,0.9497719084662868,1.3903628462884563,3.0452505188984396,0.941052667499305,1.436017154123777,3.010750625805726,2,0.8719240966981734,-4.565430783532065,3.4499893092713396,5.7884225920117185,3,-3,-2,ok,130,252548.99999999997,76,76.5,0,0,0,0,0,0,-2.0,11.0,-1019.0,0
1777593856.246005,9.94306206703186,0.9497719084662868,1.3903628462884563,3.0452505188984396,0.9043237334167757,1.4089467700564597,3.0297113895791905,2,4.544817504951104,-1.858392376800344,1.5539129319249056,5.150110074499676,18,3,8,ok,130,252548.99999999997,76,76.5,0,0,0,0,0,0,-2.0,11.0,-1019.0,0
1777593856.320055,10.017112016677856,0.9497719084662868,1.3903628462884563,3.0452505188984396,0.9410990041790328,1.4371536384036347,3.009903472139889,2,0.867290428725398,-4.679079211517845,3.5347046758550604,5.927909589469864,-8,-10,-11,ok,130,252559.0,76,76.5,0,0,0,0,0,0,-10.0,15.0,-1006.0,0
1777593856.39595,10.09300708770752,0.9497719084662868,1.3903628462884563,3.0452505188984396,0.9088569988818411,1.4708362118860228,2.997474522472734,2,4.091490958444566,-8.047336559756646,4.7775996425705625,10.213979749036119,16,-9,-16,ok,130,252564.0,76,76.5,0,0,0,0,0,0,0.0,26.0,-998.0,0
1777593856.469163,10.16621994972229,0.9497719084662868,1.3903628462884563,3.0452505188984396,0.9437735666540573,1.4998850908955514,2.9885806270413893,2,0.5998341812229468,-10.952224460709514,5.666989185705029,12.34608391813473,-8,-8,-16,ok,130,252548.99999999997,76,76.5,0,0,0,0,0,0,0.0,19.0,-1001.0,0
1777593856.543912,10.240968942642212,0.9497719084662868,1.3903628462884563,3.0452505188984396,0.936649125132306,1.377847176411238,3.0538875382794477,2,1.3122783333980759,1.2515669877218194,-0.8637019381008137,2.008600355207626,6,20,30,ok,130,252548.99999999997,76,76.5,0,0,0,0,0,0,0.0,19.0,-1001.0,0
1777593856.619456,10.316513061523438,0.9497719084662868,1.3903628462884563,3.0452505188984396,0.936649125132306,1.377847176411238,3.0538875382794477,2,1.3122783333980759,1.2515669877218194,-0.8637019381008137,2.008600355207626,4,-1,1,ok,130,252548.99999999997,76,76.5,0,0,0,0,0,0,-14.0,4.0,-1009.0,0
1777593856.6968582,10.393915176391602,0.9497719084662868,1.3903628462884563,3.0452505188984396,0.9431218335937694,1.497846666536962,2.9893952059467397,2,0.6650074872517342,-10.748382024850578,5.585531295169988,12.131286451137619,1,-26,-30,ok,130,252550.0,76,76.0,0,0,0,0,0,0,-12.0,15.0,-986.0,0
1777593856.770916,10.467972993850708,0.9497719084662868,1.3903628462884563,3.0452505188984396,0.9319098076413357,1.374455856067281,3.0545308345455604,2,1.78621008249511,1.5906990221175255,-0.928031564712084,2.5655627887219596,8,20,30,ok,130,252548.99999999997,76,76.0,0,0,0,0,0,0,-27.0,21.0,-1014.0,0
1777593856.845658,10.542715072631836,0.9497719084662868,1.3903628462884563,3.0452505188984396,0.9367491439163265,1.3737547877173784,3.0547622776882015,2,1.302276454996032,1.6608058571077944,-0.9511758789761959,2.3149374965615652,2,-1,1,ok,130,252548.99999999997,76,76.0,0,0,0,0,0,0,-27.0,21.0,-1014.0,0
1777593856.920927,10.617984056472778,0.9497719084662868,1.3903628462884563,3.0452505188984396,0.943952886393502,1.4433004400230525,3.03255473853227,2,0.581902207278473,-5.293759373459617,1.2695780366169362,5.474881448395684,1,-10,-26,ok,130,252546.0,76,76.0,0,0,0,0,0,0,-13.0,18.0,-985.0,0
1777593856.99493,10.691987037658691,0.9497719084662868,1.3903628462884563,3.0452505188984396,0.9360386291842029,1.372559895329727,3.0548155966459984,2,1.37332792820839,1.7802950958729191,-0.9565077747558881,2.443437609179898,6,6,25,ok,130,252556.0,76,76.0,0,0,0,0,0,0,-3.0,1.0,-990.0,0
1777593857.069082,10.766139030456543,0.9497719084662868,1.3903628462884563,3.0452505188984396,0.906475519626795,1.4073176644971492,3.0421319297934266,2,4.329638883949183,-1.6954818208692934,0.3118589105012948,4.660223969978486,15,-6,-12,ok,130,252556.0,76,76.0,0,0,0,0,0,0,-3.0,1.0,-990.0,0
1777593857.145789,10.842845916748047,0.9497719084662868,1.3903628462884563,3.0452505188984396,0.9397079835862342,1.4373056663948653,3.034070833436236,2,1.0063924880052588,-4.6942820106409044,1.1179685462203715,4.929397844126433,-6,-5,-12,ok,130,252546.99999999997,76,76.0,0,0,0,0,0,0,-11.0,6.0,-1021.0,0
1777593857.221384,10.9184410572052,0.9497719084662868,1.3903628462884563,3.0452505188984396,0.8695723861274735,1.4386867589778478,3.029019114530638,2,8.019952233881334,-4.832391268939151,1.623140436780135,9.502958701760642,30,-4,-3,ok,130,252558.0,76,76.0,0,0,0,0,0,0,13.0,22.0,-1017.0,0
1777593857.2979279,10.994984865188599,0.9497719084662868,1.3903628462884563,3.0452505188984396,0.9006733631123058,1.4063613275063034,3.0541547429080484,2,4.909854535398095,-1.5998481217847083,-0.8904224009608885,5.240137176036544,-3,6,9,ok,130,252542.0,76,76.0,0,0,0,0,0,0,14.0,2.0,-1033.0,0
1777593857.3726,11.06965708732605,0.9497719084662868,1.3903628462884563,3.0452505188984396,0.8999643799815646,1.4040956456712652,3.0550071382568054,2,4.980752848472214,-1.3732799382808913,-0.9756619358365803,5.257919069317179,6,-1,0,ok,130,252542.0,76,76.0,0,0,0,0,0,0,14.0,2.0,-1033.0,0
1777593857.447768,11.144824981689453,0.9497719084662868,1.3903628462884563,3.0452505188984396,0.9417037033346102,1.4949098525115714,3.014223998372133,2,0.8068205131676609,-10.454700622311508,3.1026520526306722,10.935180574746905,-9,-17,-30,ok,130,252551.00000000003,76,76.0,0,0,0,0,0,0,4.0,-9.0,-968.0,0
1777593857.52288,11.219937086105347,0.9497719084662868,1.3903628462884563,3.0452505188984396,0.8681645463948765,1.4306971343432164,3.0315848880227425,2,8.160736207141028,-4.033428805476014,1.3665630875697055,9.205088703738506,30,2,18,ok,130,252552.0,76,76.0,0,0,0,0,0,0,-31.0,14.0,-952.0,0
1777593857.599871,11.29692792892456,0.9497719084662868,1.3903628462884563,3.0452505188984396,0.8994895608427986,1.3979597771404375,3.056822985328229,2,5.0282347623488155,-0.759693085198121,-1.1572466429789596,5.215313816222085,-3,6,10,ok,130,252542.0,76,76.0,0,0,0,0,0,0,-22.0,22.0,-999.0,0
1777593857.673481,11.370537996292114,0.9497719084662868,1.3903628462884563,3.0452505188984396,0.8952222570897584,1.4002451776868168,3.068034456379939,2,5.4549651376528345,-0.9882331398360478,-2.278393748149954,5.993690637936431,8,3,-1,ok,130,252542.0,76,76.0,0,0,0,0,0,0,-22.0,22.0,-999.0,0
1777593857.747892,11.44494891166687,0.9497719084662868,1.3903628462884563,3.0452505188984396,0.9054013860112655,1.462708818823844,3.035412808934664,2,4.437052245502127,-7.234597253538766,0.9837709963775421,8.543689801458138,2,-13,-25,ok,130,252551.00000000003,76,76.5,0,0,0,0,0,0,-11.0,22.0,-968.0,0
1777593857.822697,11.51975393295288,0.9497719084662868,1.3903628462884563,3.0452505188984396,0.9062644220471101,1.4612485180863235,3.035479473296148,2,4.350748641917668,-7.08856717978672,0.9771045602291473,8.374457100559923,6,-2,-4,ok,130,252542.0,76,76.5,0,0,0,0,0,0,-7.0,17.0,-1004.0,0
1777593857.896527,11.593584060668945,0.9497719084662868,1.3903628462884563,3.0452505188984396,0.8688815146717958,1.4296385257867592,3.0431835343512215,2,8.089039379449103,-3.9275679498302907,0.2066984547218098,8.994502339429172,21,0,8,ok,130,252550.0,76,76.5,0,0,0,0,0,0,-7.0,6.0,-962.0,0
1777593857.970741,11.667798042297363,0.9497719084662868,1.3903628462884563,3.0452505188984396,0.8279326896786233,1.4038290873566668,3.0597102469973954,2,12.183921878766347,-1.3466241068210483,-1.4459728098955793,12.34310277847147,25,4,7,ok,130,252542.0,76,76.5,0,0,0,0,0,0,-22.0,30.0,-977.0,0
1777593858.046239,11.743295907974243,0.9497719084662868,1.3903628462884563,3.0452505188984396,0.9020942734178848,1.398037326337894,3.0677412562120927,2,4.767763504840195,-0.7674480049437715,-2.249073731365314,5.327182926040341,-18,2,1,ok,130,252541.0,76,76.5,0,0,0,0,0,0,0.0,9.0,-1024.0,0
1777593858.1202931,11.817350149154663,0.9497719084662868,1.3903628462884563,3.0452505188984396,0.9345053298121573,1.2902475847630446,3.1256159586714305,2,1.5266578654129503,10.011526152541173,-8.036543977299093,12.928548999795197,-5,21,30,ok,130,252541.0,76,76.5,0,0,0,0,0,0,0.0,9.0,-1024.0,0
1777593858.198569,11.895626068115234,0.9497719084662868,1.3903628462884563,3.0452505188984396,0.9372716876438234,1.2893850082983866,3.124811774444691,2,1.2500220822463382,10.097783799006965,-7.956125554625126,12.916180809300789,3,2,7,ok,130,252546.99999999997,76,76.5,0,0,0,0,0,0,-9.0,-7.0,-984.0,0
1777593858.272876,11.969933032989502,0.9497719084662868,1.3903628462884563,3.0452505188984396,0.8826571138133654,1.4928882308806548,3.0190481137832283,2,6.711479465292136,-10.252538459219851,2.6202405115211214,12.530928210194034,26,-30,-30,ok,130,252553.00000000003,76,76.5,0,0,0,0,0,0,2.0,26.0,-1061.0,0
1777593858.3466449,12.043701887130737,0.9497719084662868,1.3903628462884563,3.0452505188984396,0.9416869034535533,1.2894008286066914,3.123162384728254,2,0.8085005012733459,10.096201768176494,-7.791186582981435,12.778480018183668,-15,30,30,ok,130,252553.00000000003,76,76.5,0,0,0,0,0,0,2.0,26.0,-1061.0,0
1777593858.422564,12.11962103843689,0.9497719084662868,1.3903628462884563,3.0452505188984396,0.9109563238012692,1.4028228121708342,3.074561198170203,2,3.8815584665017555,-1.2459965882377855,-2.931067927176345,5.020972298319669,16,-15,-30,ok,130,252542.99999999997,76,76.5,0,0,0,0,0,0,23.0,-3.0,-1034.0,0
1777593858.500101,12.197158098220825,0.9497719084662868,1.3903628462884563,3.0452505188984396,0.9060106402658704,1.3331458017398794,3.1073683519363686,2,4.3761268200416374,5.72170445485769,-6.211783303792906,9.511815790221464,8,12,27,ok,130,252546.99999999997,76,76.5,0,0,0,0,0,0,3.0,1.0,-963.0,0
1777593858.573932,12.270988941192627,0.9497719084662868,1.3903628462884563,3.0452505188984396,0.955912228651859,1.370085580019051,3.097055799957505,2,-0.6140320185572201,2.027726626940529,-5.180528105906523,5.597015459108944,-13,-2,-10,ok,130,252548.99999999997,76,76.5,0,0,0,0,0,0,-11.0,22.0,-994.0,0
1777593858.648604,12.345660924911499,0.9497719084662868,1.3903628462884563,3.0452505188984396,0.9121267049089683,1.3325138591436632,3.1052974918606213,2,3.7645203557318485,5.784898714479314,-6.0046972962181755,9.148390911232081,20,4,16,ok,130,252548.99999999997,76,76.5,0,0,0,0,0,0,-11.0,22.0,-994.0,0
1777593858.722933,12.419990062713623,0.9497719084662868,1.3903628462884563,3.0452505188984396,0.9595245656502528,1.43535792335074,3.061495778568434,2,-0.9752657183966007,-4.499507706228378,-1.624525966999446,4.882191868141161,-12,-15,-30,ok,130,252552.0,76,76.0,0,0,0,0,0,0,-9.0,1.0,-985.0,0
1777593858.7990668,12.496123790740967,0.9497719084662868,1.3903628462884563,3.0452505188984396,0.922203474375315,1.4022138289384452,3.070129357360341,2,2.756843409097176,-1.185098264998885,-2.487883846190142,3.897975052783145,18,2,10,ok,130,252554.0,76,76.0,0,0,0,0,0,0,-20.0,2.0,-941.0,0
1777593858.8726091,12.569666147232056,0.9497719084662868,1.3903628462884563,3.0452505188984396,0.9616550645525367,1.3706525892158767,3.0928499052055347,2,-1.1883156086249902,1.9710257072579562,-4.759938630709515,5.287159170338479,-10,8,12,ok,130,252554.0,76,76.0,0,0,0,0,0,0,4.0,8.0,-1063.0,0
1777593858.9473531,12.644410133361816,0.9497719084662868,1.3903628462884563,3.0452505188984396,0.9304058923211463,1.4096424093633146,3.0789128037646285,2,1.9366016145140441,-1.9279563074858341,-3.366228486618894,4.335773928727989,15,-4,-13,ok,130,252554.0,76,76.0,0,0,0,0,0,0,4.0,8.0,-1063.0,0
1777593859.023375,12.720432043075562,0.9497719084662868,1.3903628462884563,3.0452505188984396,0.9271302719033562,1.410916182789482,3.0780318805884415,2,2.264163656293061,-2.0553336501025754,-3.27813616900019,4.482968906676643,6,0,-1,ok,130,252548.0,76,76.0,0,0,0,0,0,0,5.0,0.0,-1021.0,0
1777593859.099461,12.796518087387085,0.9497719084662868,1.3903628462884563,3.0452505188984396,0.9687301750288135,1.4455149158480896,3.0666166386769387,2,-1.8958266562526749,-5.515206955963325,-2.1366119778499115,6.211020626399188,-11,-4,-15,ok,130,252548.99999999997,76,76.0,0,0,0,0,0,0,-15.0,18.0,-965.0,0
1777593859.174027,12.871083974838257,0.9497719084662868,1.3903628462884563,3.0452505188984396,0.9314147151521077,1.4126530428459154,3.0759471844176463,2,1.8357193314179066,-2.229019655745912,-3.069666551920669,4.214409428309447,17,3,9,ok,130,252550.0,76,76.0,0,0,0,0,0,0,20.0,-22.0,-1072.0,0
1777593859.247732,12.944788932800293,0.9497719084662868,1.3903628462884563,3.0452505188984396,0.9695132257623105,1.3761913960490855,3.0883143945903724,2,-1.9741317296023686,1.417145023937083,-4.306387569193282,4.944741651572395,-10,5,13,ok,130,252550.0,76,76.0,0,0,0,0,0,0,20.0,-22.0,-1072.0,0
1777593859.3214452,13.018502235412598,0.9497719084662868,1.3903628462884563,3.0452505188984396,0.9745138951217182,1.3835414318960124,3.09782790110896,2,-2.474198665543137,0.6821414392443881,-5.257738221052044,5.8507082631781735,0,4,-1,ok,130,252542.99999999997,76,76.0,0,0,0,0,0,0,1.0,20.0,-1003.0,0
1777593859.3978949,13.094951868057251,0.9497719084662868,1.3903628462884563,3.0452505188984396,1.011504978587138,1.3472530420707671,3.1089726077032576,2,-6.173307012085116,4.310980421768917,-6.3722088804818,9.864041650298589,-12,6,15,ok,130,252553.00000000003,76,76.0,0,0,0,0,0,0,-6.0,20.0,-1002.0,0
1777593859.472065,13.169121980667114,0.9497719084662868,1.3903628462884563,3.0452505188984396,0.9727998991522671,1.3867747049976096,3.09645778560946,2,-2.302799068598027,0.3588141290846725,-5.1207266711020605,5.6261419080665505,15,-2,-12,ok,130,252553.00000000003,76,76.0,0,0,0,0,0,0,-6.0,20.0,-1002.0,0
1777593859.5459101,13.242967128753662,0.9497719084662868,1.3903628462884563,3.0452505188984396,1.0135929156523502,1.3502138220557036,3.107484042343296,2,-6.382100718606343,4.014902423275268,-6.223352344485633,9.776541589666156,-13,6,15,ok,130,252548.0,76,76.0,0,0,0,0,0,0,-2.0,11.0,-1009.0,0
1777593859.619756,13.316812992095947,0.9497719084662868,1.3903628462884563,3.0452505188984396,0.9749707891841203,1.389500802517742,3.0950751088557893,2,-2.5198880717833494,0.08620437707143047,-4.982458995734973,5.584099276796809,15,-2,-12,ok,130,252550.0,76,76.0,0,0,0,0,0,0,-4.0,42.0,-1048.0,0
1777593859.6954381,13.392495155334473,0.9497719084662868,1.3903628462884563,3.0452505188984396,1.0129088692422605,1.4238267949843313,3.072167286135044,2,-6.313696077597375,-3.346394869587499,-2.691676723660441,7.63585230135873,-12,-7,-13,ok,130,252548.0,76,76.5,0,0,0,0,0,0,-5.0,4.0,-1012.0,0
1777593859.769959,13.467015981674194,0.9497719084662868,1.3903628462884563,3.0452505188984396,0.9807087176281732,1.4545323213646468,3.0490082130389737,2,-3.093680916188646,-6.416947507619053,-0.37576941405341735,7.133672236602004,12,-8,-14,ok,130,252548.0,76,76.5,0,0,0,0,0,0,-5.0,4.0,-1012.0,0
1777593859.843182,13.540239095687866,0.9497719084662868,1.3903628462884563,3.0452505188984396,1.0188489263057536,1.4276131681036492,3.070580841051676,2,-6.907701783946685,-3.7250321815192944,-2.5330322153236384,8.246724252281142,-13,7,6,ok,130,252546.0,76,76.5,0,0,0,0,0,0,-4.0,14.0,-1015.0,0
1777593859.917359,13.614416122436523,0.9497719084662868,1.3903628462884563,3.0452505188984396,1.0537826489920459,1.3963518700121536,3.0802992513514647,2,-10.40107405257591,-0.5989023723697251,-3.504873245302509,10.992049943683629,-14,4,10,ok,130,252554.0,76,76.5,0,0,0,0,0,0,-22.0,19.0,-979.0,0
1777593859.9903202,13.687377214431763,0.9497719084662868,1.3903628462884563,3.0452505188984396,0.978841635639072,1.458892588905686,3.0478013737963843,2,-2.906972717278522,-6.852974261722977,-0.255085489794471,7.448410247693325,27,-12,-25,ok,130,252552.0,76,76.5,0,0,0,0,0,0,-5.0,23.0,-1016.0,0
1777593860.065971,13.763027906417847,0.9497719084662868,1.3903628462884563,3.0452505188984396,1.0150651415294143,1.4275497820294625,3.058582547123219,2,-6.529323306312751,-3.7186935741006177,-1.3332028224779524,7.631394007799576,-12,3,7,ok,130,252552.0,76,76.5,0,0,0,0,0,0,-5.0,23.0,-1016.0,0
1777593860.1399019,13.836958885192871,0.9497719084662868,1.3903628462884563,3.0452505188984396,1.018320859165617,1.3611944510802125,3.0919352849752197,2,-6.85489506993302,2.916839520824377,-4.668476607678018,8.791599003962355,-1,12,24,ok,130,252558.0,76,76.5,0,-1,0,0,0,0,-17.0,15.0,-988.0,0
1777593860.213738,13.910794973373413,0.9497719084662868,1.3903628462884563,3.0452505188984396,1.0497880813791636,1.4604457896702665,3.0349591521135353,2,-10.00161729128768,-7.00829433818102,1.0291366784904277,12.255923477036692,-12,-21,-30,ok,130,252556.0,76,76.5,0,0,0,0,0,0,-16.0,23.0,-968.0,0
1777593860.2890081,13.986065149307251,0.9497719084662868,1.3903628462884563,3.0452505188984396,1.0545447752216426,1.3982686001673388,3.067833429157014,2,-10.47728667553558,-0.7905753878882482,-2.2582910258574618,10.747019302241826,-4,10,20,ok,130,252556.0,76,76.5,0,0,0,0,0,0,-16.0,23.0,-968.0,0
1777593860.363999,14.061055898666382,0.9497719084662868,1.3903628462884563,3.0452505188984396,1.0173300610329774,1.3626427327141553,3.0803119808591233,2,-6.755815256669062,2.772011357430104,-3.5061461960683715,8.10050294093945,12,5,14,ok,130,252542.99999999997,76,76.5,0,0,0,0,0,0,-18.0,4.0,-961.0,0
1777593860.438081,14.135138034820557,0.9497719084662868,1.3903628462884563,3.0452505188984396,1.0497659033654139,1.4638948740691236,3.0343449383849963,2,-9.999399489912708,-7.353202778066725,1.0905580513443258,12.459811319501858,-13,-17,-30,ok,130,252552.0,76,76.5,0,0,0,0,0,0,-10.0,4.0,-1002.0,0
1777593860.513761,14.21081805229187,0.9497719084662868,1.3903628462884563,3.0452505188984396,1.0154254449411442,1.4296273287269758,3.046975965155086,2,-6.565353647485739,-3.9264482438519543,-0.17254462566462792,7.651838731706788,10,3,8,ok,130,252554.0,76,76.5,0,-1,0,0,0,0,-16.0,-14.0,-1033.0,0
1777593860.5891032,14.286160230636597,0.9497719084662868,1.3903628462884563,3.0452505188984396,1.0147600132655035,1.4311781496987623,3.046985339256345,2,-6.498810479921668,-4.081530341030604,-0.17348203579055088,7.676165943714032,0,-1,-3,ok,130,252554.0,76,76.5,0,0,0,0,0,0,-5.0,22.0,-998.0,0
1777593860.668749,14.365806102752686,0.9497719084662868,1.3903628462884563,3.0452505188984396,1.0136031697321028,1.4272098171943872,3.0369108372441715,2,-6.383126126581606,-3.684697090593092,0.8339681654268016,7.41733069899268,0,-5,-1,ok,130,252554.0,76,76.5,0,0,0,0,0,0,-5.0,22.0,-998.0,0
1777593860.74337,14.44042706489563,0.9497719084662868,1.3903628462884563,3.0452505188984396,1.0149809740910174,1.4880526419046305,3.003999392875096,2,-6.520906562473061,-9.768979561617419,4.125112602334369,12.448764519169801,-1,-14,-27,ok,130,252554.0,75,76.0,0,-1,0,0,0,0,-4.0,11.0,-986.0,0
1777593860.8189518,14.516008853912354,0.9497719084662868,1.3903628462884563,3.0452505188984396,1.0492369820786684,1.3948944169891073,3.0474469596602587,2,-9.946507361238165,-0.4531570700651022,-0.21964407618191295,9.959247137084049,-14,13,30,ok,130,252546.99999999997,75,76.0,0,0,0,0,0,0,-18.0,13.0,-984.0,0
1777593860.895145,14.592201948165894,0.9497719084662868,1.3903628462884563,3.0452505188984396,1.014508249734977,1.42347916456391,3.0271345674289116,2,-6.473634126869032,-3.3116318275453693,1.8115951469527936,7.493778829551736,10,-9,-11,ok,130,252546.99999999997,75,76.0,0,0,0,0,0,0,-18.0,13.0,-984.0,0
1777593860.969263,14.666320085525513,0.9497719084662868,1.3903628462884563,3.0452505188984396,0.9743652123550944,1.4557060389388012,3.0163158238455727,2,-2.459330388880765,-6.534319265034494,2.8934695052866832,7.557631904048867,15,-6,-15,ok,130,252546.99999999997,75,76.0,0,0,0,0,0,0,6.0,8.0,-1008.0,0
1777593861.043498,14.740555047988892,0.9497719084662868,1.3903628462884563,3.0452505188984396,1.0130244910521864,1.4229600750129023,3.0277825674791,2,-6.325258258589961,-3.2597228724446037,1.7467951419339656,7.3270716190633145,-13,1,8,ok,130,252548.0,75,76.0,0,-1,0,0,0,0,-18.0,9.0,-991.0,0
1777593861.1177778,14.814834833145142,0.9497719084662868,1.3903628462884563,3.0452505188984396,1.007242957069283,1.4169033157861746,3.018037056990426,2,-5.747104860299612,-2.6540469497718266,2.721346190801377,6.890493783253978,1,-6,0,ok,130,252544.99999999997,75,76.0,0,0,0,0,0,0,0.0,9.0,-977.0,0
1777593861.193207,14.89026403427124,0.9497719084662868,1.3903628462884563,3.0452505188984396,1.0115383111190936,1.4224334877860239,3.0284393294975427,2,-6.176640265280686,-3.2070641497567554,1.6811189400896875,7.159769990584191,-2,1,-4,ok,130,252544.99999999997,75,76.0,0,0,0,0,0,0,0.0,9.0,-977.0,0
