timestamp,elapsed,phase,mission_state,target_x,target_y,target_z,pos_x,pos_y,pos_z,marker_id,err_x_cm,err_y_cm,err_z_cm,err_3d_cm,cmd_lr,cmd_fb,cmd_ud,publish_count,tello_height_cm,tello_baro_cm,tello_battery,tello_temp_c,tello_pitch,tello_roll,tello_yaw,tello_vgx,tello_vgy,tello_vgz
1778195265.609429,4.1961669921875e-05,wait_slave,2,0.0007491367045050296,1.394792293795315,3.837027463732336,-0.01969748819832562,1.3852661670102293,3.819982093036346,2,2.0446624902830646,0.9526126785085687,1.704537069598988,2.8272888490677635,11,-9,5,1,140,251625.0,57,82.0,0,0,-1,0,0,0
1778195265.681878,0.07249116897583008,wait_slave,2,0.0007491367045050296,1.394792293795315,3.837027463732336,0.04681522771715663,1.3870831981086804,3.857809540640931,2,-4.6066091012651595,0.7709095686634582,-2.0782076908595126,5.11215181516194,-26,14,0,4,140,251625.0,57,82.0,0,0,-1,0,0,0
1778195265.750808,0.14142107963562012,wait_slave,2,0.0007491367045050296,1.394792293795315,3.837027463732336,0.05069139119534005,1.461140032784932,3.838474477243737,2,-4.994225449083502,-6.634773898961699,-0.14470135114010851,8.30562767090113,-4,-6,-30,8,140,251621.99999999997,57,82.0,0,0,-1,0,0,0
1778195265.8208792,0.21149230003356934,wait_slave,2,0.0007491367045050296,1.394792293795315,3.837027463732336,-0.03938451518560049,1.3115499819885925,3.8527187053600804,2,4.0133651890105515,8.324231180672248,-1.569124162774438,9.373477237815237,30,6,30,11,140,251615.0,57,82.0,0,0,-1,0,0,0
1778195265.889353,0.2799661159515381,wait_slave,2,0.0007491367045050296,1.394792293795315,3.837027463732336,-0.01967600355514021,1.3814832138950428,3.82113193993022,2,2.0425140259645236,1.3309079900272192,1.5895523802115896,2.9103017701977967,-5,-12,-24,15,140,251617.0,57,82.0,0,0,-1,0,0,0
1778195265.9611478,0.3517608642578125,wait_slave,2,0.0007491367045050296,1.394792293795315,3.837027463732336,-0.020226147401566585,1.3837122747049238,3.8195032803158173,2,2.097528410607161,1.1080019090391247,1.7524183416518735,2.9492818969872063,1,-1,0,18,140,251617.0,57,82.0,0,0,-1,0,0,0
1778195266.032962,0.42357516288757324,wait_slave,2,0.0007491367045050296,1.394792293795315,3.837027463732336,-0.01993702270377251,1.3807184814774365,3.820896387001892,2,2.068615940827754,1.407381231787852,1.6131076730443894,2.9769128652128987,1,0,2,22,140,251615.0,57,82.0,-1,-1,-1,0,0,0
1778195266.103626,0.49423909187316895,wait_slave,2,0.0007491367045050296,1.394792293795315,3.837027463732336,0.05025030678818776,1.4530464674298087,3.8197467506552556,2,-4.950117008368273,-5.82541736344937,1.7280713077080456,7.837434293149645,-27,-1,-29,25,140,251621.99999999997,57,82.0,-1,0,-1,0,0,0
1778195266.177042,0.567655086517334,wait_slave,2,0.0007491367045050296,1.394792293795315,3.837027463732336,-0.024560926752136503,1.382752884496642,3.8176860477342136,2,2.531006345664153,1.2039409298673087,1.9341415998122446,3.405344419075145,27,-1,25,29,140,251621.99999999997,57,82.0,-1,0,-1,0,0,0
1778195266.248713,0.6393260955810547,wait_slave,2,0.0007491367045050296,1.394792293795315,3.837027463732336,-0.020190558816729487,1.3799631673805681,3.820667959249869,2,2.0939695521234514,1.4829126414746874,1.6359504482466924,3.043036683410845,0,0,2,33,140,251614.0,57,82.0,0,0,-1,0,0,0
1778195266.319558,0.7101709842681885,wait_slave,2,0.0007491367045050296,1.394792293795315,3.837027463732336,0.05025030678818776,1.4530464674298087,3.8197467506552556,2,-4.950117008368273,-5.82541736344937,1.7280713077080456,7.837434293149645,-27,-1,-29,36,140,251623.99999999997,57,82.0,0,0,-1,0,0,0
1778195266.388895,0.779508113861084,wait_slave,2,0.0007491367045050296,1.394792293795315,3.837027463732336,0.05025030678818776,1.4530464674298087,3.8197467506552556,2,-4.950117008368273,-5.82541736344937,1.7280713077080456,7.837434293149645,-3,-1,-4,40,140,251623.99999999997,57,82.0,0,0,-1,0,0,0
1778195266.461131,0.8517441749572754,wait_slave,2,0.0007491367045050296,1.394792293795315,3.837027463732336,-0.020190558816729487,1.3799631673805681,3.820667959249869,2,2.0939695521234514,1.4829126414746874,1.6359504482466924,3.043036683410845,25,0,26,43,140,251611.0,57,82.0,0,-1,-1,0,0,0
1778195266.530305,0.9209179878234863,wait_slave,2,0.0007491367045050296,1.394792293795315,3.837027463732336,-0.025073637106056257,1.375787738213249,3.8223936811382906,2,2.5822773810561284,1.900455558206593,1.4633782594045464,3.5243955129256292,3,0,2,47,140,251617.99999999997,57,82.0,0,0,-1,0,0,0
1778195266.601614,0.9922270774841309,wait_slave,2,0.0007491367045050296,1.394792293795315,3.837027463732336,0.04848508561756448,1.3757616994923396,3.84088736507253,2,-4.773594891305946,1.9030594302975379,-0.3859901340193872,5.1534291268151655,-28,6,1,50,140,251621.99999999997,57,82.0,0,-1,-1,0,0,0
1778195266.674294,1.0649070739746094,wait_slave,2,0.0007491367045050296,1.394792293795315,3.837027463732336,-0.0236382804007651,1.3831993528286133,3.818115584610267,2,2.4387417105270126,1.1592940966701715,1.8911879122069042,3.296667355453995,25,-8,-1,54,140,251621.99999999997,57,82.0,0,-1,-1,0,0,0
1778195266.749689,1.1403021812438965,wait_slave,2,0.0007491367045050296,1.394792293795315,3.837027463732336,-0.016662462250262466,1.3702695116706587,3.8051264127398956,2,1.7411598954767495,2.4522782124656306,3.190105099244045,4.384298890036249,-1,-6,6,58,140,251623.99999999997,57,82.0,0,-1,-1,0,0,0
1778195266.8207629,1.2113759517669678,wait_slave,2,0.0007491367045050296,1.394792293795315,3.837027463732336,-0.03103457605644877,1.3043258297997014,3.8348833496740253,2,3.1783712760953797,9.046646399561364,0.214411405831072,9.591132743235036,6,10,29,61,140,251621.0,57,82.0,0,0,-1,0,0,0
1778195266.892708,1.2833211421966553,wait_slave,2,0.0007491367045050296,1.394792293795315,3.837027463732336,-0.10435709985807828,1.3146825722914164,3.810487852613618,2,10.510623656258332,8.010972150389861,2.6539611118717943,13.479332105900015,30,-10,2,65,140,251621.0,57,82.0,0,0,-1,0,0,0
1778195266.962646,1.3532590866088867,wait_slave,2,0.0007491367045050296,1.394792293795315,3.837027463732336,-0.08979579234341761,1.3743821721457263,3.782739974386578,2,9.054492904792264,2.0410121649588664,5.428748934575811,10.752715350789378,0,-13,-19,68,140,251621.99999999997,57,82.0,0,0,-1,0,0,0
1778195267.0352058,1.425818920135498,wait_slave,2,0.0007491367045050296,1.394792293795315,3.837027463732336,0.053089691855221166,1.4495461212029355,3.8224899052947836,2,-5.2340555150716135,-5.475382740762047,1.4537558437552445,7.712882687163017,-30,12,-29,72,140,251623.0,57,82.0,0,0,-1,0,0,0
1778195267.1074219,1.498034954071045,wait_slave,2,0.0007491367045050296,1.394792293795315,3.837027463732336,0.04848508561756448,1.3757616994923396,3.84088736507253,2,-4.773594891305946,1.9030594302975379,-0.3859901340193872,5.1534291268151655,-1,6,26,76,140,251623.0,57,82.0,0,0,-1,0,0,0
1778195267.1817348,1.57234787940979,wait_slave,2,0.0007491367045050296,1.394792293795315,3.837027463732336,-0.02798178721256872,1.3025296246680265,3.836905089364163,2,2.8730923917073747,9.226266912728853,0.012237436817308378,9.663271226197775,28,-1,30,79,140,251617.0,57,82.0,0,0,-1,0,0,0
1778195267.251488,1.6421010494232178,wait_slave,2,0.0007491367045050296,1.394792293795315,3.837027463732336,-0.007422153475947546,1.4422228467576033,3.7889587995361285,2,0.8171290180452576,-4.743055296228826,4.806866419620759,6.802223030105205,-6,-20,-30,83,140,251621.0,57,82.0,0,0,-1,0,0,0
1778195267.323166,1.7137789726257324,wait_slave,2,0.0007491367045050296,1.394792293795315,3.837027463732336,-0.01757804300591803,1.374304424019427,3.8030911132731844,2,1.832717971042306,2.04878697758879,3.3936350459151665,4.36728085492363,4,2,25,86,140,251619.0,57,82.0,0,0,-1,0,0,0
1778195267.393265,1.7838780879974365,wait_slave,2,0.0007491367045050296,1.394792293795315,3.837027463732336,0.05962842126156864,1.4527012116861533,3.8209724042320636,2,-5.887928455706361,-5.79089178908383,1.6055059500272417,8.413071886532771,-30,5,-30,90,140,251619.0,57,82.0,0,0,-1,0,0,0
1778195267.463712,1.8543250560760498,wait_slave,2,0.0007491367045050296,1.394792293795315,3.837027463732336,-0.01537044687697886,1.369637907133244,3.8055422433864377,2,1.611958358148389,2.5154386662070927,3.14852203458984,4.340395423708756,27,-7,30,93,140,251614.0,57,81.0,0,-1,-1,0,0,0
1778195267.5353441,1.925957202911377,wait_slave,2,0.0007491367045050296,1.394792293795315,3.837027463732336,-0.024736982111132066,1.2962187566084387,3.819489613093741,2,2.5486118815637093,9.857353718687634,1.7537850638595032,10.331437794827462,4,3,30,97,140,251617.99999999997,57,81.0,0,0,-1,0,0,0
1778195267.6076941,1.998307228088379,wait_slave,2,0.0007491367045050296,1.394792293795315,3.837027463732336,0.06169268277795992,1.36737816431042,3.8261296614257523,2,-6.094354607345489,2.741412948489508,1.089780230658377,6.77082889942974,-30,1,-21,101,140,251619.99999999997,57,81.0,0,0,-1,0,0,0
1778195267.6810071,2.071620225906372,wait_slave,2,0.0007491367045050296,1.394792293795315,3.837027463732336,-0.02410072493110116,1.2958586250556334,3.8197139219463643,2,2.4849861635606185,9.893366873968157,1.7313541785971776,10.346567142186053,30,-3,30,104,140,251619.99999999997,57,81.0,0,0,-1,0,0,0
1778195267.753697,2.1443099975585938,wait_slave,2,0.0007491367045050296,1.394792293795315,3.837027463732336,-0.016571130692287772,1.3729422800951485,3.803282080085643,2,1.7320267396792801,2.185001370016648,3.3745383646693217,4.377402973061055,-1,-8,-25,108,140,251619.99999999997,57,81.0,0,0,-1,0,0,0
1778195267.824144,2.214756965637207,wait_slave,2,0.0007491367045050296,1.394792293795315,3.837027463732336,-0.023476864018655785,1.2954915880254507,3.8199434002673778,2,2.422600072316081,9.930070576986427,1.7084063464958277,10.363104989290838,3,4,30,111,140,251616.0,57,81.0,0,0,-1,0,0,0
1778195267.894099,2.284712076187134,wait_slave,2,0.0007491367045050296,1.394792293795315,3.837027463732336,0.05695709354417999,1.3787041841922352,3.8403399564918423,2,-5.620795683967496,1.6088109603079825,-0.33124927595062914,5.855881053243188,-30,7,-28,115,140,251621.0,57,81.0,0,0,-1,0,0,0
1778195267.965885,2.3564980030059814,wait_slave,2,0.0007491367045050296,1.394792293795315,3.837027463732336,-0.01322184232794732,1.3693482307029887,3.8064754047555502,2,1.3970979032452349,2.5444063092326275,3.055205897678581,4.214281563318358,25,-14,5,119,140,251621.0,57,81.0,0,0,-1,0,0,0
1778195268.037039,2.42765212059021,wait_slave,2,0.0007491367045050296,1.394792293795315,3.837027463732336,0.05041083798611601,1.3020169921593632,3.8570615272675206,2,-4.966170128161098,9.277530163595182,-2.0034063535184554,10.712098239634296,-25,18,30,122,140,251617.99999999997,57,81.0,0,0,-1,0,0,0
1778195268.107882,2.498495101928711,wait_slave,2,0.0007491367045050296,1.394792293795315,3.837027463732336,-0.0162048846743168,1.300646540427807,3.8197426580695857,2,1.6954021378821829,9.414575336750808,1.7284805662750369,9.720918796517259,24,-14,7,126,140,251621.0,57,81.0,0,0,-1,0,0,0
1778195268.181,2.571613073348999,wait_slave,2,0.0007491367045050296,1.394792293795315,3.837027463732336,0.059374957305398324,1.375008966091855,3.8228153061570223,2,-5.86258206008933,1.978332770346003,1.42121575753138,6.348505587219848,-29,0,-23,129,140,251621.0,57,81.0,0,0,-1,0,0,0
1778195268.251601,2.642214059829712,wait_slave,2,0.0007491367045050296,1.394792293795315,3.837027463732336,-0.019667253381636662,1.2967536420158592,3.822218132927001,2,2.041639008614169,9.803865177945582,1.4809330805335197,10.123103528950372,29,-1,30,133,140,251619.0,57,81.0,0,-1,-1,0,0,0
1778195268.3217332,2.712346315383911,wait_slave,2,0.0007491367045050296,1.394792293795315,3.837027463732336,0.06982463178321285,1.4447772762470987,3.808113605010106,2,-6.907549507870782,-4.998498245178373,2.8913858722229957,9.003295906101712,-30,-7,-30,136,140,251613.0,57,81.0,0,-1,-1,0,0,0
1778195268.3932889,2.7839019298553467,wait_slave,2,0.0007491367045050296,1.394792293795315,3.837027463732336,-0.009862176809800394,1.3699688091178097,3.808392921182477,2,1.0611313514305423,2.482348467750528,2.8634542549859088,3.9354064505117012,28,-1,28,140,140,251621.0,57,81.0,0,0,-1,0,0,0
1778195268.463547,2.8541600704193115,wait_slave,2,0.0007491367045050296,1.394792293795315,3.837027463732336,0.06604862540897916,1.447565035424713,3.8057740277695,2,-6.529948870447412,-5.2772741629397935,3.125343596283603,8.958662145450083,-30,-3,-30,143,140,251621.0,57,81.0,0,0,-1,0,0,0
1778195268.533695,2.9243080615997314,wait_slave,2,0.0007491367045050296,1.394792293795315,3.837027463732336,-0.008920582077154293,1.3702663840055798,3.8090040580106543,2,0.9669718781659323,2.4525909789735234,2.8023405721681716,3.8475121579698603,27,0,29,147,140,251612.0,57,81.0,0,0,-1,0,0,0
1778195268.604341,2.9949541091918945,wait_slave,2,0.0007491367045050296,1.394792293795315,3.837027463732336,0.06700641973134946,1.447935265610354,3.8063286546333535,2,-6.625728302684443,-5.314297181503891,3.0698809098982593,9.031400715021542,-30,-3,-30,150,140,251617.0,57,81.0,0,0,-1,0,0,0
1778195268.677442,3.0680551528930664,wait_slave,2,0.0007491367045050296,1.394792293795315,3.837027463732336,-0.009877953593667277,1.3742479684251871,3.8071052251235415,2,1.0627090298172306,2.0544325370127847,2.9922238608794505,3.781989841975807,26,-1,27,154,140,251617.0,57,81.0,0,0,-1,0,0,0
1778195268.7506611,3.1412742137908936,wait_slave,2,0.0007491367045050296,1.394792293795315,3.837027463732336,0.06949809695420961,1.368470508895949,3.830091869181376,2,-6.874896024970457,2.6321784899365985,0.6935594550959934,7.394158753691495,-30,7,4,158,140,251617.0,57,81.0,0,0,-1,0,0,0
1778195268.821014,3.2116270065307617,wait_slave,2,0.0007491367045050296,1.394792293795315,3.837027463732336,-0.007397300426207121,1.3701101655882852,3.8099503599603795,2,0.8146437130712151,2.468212820702975,2.70771037719566,3.753320449189232,27,-9,1,161,140,251623.99999999997,57,81.0,0,0,-1,0,0,0
1778195268.891385,3.2819981575012207,wait_slave,2,0.0007491367045050296,1.394792293795315,3.837027463732336,0.06363787661095843,1.3752185180713377,3.825162614426055,2,-6.28887399064534,1.9573775723977338,1.1864849306280956,6.6924591535360625,-28,4,0,165,140,251623.99999999997,57,81.0,0,0,-1,0,0,0
1778195268.9637718,3.3543848991394043,wait_slave,2,0.0007491367045050296,1.394792293795315,3.837027463732336,-0.015549414965301267,1.2965506039323857,3.8248395389259993,2,1.6298551669806296,9.824168986292925,1.2187924806336792,10.032755316832082,28,-1,30,168,140,251623.0,57,81.0,0,0,-1,0,0,0
1778195269.033856,3.424468994140625,wait_slave,2,0.0007491367045050296,1.394792293795315,3.837027463732336,0.13884959303308464,1.4550057549140702,3.841765913306374,2,-13.810045632857962,-6.021346111875525,-0.4738449574038128,15.073105135448198,-30,5,-30,172,140,251617.0,57,81.0,0,0,-1,0,0,0
1778195269.1065989,3.4972119331359863,wait_slave,2,0.0007491367045050296,1.394792293795315,3.837027463732336,0.1389680710576746,1.5220078433883426,3.801016776374933,2,-13.821893435316959,-12.721554959302761,3.6010687357403093,19.1272160744669,-8,-16,-30,176,140,251623.0,57,81.0,0,0,-1,0,0,0
1778195269.180803,3.571416139602661,wait_slave,2,0.0007491367045050296,1.394792293795315,3.837027463732336,0.0701651898699246,1.4478033758906457,3.8081630167158864,2,-6.941605316541956,-5.3011082095330675,2.8864447016449635,9.198869258527198,19,0,22,179,140,251623.0,57,81.0,0,0,-1,0,0,0
1778195269.249749,3.640362024307251,wait_slave,2,0.0007491367045050296,1.394792293795315,3.837027463732336,0.07485703029834267,1.4453646124091666,3.8110567496724395,2,-7.410789359383764,-5.057231861385159,2.5970714059896594,9.340244799617082,-6,-1,-2,183,140,251617.99999999997,57,81.0,0,0,-1,0,0,0
1778195269.320713,3.7113261222839355,wait_slave,2,0.0007491367045050296,1.394792293795315,3.837027463732336,0.14313590554222244,1.3766365279291848,3.865722919390374,2,-14.238676883771742,1.8155765866130213,-2.8695455658037883,14.637982425749025,-30,20,25,186,140,251619.99999999997,57,81.0,0,-1,-1,0,0,0
1778195269.392992,3.7836050987243652,wait_slave,2,0.0007491367045050296,1.394792293795315,3.837027463732336,0.07485703029834267,1.4453646124091666,3.8110567496724395,2,-7.410789359383764,-5.057231861385159,2.5970714059896594,9.340244799617082,18,-20,-26,190,140,251619.99999999997,57,81.0,0,-1,-1,0,0,0
1778195269.46544,3.856053113937378,wait_slave,2,0.0007491367045050296,1.394792293795315,3.837027463732336,0.071219027889173,1.3709884624104935,3.830118490441017,2,-7.046989118466797,2.380383138482145,0.6908973291319231,7.47018196841022,-3,5,27,194,140,251621.99999999997,57,81.5,0,0,-1,0,0,0
1778195269.5372312,3.927844285964966,wait_slave,2,0.0007491367045050296,1.394792293795315,3.837027463732336,-0.01399467043201641,1.2962271907654146,3.8259165872710357,2,1.4743807136521438,9.85651030299004,1.1110876461300379,10.027916513370114,29,-2,30,197,140,251613.0,57,81.5,-1,-1,-1,0,0,0
1778195269.609476,4.000089168548584,wait_slave,2,0.0007491367045050296,1.394792293795315,3.837027463732336,0.07165119178182988,1.3717304516212425,3.830471054689701,2,-7.090205507732485,2.3061842174072478,0.6556409042635103,7.48460852562389,-30,0,-23,201,140,251621.0,57,81.5,0,-1,-1,0,0,0
1778195269.6840162,4.074629306793213,wait_slave,2,0.0007491367045050296,1.394792293795315,3.837027463732336,0.07056033895963998,1.4485424698751834,3.808482466891904,2,-6.981120225513495,-5.375017607986843,2.85449968404321,9.261480569295871,-4,-9,-29,204,140,251621.0,57,81.5,0,-1,-1,0,0,0
1778195269.7545412,4.145154237747192,wait_slave,2,0.0007491367045050296,1.394792293795315,3.837027463732336,0.07104138447183728,1.3722042393256877,3.8301306026293123,2,-7.0292247767332245,2.2588054469627306,0.6896861103023788,7.415380633508489,-5,6,29,208,140,251611.0,57,81.5,0,0,-1,0,0,0
1778195269.826664,4.2172770500183105,wait_slave,2,0.0007491367045050296,1.394792293795315,3.837027463732336,0.0655109606697053,1.3770382261694074,3.8265051593539448,2,-6.476182396520026,1.7754067625907588,1.05223043783913,6.797072641951386,-2,-2,0,212,140,251615.0,57,81.5,0,0,-1,0,0,0
1778195269.896596,4.2872090339660645,wait_slave,2,0.0007491367045050296,1.394792293795315,3.837027463732336,-0.007143925188450639,1.3762310081127502,3.8091841534625677,2,0.789306189295567,1.8561285682564765,2.7843310269768384,3.438126930487591,25,-8,2,215,140,251615.0,57,81.5,0,0,-1,0,0,0
1778195269.969014,4.35962700843811,wait_slave,2,0.0007491367045050296,1.394792293795315,3.837027463732336,0.07443434956823969,1.4477139380060802,3.811037936303063,2,-7.368521286373466,-5.292164421076517,2.5989527429273185,9.436983923236092,-30,-1,-28,219,140,251615.0,57,81.5,0,-1,-1,0,0,0
1778195270.040462,4.431075096130371,wait_slave,2,0.0007491367045050296,1.394792293795315,3.837027463732336,-0.00731432778282004,1.3774453565912705,3.80922114549462,2,0.806346448732507,1.7346937204044455,2.7806318237716177,3.375095589515298,28,-2,26,222,140,251614.0,57,81.5,0,0,-1,0,0,0
1778195270.111391,4.502004146575928,wait_slave,2,0.0007491367045050296,1.394792293795315,3.837027463732336,0.07413219704736296,1.4426798612546219,3.7928771494523343,2,-7.338306034285792,-4.788756745930689,4.415031428000171,9.812004338297104,-30,-8,-25,226,140,251614.0,57,81.5,0,0,-1,0,0,0
1778195270.183773,4.574386119842529,wait_slave,2,0.0007491367045050296,1.394792293795315,3.837027463732336,-0.007503381949031107,1.3786791281893342,3.8092579872133037,2,0.8252518653536137,1.611316560598075,2.776947651903239,3.3149389076026936,28,3,24,229,140,251607.00000000003,57,81.5,0,0,-1,0,0,0
1778195270.253473,4.644086122512817,wait_slave,2,0.0007491367045050296,1.394792293795315,3.837027463732336,0.07311499894345097,1.4521595971151844,3.8092751505970828,2,-7.2365862238945935,-5.736730331986939,2.775231313525328,9.642622253379601,-30,-2,-29,233,140,251621.99999999997,57,81.5,0,0,-1,0,0,0
1778195270.326682,4.717295169830322,wait_slave,2,0.0007491367045050296,1.394792293795315,3.837027463732336,0.07575637078855002,1.513455091143563,3.7727521065500595,2,-7.5007234084044985,-11.866279734824792,6.4275357182276505,15.439645779731897,-6,-17,-29,237,140,251621.99999999997,57,81.5,0,0,-1,0,0,0
1778195270.399123,4.789736032485962,wait_slave,2,0.0007491367045050296,1.394792293795315,3.837027463732336,0.06921270775733723,1.452589705694034,3.808107840955055,2,-6.84635710528322,-5.779741189871901,2.8919622777280996,9.414959354706008,-2,9,17,240,140,251621.99999999997,57,81.5,0,0,-1,0,0,0
1778195270.471089,4.861701965332031,wait_slave,2,0.0007491367045050296,1.394792293795315,3.837027463732336,0.06921270775733723,1.452589705694034,3.808107840955055,2,-6.84635710528322,-5.779741189871901,2.8919622777280996,9.414959354706008,-5,-2,-3,244,140,251606.0,57,81.5,0,0,-1,0,0,0
1778195270.542594,4.933207035064697,wait_slave,2,0.0007491367045050296,1.394792293795315,3.837027463732336,0.06921270775733723,1.452589705694034,3.808107840955055,2,-6.84635710528322,-5.779741189871901,2.8919622777280996,9.414959354706008,-5,-2,-3,247,140,251610.0,57,81.0,0,-1,-1,0,0,0
1778195270.61671,5.0073230266571045,wait_slave,2,0.0007491367045050296,1.394792293795315,3.837027463732336,0.06971606147008302,1.3764430017894198,3.829832238624144,2,-6.896692476557799,1.834929200589519,0.7195225108191927,7.172798960723811,-5,6,27,251,140,251610.0,57,81.0,0,-1,-1,0,0,0
1778195270.687937,5.078550100326538,wait_slave,2,0.0007491367045050296,1.394792293795315,3.837027463732336,0.07025581101414902,1.37327935939091,3.8311249538760106,2,-6.9506674309643985,2.1512934404404938,0.5902509856325455,7.299879274946382,-5,0,2,255,140,251610.0,57,81.0,0,-1,-1,0,0,0
1778195270.75976,5.1503729820251465,wait_slave,2,0.0007491367045050296,1.394792293795315,3.837027463732336,0.07105773998401888,1.4513745597400494,3.8080452049611826,2,-7.030860327951384,-5.658226594473437,2.8982258771153457,9.478831066136168,-5,-10,-30,258,140,251613.0,57,81.0,0,-1,-1,0,0,0
1778195270.831312,5.2219250202178955,wait_slave,2,0.0007491367045050296,1.394792293795315,3.837027463732336,0.07105773998401888,1.4513745597400494,3.8080452049611826,2,-7.030860327951384,-5.658226594473437,2.8982258771153457,9.478831066136168,-5,-2,-3,262,140,251613.0,57,81.0,0,-1,-1,0,0,0
1778195270.9066281,5.2972412109375,wait_slave,2,0.0007491367045050296,1.394792293795315,3.837027463732336,0.07105773998401888,1.4513745597400494,3.8080452049611826,2,-7.030860327951384,-5.658226594473437,2.8982258771153457,9.478831066136168,-5,-2,-3,266,140,251613.0,57,81.0,0,-1,-1,0,0,0
1778195270.979357,5.369970083236694,wait_slave,2,0.0007491367045050296,1.394792293795315,3.837027463732336,-0.012199574301549498,1.3048961468677667,3.822821777442123,2,1.2948711006054527,8.989614692754833,1.4205686290213126,9.192816691370291,28,3,30,269,140,251613.0,57,81.0,0,-1,-1,0,0,0
1778195271.0526772,5.4432902336120605,wait_slave,2,0.0007491367045050296,1.394792293795315,3.837027463732336,-0.012199574301549498,1.3048961468677667,3.822821777442123,2,1.2948711006054527,8.989614692754833,1.4205686290213126,9.192816691370291,0,-1,6,273,140,251613.0,57,81.0,0,-1,-1,0,0,0
1778195271.125865,5.516478061676025,wait_slave,2,0.0007491367045050296,1.394792293795315,3.837027463732336,-0.013168397752331806,1.379397312674842,3.8060294770461836,2,1.3917534456836835,1.5394981120472995,3.09979866861525,3.7303865585912783,0,-8,-25,276,140,251609.0,57,81.0,0,0,-1,0,0,0
1778195271.19304,5.583652973175049,wait_slave,2,0.0007491367045050296,1.394792293795315,3.837027463732336,-0.01124610445437213,1.3757906113494962,3.8085746268743645,2,1.199524115887716,1.900168244581879,2.845283685797151,3.6256222521074926,-1,-1,3,280,140,251607.00000000003,57,81.0,0,0,-1,0,0,0
1778195271.261888,5.652501106262207,wait_slave,2,0.0007491367045050296,1.394792293795315,3.837027463732336,0.05335975020460515,1.3821564047033705,3.8437882487037314,2,-5.261061350010012,1.2635889091944463,-0.6760784971395317,5.452752111943365,-27,12,-1,283,140,251611.0,57,81.0,0,0,-1,0,0,0
1778195271.333281,5.723894119262695,wait_slave,2,0.0007491367045050296,1.394792293795315,3.837027463732336,-0.014203181168654933,1.3810069320790106,3.805779898593027,2,1.4952317873159962,1.37853617163044,3.1247565139309152,3.728294964946763,23,-15,1,287,140,251612.0,57,81.0,0,0,-1,0,0,0
1778195271.4043179,5.794930934906006,wait_slave,2,0.0007491367045050296,1.394792293795315,3.837027463732336,-0.012276521943024976,1.3774274565435305,3.8083282616087013,2,1.3025658647530005,1.7364837251784504,2.869920212363475,3.598401809854171,-1,-1,2,290,140,251612.0,57,81.0,0,0,-1,0,0,0
1778195271.477129,5.86774206161499,wait_slave,2,0.0007491367045050296,1.394792293795315,3.837027463732336,-0.01298775226021287,1.3778321964623315,3.8080519648573983,2,1.37368889647179,1.6960097332983537,2.8975498874937777,3.6275701992170797,0,-2,1,294,140,251602.0,57,81.0,0,0,-1,0,0,0
1778195271.549721,5.94033408164978,wait_slave,2,0.0007491367045050296,1.394792293795315,3.837027463732336,0.05139944007717401,1.3842008813480353,3.8432597003430566,2,-5.065030337266898,1.059141244727968,-0.6232236610720587,5.211978532710779,-26,11,-1,298,140,251603.00000000003,57,81.0,0,0,-1,0,0,0
1778195271.6189399,6.009552955627441,wait_slave,2,0.0007491367045050296,1.394792293795315,3.837027463732336,-0.009077990303536287,1.452277173568298,3.788749727951715,2,0.9827127008041318,-5.7484879772983,4.8277735780621,7.570880794101792,21,-23,-28,301,140,251603.00000000003,57,81.0,0,0,-1,0,0,0
1778195271.689118,6.079730987548828,wait_slave,2,0.0007491367045050296,1.394792293795315,3.837027463732336,-0.09084184414358498,1.392208531713122,3.800842518266302,2,9.159098084809001,0.25837620821929086,3.61849454660339,9.851362280208976,30,1,21,305,140,251608.0,57,81.0,0,0,-1,0,0,0
1778195271.758699,6.1493120193481445,wait_slave,2,0.0007491367045050296,1.394792293795315,3.837027463732336,-0.009796025978010325,1.4526220156487506,3.7884974448261017,2,1.0545162682515354,-5.78297218534356,4.853001890623432,7.622755355306834,-29,-8,-25,308,140,251610.0,57,81.0,0,0,-1,0,0,0
1778195271.829963,6.220576047897339,wait_slave,2,0.0007491367045050296,1.394792293795315,3.837027463732336,-0.07768018711768954,1.4520712584586266,3.7705588017059006,2,7.842932382219457,-5.727896466331162,6.646866202643542,11.768653984076536,27,-11,-3,312,140,251610.0,57,81.0,0,0,-1,0,0,0
1778195271.9025202,6.29313325881958,wait_slave,2,0.0007491367045050296,1.394792293795315,3.837027463732336,-0.10060464763178079,1.3181376684583683,3.815545463785642,2,10.135378433628581,7.665462533694667,2.1481999946693975,12.88797792772154,12,13,30,315,140,251610.0,57,81.0,0,0,-1,0,0,0
1778195271.975413,6.366026163101196,wait_slave,2,0.0007491367045050296,1.394792293795315,3.837027463732336,-0.03890502305287091,1.3172856269939732,3.853997641118344,2,3.965415975737594,7.750666680134177,-1.6970177386007812,8.870018435849094,-19,13,6,319,140,251614.0,57,81.0,0,0,-1,0,0,0
1778195272.047222,6.437834978103638,wait_slave,2,0.0007491367045050296,1.394792293795315,3.837027463732336,-0.02460178449445838,1.382025094112954,3.823683249000905,2,2.5350921198963405,1.2767199682361063,1.3344214731430881,3.1364608401251717,-4,-12,-21,323,140,251611.0,57,81.0,0,0,-1,0,0,0
1778195272.118031,6.508644104003906,wait_slave,2,0.0007491367045050296,1.394792293795315,3.837027463732336,-0.028922582578289724,1.3848028700837651,3.8206981829670874,2,2.967171928279475,0.9989423711549872,1.6329280765248644,3.5310691321413805,2,-3,0,326,140,251611.0,57,81.0,0,0,-1,0,0,0
1778195272.188301,6.578914165496826,wait_slave,2,0.0007491367045050296,1.394792293795315,3.837027463732336,-0.02460178449445838,1.382025094112954,3.823683249000905,2,2.5350921198963405,1.2767199682361063,1.3344214731430881,3.1364608401251717,0,0,2,330,140,251609.0,57,81.0,0,0,-1,0,0,0
1778195272.259978,6.650591135025024,wait_slave,2,0.0007491367045050296,1.394792293795315,3.837027463732336,0.05118502985583162,1.4655667542598634,3.839270336929179,2,-5.043589315132659,-7.077446046454838,-0.22428731968431315,8.693580420170433,-30,4,-30,333,140,251611.0,57,81.0,-1,0,-1,0,0,0
1778195272.3318021,6.722415208816528,wait_slave,2,0.0007491367045050296,1.394792293795315,3.837027463732336,-0.03652672932571055,1.3989446418633458,3.832817855430417,2,3.7275866030215576,-0.41523480680307756,0.42096083019189656,3.774192608805549,30,-3,23,337,140,251606.0,57,81.0,-1,0,-1,0,0,0
1778195272.403735,6.7943480014801025,wait_slave,2,0.0007491367045050296,1.394792293795315,3.837027463732336,-0.04629580992480431,1.3298884107334934,3.8667452775785405,2,4.704494662930934,6.49038830618216,-2.971781384620442,8.549204348741956,5,12,28,340,140,251606.0,57,81.0,-1,0,-1,0,0,0
1778195272.475213,6.86582612991333,wait_slave,2,0.0007491367045050296,1.394792293795315,3.837027463732336,-0.014648401853563753,1.5246359570031767,3.7862876793993245,2,1.5397538558068782,-12.984366320786167,5.073978433301152,14.025329508800976,-10,-30,-30,344,140,251611.0,57,81.0,-1,-1,-1,0,0,0
1778195272.549244,6.939857006072998,wait_slave,2,0.0007491367045050296,1.394792293795315,3.837027463732336,0.045918722444725724,1.4618259156264992,3.841007781268108,2,-4.51695857402207,-6.703362183118422,-0.3980317535771771,8.092985147295735,-24,18,17,348,140,251611.0,57,81.0,-1,-1,-1,0,0,0
1778195272.6206028,7.011215925216675,wait_slave,2,0.0007491367045050296,1.394792293795315,3.837027463732336,-0.030807011405905138,1.3947150446912056,3.837213453314619,2,3.1556148110410165,0.007724910410944474,-0.01859895822828861,3.1556790760705478,27,-2,23,351,140,251607.00000000003,57,81.0,-1,0,-1,0,0,0
1778195272.6914492,7.082062244415283,wait_slave,2,0.0007491367045050296,1.394792293795315,3.837027463732336,-0.018326213171477868,1.4564925689551473,3.8054794525515683,2,1.9075349875982897,-6.170027515983234,3.1548011180767777,7.187537782267328,-4,-13,-25,355,140,251610.0,57,81.0,0,0,-1,0,0,0
1778195272.765682,7.15629506111145,wait_slave,2,0.0007491367045050296,1.394792293795315,3.837027463732336,0.052677732852816184,1.4613268050650041,3.821728213302044,2,-5.192859614831115,-6.653451126968912,1.5299250430292233,8.57757970033481,-28,3,-6,359,140,251610.0,57,81.0,0,0,-1,0,0,0
1778195272.8374841,7.228097200393677,wait_slave,2,0.0007491367045050296,1.394792293795315,3.837027463732336,0.042690882853534395,1.4665865415651296,3.838963157662084,2,-4.194174614902937,-7.179424776981458,-0.1935693929747906,8.317013282334475,0,5,-6,362,140,251610.0,57,81.0,0,0,-1,0,0,0
1778195272.90952,7.300132989883423,wait_slave,2,0.0007491367045050296,1.394792293795315,3.837027463732336,-0.027461804325630057,1.392412312585762,3.8406720990820142,2,2.8210941030135084,0.23799812095530726,-0.36446353496781825,2.8544787110709176,24,0,25,366,140,251608.0,57,81.0,0,0,-1,0,0,0
1778195272.983291,7.37390398979187,wait_slave,2,0.0007491367045050296,1.394792293795315,3.837027463732336,-0.036316708961043664,1.3190465787929502,3.855522054174557,2,3.706584566554869,7.574571500236482,-1.8494590442220904,8.633272920362959,4,5,30,369,140,251608.0,57,81.0,0,0,-1,0,0,0
1778195273.054073,7.4446861743927,wait_slave,2,0.0007491367045050296,1.394792293795315,3.837027463732336,-0.022455909696891707,1.4683072034274258,3.8215249039315653,2,2.3205046401396734,-7.3514909632110825,1.5502559800770754,7.863361543948535,-4,-13,-30,373,140,251611.0,57,81.0,0,-1,-1,0,0,0
1778195273.126893,7.517506122589111,wait_slave,2,0.0007491367045050296,1.394792293795315,3.837027463732336,-0.038155900304576607,1.3247614350341208,3.8738203296981584,2,3.8905037009081633,7.003085876119419,-3.679286596582232,8.815689462252688,6,18,30,377,140,251610.0,57,81.0,0,0,-1,0,0,0
1778195273.198636,7.589249134063721,wait_slave,2,0.0007491367045050296,1.394792293795315,3.837027463732336,-0.028777514302181784,1.3977705117094819,3.838651278106215,2,2.952665100668681,-0.29782179141668585,-0.1623814373878929,2.9720862617625343,-2,-13,-25,380,140,251610.0,57,81.0,0,0,-1,0,0,0
1778195273.27005,7.66066312789917,wait_slave,2,0.0007491367045050296,1.394792293795315,3.837027463732336,-0.02183689742517525,1.4700328452025535,3.8220862847033836,2,2.2586034129680277,-7.524055140723851,1.4941179028952423,7.996566978740059,-1,-7,-30,384,140,251612.0,57,81.0,0,0,-1,0,0,0
1778195273.3424032,7.7330162525177,wait_slave,2,0.0007491367045050296,1.394792293795315,3.837027463732336,0.03944606499497749,1.4013330375772322,3.877605940472664,2,-3.8696928290472465,-0.6540743781917158,-4.057847674032811,5.645215994896923,-23,20,22,387,140,251612.0,57,81.0,0,0,-1,0,0,0
1778195273.415464,7.806077003479004,wait_slave,2,0.0007491367045050296,1.394792293795315,3.837027463732336,0.03980688209868455,1.4022816349976268,3.8779017753067135,2,-3.905774539417952,-0.7489341202311817,-4.087431157437749,5.7029001863968185,-3,1,0,391,140,251612.0,57,81.0,0,0,-1,0,0,0
1778195273.4851258,7.875738859176636,wait_slave,2,0.0007491367045050296,1.394792293795315,3.837027463732336,-0.021516148926789214,1.4709110316065428,3.8223769824711167,2,2.226528563129424,-7.61187378112278,1.4650481261219372,8.065011959943332,22,-21,-29,394,140,251613.0,57,81.0,0,0,-1,0,0,0
1778195273.554785,7.9453980922698975,wait_slave,2,0.0007491367045050296,1.394792293795315,3.837027463732336,0.04880386088988309,1.5401007380021077,3.8198272562562243,2,-4.805472418537806,-14.530844420679268,1.7200207476111729,15.40118424393158,-29,-2,-30,398,140,251601.00000000003,56,81.0,0,0,-1,0,0,0
1778195273.624466,8.015079021453857,wait_slave,2,0.0007491367045050296,1.394792293795315,3.837027463732336,-0.09770886029160697,1.399218302904372,3.8198083625669805,2,9.8457996996112,-0.4426009109057105,1.7219101165355521,10.005030821573017,30,-2,30,401,140,251616.0,56,81.0,0,0,-1,0,0,0
1778195273.6941981,8.084811210632324,wait_slave,2,0.0007491367045050296,1.394792293795315,3.837027463732336,-0.11473515431788361,1.3371675041489588,3.847734111304832,2,11.548429102238865,5.76247896463562,-1.0706647572495953,12.95062552812496,12,9,26,405,140,251616.0,56,81.0,0,0,-1,0,0,0
1778195273.7653818,8.155994892120361,wait_slave,2,0.0007491367045050296,1.394792293795315,3.837027463732336,-0.02773925679710243,1.4641617717594824,3.823215604993162,2,2.8488393501607456,-6.936947796416737,1.381185873917401,7.625274079765545,-29,-10,-30,408,140,251605.00000000003,56,81.0,0,0,-1,0,0,0
1778195273.835083,8.225696086883545,wait_slave,2,0.0007491367045050296,1.394792293795315,3.837027463732336,-0.035424951978055175,1.3977432700122194,3.8585051152708636,2,3.61740886825602,-0.2950976216904433,-2.1477651538527542,4.217300639338959,4,12,23,412,140,251607.00000000003,56,81.0,0,0,-1,0,0,0
1778195273.9055328,8.296145915985107,wait_slave,2,0.0007491367045050296,1.394792293795315,3.837027463732336,-0.028324029745412815,1.4624649299237493,3.8226747334302758,2,2.907316644991784,-6.767263612843433,1.4352730302060301,7.503889361604276,-1,-14,-27,416,140,251607.00000000003,56,81.0,0,0,-1,0,0,0
1778195273.9767082,8.367321252822876,wait_slave,2,0.0007491367045050296,1.394792293795315,3.837027463732336,0.03582604662166322,1.4011877656268794,3.873605651081234,2,-3.5076909917158194,-0.6395471831564414,-3.657818734889773,5.1080871752700405,-25,19,21,419,140,251608.0,56,81.0,-1,0,-1,0,0,0
1778195274.048706,8.439319133758545,wait_slave,2,0.0007491367045050296,1.394792293795315,3.837027463732336,-0.03607681490710224,1.396042203154681,3.857901669659013,2,3.6825951611607266,-0.1249909359366086,-2.0874205926677103,4.23490904102602,26,-5,1,423,140,251608.0,56,81.0,-1,0,-1,0,0,0
1778195274.117759,8.508372068405151,wait_slave,2,0.0007491367045050296,1.394792293795315,3.837027463732336,-0.03607681490710224,1.396042203154681,3.857901669659013,2,3.6825951611607266,-0.1249909359366086,-2.0874205926677103,4.23490904102602,1,0,0,426,140,251608.0,56,81.0,-1,0,-1,0,0,0
1778195274.1861382,8.576751232147217,wait_slave,2,0.0007491367045050296,1.394792293795315,3.837027463732336,-0.1285526856266901,1.2554667874548089,3.8583043425048524,2,12.930182233119512,13.93255063405061,-2.1276878772516383,19.126751827089386,30,0,30,430,140,251609.0,56,81.0,-1,-1,-1,0,0,0
1778195274.257468,8.648081064224243,wait_slave,2,0.0007491367045050296,1.394792293795315,3.837027463732336,-0.03639154625379404,1.3952066089678783,3.857610409084563,2,3.7140682958299065,-0.04143151725632954,-2.0582945352226822,4.246480456853485,-30,0,-30,433,140,251609.0,56,81.0,-1,-1,-1,0,0,0
1778195274.328822,8.719434976577759,wait_slave,2,0.0007491367045050296,1.394792293795315,3.837027463732336,-0.09906009416788542,1.3919237118899326,3.8193735275155025,2,9.980923087239045,0.2868581905382417,1.7653936216833532,10.139907688649858,27,-15,1,437,140,251609.0,56,81.0,-1,-1,-1,0,0,0
1778195274.400448,8.791061162948608,wait_slave,2,0.0007491367045050296,1.394792293795315,3.837027463732336,-0.031364044266268376,1.3994342180026105,3.855815271786438,2,3.2113180970773403,-0.4641924207295478,-1.8787808054101962,3.7493807273811193,-22,12,-2,440,140,251601.00000000003,56,81.0,-1,0,-1,0,0,0
1778195274.4710941,8.861707210540771,wait_slave,2,0.0007491367045050296,1.394792293795315,3.837027463732336,0.03714559379997784,1.3949904915318356,3.8757206967425253,2,-3.639645709547281,-0.019819773652063333,-3.869323301018923,5.312163073763975,-26,8,1,444,140,251606.0,56,81.0,0,0,-1,0,0,0
1778195274.542309,8.932922124862671,wait_slave,2,0.0007491367045050296,1.394792293795315,3.837027463732336,-0.028741412966859947,1.3890537349611676,3.839513564557378,2,2.9490549671364974,0.5738558834147423,-0.24861008250418593,3.0146380789814393,23,-13,2,447,140,251604.0,56,81.0,0,0,-1,0,0,0
1778195274.616041,9.006654024124146,wait_slave,2,0.0007491367045050296,1.394792293795315,3.837027463732336,-0.030105038323735123,1.4594992594818024,3.8214451584675198,2,3.085417502824015,-6.470696568648737,1.5582305264816299,7.336061451754242,1,-8,-29,451,140,251604.0,56,81.0,0,0,-1,0,0,0
1778195274.685327,9.075940132141113,wait_slave,2,0.0007491367045050296,1.394792293795315,3.837027463732336,0.03608348095129843,1.394465566448262,3.8752492861200833,2,-3.5334344246793403,0.03267273470530796,-3.8221822387747295,5.20531491914823,-26,20,23,454,140,251606.0,56,81.0,0,-1,-1,0,0,0
1778195274.7570932,9.147706270217896,wait_slave,2,0.0007491367045050296,1.394792293795315,3.837027463732336,-0.03842409654841594,1.3942595761329102,3.8565743459080073,2,3.917323325292097,0.053271766240481355,-1.9546882175671243,4.378249187044024,27,-6,0,458,140,251594.99999999997,56,81.0,0,0,-1,0,0,0
1778195274.8270988,9.217711925506592,wait_slave,2,0.0007491367045050296,1.394792293795315,3.837027463732336,-0.02554078047127284,1.4639810625084158,3.8195609409430102,2,2.6289917175777866,-6.918876871310076,1.7466522789325811,7.604817472822242,-3,-15,-29,462,140,251594.99999999997,56,81.0,0,0,-1,0,0,0
1778195274.899302,9.289915084838867,wait_slave,2,0.0007491367045050296,1.394792293795315,3.837027463732336,-0.031763677759551356,1.4592749064962591,3.8207960105534196,2,3.2512814464056383,-6.448261270094413,1.62314531789165,7.401723121958477,3,-1,-3,465,140,251603.00000000003,56,81.0,0,0,-1,0,0,0
1778195274.9715369,9.362149953842163,wait_slave,2,0.0007491367045050296,1.394792293795315,3.837027463732336,-0.04283809371633307,1.320030706158271,3.8708138224133015,2,4.35872304208381,7.476158763704399,-3.3786358680965467,9.29013437722485,5,18,30,469,140,251600.0,56,81.0,-1,0,-1,0,0,0
1778195275.043416,9.43402910232544,wait_slave,2,0.0007491367045050296,1.394792293795315,3.837027463732336,-0.11296660250148394,1.319049706478446,3.8305022686900716,2,11.371573920598896,7.574258731686889,0.6525195042264453,13.67873789753923,30,-15,5,472,140,251600.0,56,81.0,-1,0,-1,0,0,0
1778195275.116974,9.507587194442749,wait_slave,2,0.0007491367045050296,1.394792293795315,3.837027463732336,0.03801697417443328,1.3087171527425532,3.8757278468233074,2,-3.7267837469928256,8.60751410527618,-3.8700383090971346,10.146694667883613,-30,17,9,476,140,251601.00000000003,56,81.0,-1,0,-1,0,0,0
1778195275.1878898,9.578502893447876,wait_slave,2,0.0007491367045050296,1.394792293795315,3.837027463732336,-0.03342931973173413,1.4590041924371708,3.820204703736646,2,3.4178456436239157,-6.421189864185584,1.6822759995690273,7.466150323579389,26,-21,-30,480,140,251603.00000000003,56,81.0,0,0,-1,0,0,0
1778195275.2575302,9.648143291473389,wait_slave,2,0.0007491367045050296,1.394792293795315,3.837027463732336,-0.13341929434278077,1.2544372769885932,3.8555972403471124,2,13.41684310472858,14.03550168067218,-1.8569776614776323,19.50526473443212,30,12,30,483,140,251596.99999999997,56,81.0,-1,0,-1,0,0,0
1778195275.327296,9.717909097671509,wait_slave,2,0.0007491367045050296,1.394792293795315,3.837027463732336,-0.03486866197411698,1.3926813744508562,3.8353222903433695,2,3.5617798678622004,0.21109193444588392,0.17051733889665854,3.572101873513825,-30,-8,-30,487,140,251596.99999999997,56,81.0,-1,0,-1,0,0,0
1778195275.399658,9.790271043777466,wait_slave,2,0.0007491367045050296,1.394792293795315,3.837027463732336,-0.11366748145906591,1.3194072289861993,3.830279323273051,2,11.441661816357094,7.5385064809115665,0.6748140459285068,13.71845760569358,30,-3,30,490,140,251598.0,56,81.0,-1,0,-1,0,0,0
1778195275.4713202,9.86193323135376,wait_slave,2,0.0007491367045050296,1.394792293795315,3.837027463732336,-0.02988071129943015,1.3876663104941178,3.8395874342924405,2,3.062984800393518,0.7125983301197181,-0.25599705601044853,3.15518727815278,-27,2,-22,494,140,251602.0,55,80.5,0,0,-1,0,0,0
1778195275.545092,9.935705184936523,wait_slave,2,0.0007491367045050296,1.394792293795315,3.837027463732336,-0.034621210290326276,1.393523711814194,3.835546751256084,2,3.5370346994831303,0.12685819811208976,0.1480712476252144,3.5424049122240744,3,-2,-1,498,140,251602.0,55,80.5,0,0,-1,0,0,0
1778195275.616832,10.007445096969604,wait_slave,2,0.0007491367045050296,1.394792293795315,3.837027463732336,-0.04214689498933,1.315838544068416,3.852418664062847,2,4.289603169383502,7.895374972689906,-1.5391200330511001,9.116278395612014,5,6,30,501,140,251591.0,55,80.5,0,0,-1,0,0,0
1778195275.6874828,10.07809591293335,wait_slave,2,0.0007491367045050296,1.394792293795315,3.837027463732336,-0.034621210290326276,1.393523711814194,3.835546751256084,2,3.5370346994831303,0.12685819811208976,0.1480712476252144,3.5424049122240744,0,-6,-27,505,140,251602.0,55,80.5,0,0,-1,0,0,0
1778195275.760063,10.150676012039185,wait_slave,2,0.0007491367045050296,1.394792293795315,3.837027463732336,-0.03270320100068003,1.3899293036688647,3.8381278301702335,2,3.3452337705185053,0.4862990126450306,-0.11003664378974598,3.382186241485454,1,0,1,508,140,251602.0,55,80.5,0,0,-1,0,0,0
1778195275.8329751,10.223588228225708,wait_slave,2,0.0007491367045050296,1.394792293795315,3.837027463732336,-0.04214689498933,1.315838544068416,3.852418664062847,2,4.289603169383502,7.895374972689906,-1.5391200330511001,9.116278395612014,5,5,30,512,140,251596.99999999997,55,80.5,0,-1,-1,0,0,0
1778195275.904366,10.294979095458984,wait_slave,2,0.0007491367045050296,1.394792293795315,3.837027463732336,-0.02814546470037671,1.3816306658346682,3.822320580004363,2,2.8894601404881737,1.3161627960646793,1.4706883727972908,3.4991697156748303,-3,-12,-21,515,140,251588.0,55,80.5,0,0,-1,0,0,0
1778195275.978063,10.36867618560791,wait_slave,2,0.0007491367045050296,1.394792293795315,3.837027463732336,-0.042923751463781024,1.3161940892078272,3.852201579195737,2,4.367288816828605,7.8598204587487785,-1.5174115463401083,9.118800746497772,7,10,28,519,140,251600.0,55,80.5,0,0,-1,0,0,0
1778195276.04964,10.440253019332886,wait_slave,2,0.0007491367045050296,1.394792293795315,3.837027463732336,0.04676177049115615,1.4586502678733644,3.8195330804938292,2,-4.601263378665112,-6.385797407804938,1.7494383238506828,8.06291310025914,-30,-13,-30,523,140,251600.0,55,80.5,0,0,-1,0,0,0
1778195276.12499,10.515603065490723,wait_slave,2,0.0007491367045050296,1.394792293795315,3.837027463732336,-0.04371287144653868,1.3165425923665497,3.851989796552268,2,4.446200815104371,7.824970142876531,-1.4962332819931756,9.123462799797453,30,10,30,526,140,251594.99999999997,55,80.5,0,0,-1,0,0,0
1778195276.196502,10.587115049362183,wait_slave,2,0.0007491367045050296,1.394792293795315,3.837027463732336,-0.03326528470058876,1.3846927869714323,3.8191503374044453,2,3.4014421405093787,1.009950682388272,1.7877126327890736,3.9731254036996115,-1,-13,-22,530,140,251596.99999999997,55,80.5,0,0,-1,0,0,0
1778195276.268737,10.659350156784058,wait_slave,2,0.0007491367045050296,1.394792293795315,3.837027463732336,-0.03326528470058876,1.3846927869714323,3.8191503374044453,2,3.4014421405093787,1.009950682388272,1.7877126327890736,3.9731254036996115,1,-1,1,534,140,251596.99999999997,55,80.5,0,0,-1,0,0,0
1778195276.341584,10.732197046279907,wait_slave,2,0.0007491367045050296,1.394792293795315,3.837027463732336,-0.029703709104311082,1.382225043412331,3.82193247892402,2,3.045284580881611,1.2567250382983897,1.509498480831617,3.6237689860246802,0,0,2,537,140,251598.0,55,80.5,0,0,-1,0,0,0
1778195276.416086,10.80669903755188,wait_slave,2,0.0007491367045050296,1.394792293795315,3.837027463732336,-0.11632579480034932,1.3216220153360254,3.829702694569532,2,11.707493150485435,7.317027845928958,0.7324769162804223,13.825368523104434,30,1,26,541,140,251598.99999999997,55,80.5,-1,0,-1,0,0,0
1778195276.4870322,10.877645254135132,wait_slave,2,0.0007491367045050296,1.394792293795315,3.837027463732336,-0.03382164596354387,1.3858667314428104,3.819170322203565,2,3.4570782668048894,0.8925562352504635,1.7857141528771159,3.9920949151648206,-26,-5,-21,545,140,251598.0,55,80.0,-1,0,-1,0,0,0
1778195276.5580192,10.94863224029541,wait_slave,2,0.0007491367045050296,1.394792293795315,3.837027463732336,-0.044236139531702134,1.317781038854759,3.852035264208123,2,4.498527623620716,7.701125494055594,-1.500780047578676,9.044137626489434,6,11,29,548,140,251598.0,55,80.0,-1,0,-1,0,0,0
1778195276.6303449,11.020957946777344,wait_slave,2,0.0007491367045050296,1.394792293795315,3.837027463732336,-0.03453743096775619,1.3926378351453312,3.837975689793786,2,3.5286567672261215,0.21544586499837592,-0.09482260614497307,3.53649923346121,-1,-5,-25,552,140,251601.00000000003,55,80.0,-1,0,-1,0,0,0
1778195276.702283,11.092895984649658,wait_slave,2,0.0007491367045050296,1.394792293795315,3.837027463732336,-0.023106797146291935,1.4555960436092157,3.8053447562565865,2,2.385593385079696,-6.080374981390069,3.1682707475749528,7.259473482504736,-2,-14,-25,555,140,251601.00000000003,55,80.0,-1,0,-1,0,0,0
1778195276.773973,11.164586067199707,wait_slave,2,0.0007491367045050296,1.394792293795315,3.837027463732336,-0.03487157113244921,1.4631936576331794,3.820416865709075,2,3.5620707836954235,-6.840136383786444,1.6610598023261147,7.8889120722542785,6,3,-7,559,140,251608.0,55,80.0,-1,0,-1,0,0,0
1778195276.847043,11.237656116485596,wait_slave,2,0.0007491367045050296,1.394792293795315,3.837027463732336,-0.018610677229218275,1.5279234216845983,3.7854612088880093,2,1.9359813933723304,-13.313112788928327,5.156625484432675,14.407559906969375,-4,-16,-30,563,140,251611.0,55,80.0,-1,0,-1,0,0,0
1778195276.9189708,11.309583902359009,wait_slave,2,0.0007491367045050296,1.394792293795315,3.837027463732336,-0.027292564935776253,1.4694447088601899,3.8198199928098173,2,2.804170164028128,-7.4652415064874855,1.720747092251873,8.158074013791635,4,10,15,566,140,251611.0,55,80.0,-1,0,-1,0,0,0
1778195276.989729,11.38034200668335,wait_slave,2,0.0007491367045050296,1.394792293795315,3.837027463732336,-0.021578745744976313,1.4597527359096714,3.8048143864175343,2,2.232788244948134,-6.4960442114356365,3.221307731480172,7.586880600391635,0,-8,0,570,140,251625.0,55,80.0,0,0,-1,0,0,0
1778195277.059361,11.449974060058594,wait_slave,2,0.0007491367045050296,1.394792293795315,3.837027463732336,-0.020048173119615154,1.45733944724104,3.806618955326813,2,2.079730982412018,-6.254715344572492,3.0408508405523005,7.259030158039205,0,-2,-3,573,140,251619.99999999997,55,80.0,0,0,-1,0,0,0
1778195277.1282759,11.5188889503479,wait_slave,2,0.0007491367045050296,1.394792293795315,3.837027463732336,-0.020798934560557036,1.4594480028795074,3.8050350081150044,2,2.1548071265062063,-6.465570908419238,3.199245561733166,7.528743128073136,1,-3,-5,577,140,251619.99999999997,55,80.0,0,0,-1,0,0,0
1778195277.199888,11.590501070022583,wait_slave,2,0.0007491367045050296,1.394792293795315,3.837027463732336,-0.032480437454431854,1.3975294982068438,3.837018423026068,2,3.322957415893688,-0.2737204411528804,0.000904070626805975,3.334212003621168,6,10,21,580,140,251625.0,55,80.0,0,0,-1,0,0,0
1778195277.271748,11.662361145019531,wait_slave,2,0.0007491367045050296,1.394792293795315,3.837027463732336,-0.1114357590973647,1.3231436613647949,3.8320739425127774,2,11.218489580186972,7.164863243052011,0.495352121955861,13.320478500306498,30,-3,30,584,140,251603.00000000003,55,80.0,0,0,-1,0,0,0
1778195277.344513,11.73512601852417,wait_slave,2,0.0007491367045050296,1.394792293795315,3.837027463732336,-0.01878506469287089,1.4558313366543763,3.806835673285012,2,1.9534201397375919,-6.103904285906125,3.0191790447323896,7.084415281304929,-30,-11,-30,587,140,251603.00000000003,55,80.0,0,0,-1,0,0,0
1778195277.417116,11.807729005813599,wait_slave,2,0.0007491367045050296,1.394792293795315,3.837027463732336,-0.021253731712457924,1.4568088112532473,3.8051383935062892,2,2.200286841696295,-6.201651745793235,3.188907022604681,7.312378174073028,2,-3,-4,591,140,251606.0,55,80.0,-1,0,-1,0,0,0
1778195277.486639,11.877252101898193,wait_slave,2,0.0007491367045050296,1.394792293795315,3.837027463732336,-0.01879006537024175,1.4576466469858569,3.805487066594267,2,1.9539202074746778,-6.285435319054189,3.154039713806922,7.29879906857717,0,-2,-4,595,140,251604.0,55,80.5,-1,0,-1,0,0,0
1778195277.55899,11.949603080749512,wait_slave,2,0.0007491367045050296,1.394792293795315,3.837027463732336,-0.028531740435417285,1.3919428274367345,3.840110939969231,2,2.9280877139922312,0.28494663585805213,-0.30834762368949775,2.958034905668632,5,11,23,598,140,251602.0,55,80.5,-1,-1,-1,0,0,0
1778195277.6285079,12.019120931625366,wait_slave,2,0.0007491367045050296,1.394792293795315,3.837027463732336,-0.028531740435417285,1.3919428274367345,3.840110939969231,2,2.9280877139922312,0.28494663585805213,-0.30834762368949775,2.958034905668632,2,0,0,602,140,251602.0,55,80.5,-1,-1,-1,0,0,0
1778195277.6998432,12.090456247329712,wait_slave,2,0.0007491367045050296,1.394792293795315,3.837027463732336,-0.03018633353582323,1.3964224155413016,3.837778791240272,2,3.0935470240328256,-0.16301217459866457,-0.07513275079360504,3.0987499236323592,2,-1,-1,605,140,251609.0,55,80.5,0,-1,-1,0,0,0
1778195277.771581,12.162194013595581,wait_slave,2,0.0007491367045050296,1.394792293795315,3.837027463732336,-0.022949364354547308,1.384220626434984,3.8247691088022604,2,2.3698501059052335,1.0571667360331105,1.2258354930075654,2.8699239864761315,0,-6,4,609,140,251606.0,55,80.5,0,-1,-1,0,0,0
1778195277.84434,12.234953165054321,wait_slave,2,0.0007491367045050296,1.394792293795315,3.837027463732336,0.046725252586638844,1.4644624206707544,3.84168046938278,2,-4.597611588213382,-6.967012687543939,-0.4653005650443909,8.360251355091115,-26,5,-30,612,140,251606.0,55,80.5,0,-1,-1,0,0,0
1778195277.916706,12.307319164276123,wait_slave,2,0.0007491367045050296,1.394792293795315,3.837027463732336,0.04218581570909796,1.4678190711426629,3.8389500875465257,2,-4.143667900459294,-7.302677734734786,-0.19226238141896168,8.398574318894655,0,-1,-6,616,140,251611.0,55,80.5,-1,0,-1,0,0,0
1778195277.986071,12.376684188842773,wait_slave,2,0.0007491367045050296,1.394792293795315,3.837027463732336,-0.10895364797897678,1.3248348406192445,3.8336771492016837,2,10.97027846834818,6.995745317607049,0.3350314530652376,13.015364316701536,30,-3,30,619,140,251611.0,55,80.5,0,0,-1,0,0,0
1778195278.0556731,12.44628620147705,wait_slave,2,0.0007491367045050296,1.394792293795315,3.837027463732336,0.03744073417212079,1.4011810687254047,3.876774328087373,2,-3.6691597467615766,-0.6388774930089713,-3.9746864355036937,5.446928488506707,-30,16,-27,623,140,251611.0,55,80.5,0,0,-1,0,0,0
1778195278.1276329,12.518245935440063,wait_slave,2,0.0007491367045050296,1.394792293795315,3.837027463732336,-0.030426703245706843,1.400769573343462,3.838429103915344,2,3.117583995021187,-0.5977279548146974,-0.1401640183007924,3.1774604051042794,25,-14,0,627,140,251601.00000000003,55,80.5,0,0,-1,0,0,0
1778195278.1986802,12.589293241500854,wait_slave,2,0.0007491367045050296,1.394792293795315,3.837027463732336,-0.030426703245706843,1.400769573343462,3.838429103915344,2,3.117583995021187,-0.5977279548146974,-0.1401640183007924,3.1774604051042794,2,0,0,630,140,251602.0,55,80.5,0,0,-1,0,0,0
1778195278.270275,12.660888195037842,wait_slave,2,0.0007491367045050296,1.394792293795315,3.837027463732336,0.04586190939726531,1.5422263498241446,3.8190753473155756,2,-4.511277269276028,-14.743405602882964,1.7952116416760422,15.522319936459771,-28,-8,-30,634,140,251605.00000000003,55,80.5,-1,0,-1,0,0,0
1778195278.3418849,12.732497930526733,wait_slave,2,0.0007491367045050296,1.394792293795315,3.837027463732336,-0.024313218934028047,1.4733014877632558,3.821562347853174,2,2.5062355638533074,-7.850919396794076,1.5465115879162106,8.385096908685055,26,-1,18,637,140,251605.00000000003,55,80.5,-1,0,-1,0,0,0
1778195278.413134,12.803747177124023,wait_slave,2,0.0007491367045050296,1.394792293795315,3.837027463732336,-0.025120312854533866,1.4736611456613748,3.8213001548208028,2,2.5869449559038893,-7.886885186605985,1.5727308911533289,8.448001219671399,2,-2,-5,641,140,251603.00000000003,55,80.5,-1,0,-1,0,0,0
1778195278.484124,12.874737024307251,wait_slave,2,0.0007491367045050296,1.394792293795315,3.837027463732336,-0.10085221467791983,1.4010512230047727,3.8203493668965987,2,10.160135138242486,-0.6258929209457698,1.66780968357374,10.315118860995351,30,-2,25,644,140,251611.0,55,80.5,0,0,-1,0,0,0
1778195278.5534039,12.944016933441162,wait_slave,2,0.0007491367045050296,1.394792293795315,3.837027463732336,-0.02155950028446041,1.471621432367305,3.8237369701392714,2,2.2308636988965436,-7.682913857198992,1.3290493593064667,8.10988843201111,-26,0,-30,648,140,251611.0,55,80.5,0,0,-1,0,0,0
1778195278.6240141,13.01462721824646,wait_slave,2,0.0007491367045050296,1.394792293795315,3.837027463732336,-0.11168459602633396,1.3297149307625653,3.833356853405964,2,11.243373273083899,6.507736303274969,0.367061032637217,12.996107423091772,30,2,30,651,140,251609.0,55,80.5,-1,0,-1,0,0,0
1778195278.693254,13.083867073059082,wait_slave,2,0.0007491367045050296,1.394792293795315,3.837027463732336,-0.11756428505024674,1.3382040252626184,3.8490143074825895,2,11.831342175475177,5.658826853269661,-1.1986843750253495,13.169655396379717,9,5,0,655,140,251607.00000000003,55,80.5,-1,0,-1,0,0,0
1778195278.7648718,13.155484914779663,wait_slave,2,0.0007491367045050296,1.394792293795315,3.837027463732336,-0.1024366395956473,1.4018511242920026,3.81980528961779,2,10.318577630015234,-0.7058830496687651,1.7222174114546185,10.485101239319434,1,-12,-22,658,140,251607.00000000003,55,80.5,-1,0,-1,0,0,0
1778195278.835883,13.22649598121643,wait_slave,2,0.0007491367045050296,1.394792293795315,3.837027463732336,-0.028631407983114032,1.5390364222571034,3.8034685691374874,2,2.938054468761906,-14.424412846178836,3.355889459484862,15.098272884098446,-23,-8,-30,662,140,251606.0,55,80.5,-1,0,-1,0,0,0
1778195278.9081001,13.298713207244873,wait_slave,2,0.0007491367045050296,1.394792293795315,3.837027463732336,-0.10357340026420658,1.405500313700474,3.8182767985196033,2,10.432253696871161,-1.0708019905159016,1.875066521273272,10.653375453722386,30,2,30,666,140,251611.0,55,80.5,0,0,-1,0,0,0
1778195278.9803479,13.37096095085144,wait_slave,2,0.0007491367045050296,1.394792293795315,3.837027463732336,-0.033788827879351446,1.4708760936470995,3.8219712930642924,2,3.4537964583856473,-7.608379985178448,1.5056170668043656,8.490173068122571,-21,0,-28,669,140,251607.00000000003,55,80.5,0,0,-1,0,0,0
1778195279.0512378,13.441850900650024,wait_slave,2,0.0007491367045050296,1.394792293795315,3.837027463732336,-0.033788827879351446,1.4708760936470995,3.8219712930642924,2,3.4537964583856473,-7.608379985178448,1.5056170668043656,8.490173068122571,2,-2,-5,673,140,251607.00000000003,55,80.5,0,0,-1,0,0,0
1778195279.1206982,13.511311292648315,wait_slave,2,0.0007491367045050296,1.394792293795315,3.837027463732336,-0.033788827879351446,1.4708760936470995,3.8219712930642924,2,3.4537964583856473,-7.608379985178448,1.5056170668043656,8.490173068122571,2,-2,-5,676,140,251605.00000000003,55,80.5,0,0,-1,0,0,0
1778195279.190224,13.58083701133728,wait_slave,2,0.0007491367045050296,1.394792293795315,3.837027463732336,-0.09296551572126366,1.4637980288254546,3.786775447793776,2,9.37146524257687,-6.9005735030139626,5.025201593856021,12.676550261100921,27,-16,-2,680,140,251604.0,55,80.5,0,0,-1,0,0,0
1778195279.2596219,13.650234937667847,wait_slave,2,0.0007491367045050296,1.394792293795315,3.837027463732336,0.03217507368984218,1.406774079925695,3.8757848974752487,2,-3.1425936985337155,-1.1981786130379923,-3.875743374291263,5.131560566354848,-30,30,19,683,140,251604.0,55,80.5,0,0,-1,0,0,0
1778195279.3314528,13.722065925598145,wait_slave,2,0.0007491367045050296,1.394792293795315,3.837027463732336,-0.03465212835446696,1.471198930723225,3.8217359407745644,2,3.5401265058971987,-7.640663692790994,1.5291522957771697,8.558653170199795,26,-20,-28,687,140,251606.0,55,80.5,0,0,-1,0,0,0
1778195279.400942,13.791555166244507,wait_slave,2,0.0007491367045050296,1.394792293795315,3.837027463732336,-0.03465212835446696,1.471198930723225,3.8217359407745644,2,3.5401265058971987,-7.640663692790994,1.5291522957771697,8.558653170199795,2,-2,-6,690,140,251596.99999999997,55,80.5,0,0,-1,0,0,0
1778195279.471055,13.861668109893799,wait_slave,2,0.0007491367045050296,1.394792293795315,3.837027463732336,-0.1040645547726089,1.4026263946869246,3.819283044695216,2,10.481369147711392,-0.783410089160963,1.7744419037120096,10.659337439449253,30,-3,23,694,140,251596.99999999997,55,80.5,0,0,-1,0,0,0
1778195279.543551,13.934164047241211,wait_slave,2,0.0007491367045050296,1.394792293795315,3.837027463732336,-0.09351050529475136,1.4650712300510236,3.786801490672779,2,9.42596419992564,-7.027893625570858,5.022597305955712,12.785404710388049,3,-15,-26,698,140,251609.0,54,80.0,-1,0,-1,0,0,0
1778195279.616674,14.00728702545166,wait_slave,2,0.0007491367045050296,1.394792293795315,3.837027463732336,-0.029048797654055214,1.476336647579898,3.820322589375881,2,2.979793435856024,-8.154435378458302,1.6704874356455068,8.841069705328227,-19,9,-10,701,140,251607.00000000003,54,80.0,-1,0,-1,0,0,0
1778195279.686626,14.077239036560059,wait_slave,2,0.0007491367045050296,1.394792293795315,3.837027463732336,-0.024029227180644597,1.537256301585657,3.7833615099631333,2,2.4778363885149624,-14.246400779034207,5.36659537692028,15.424005778807834,0,-17,-30,705,140,251607.00000000003,54,80.0,-1,0,-1,0,0,0
1778195279.758044,14.148657083511353,wait_slave,2,0.0007491367045050296,1.394792293795315,3.837027463732336,-0.10237304973959338,1.3971849573212678,3.801494584203483,2,10.31221864440984,-0.23926635259527984,3.55328795288532,10.909855958431264,30,2,30,708,140,251601.00000000003,54,80.0,-1,0,-1,0,0,0
1778195279.8296692,14.220282316207886,wait_slave,2,0.0007491367045050296,1.394792293795315,3.837027463732336,-0.09433785959070984,1.465410615446181,3.786557459882629,2,9.508699629521487,-7.061832165086601,5.047000384970701,12.87466718242488,4,-9,-29,712,140,251602.0,54,80.0,0,0,-1,0,0,0
1778195279.90208,14.292693138122559,wait_slave,2,0.0007491367045050296,1.394792293795315,3.837027463732336,0.040255778120342756,1.5460975191841562,3.8179692760161013,2,-3.950664141583773,-15.130522538884117,1.9058187716234798,15.753494997921843,-30,8,-30,715,140,251598.99999999997,54,80.0,0,0,-1,0,0,0
1778195279.973676,14.364289045333862,wait_slave,2,0.0007491367045050296,1.394792293795315,3.837027463732336,-0.10726296387260481,1.4065055040617414,3.8175902251268528,2,10.801210057710984,-1.1713210266426355,1.9437238605483298,11.037037378948982,30,-2,30,719,140,251598.99999999997,54,80.0,0,0,-1,0,0,0
