timestamp,elapsed,phase,mission_state,target_x,target_y,target_z,pos_x,pos_y,pos_z,marker_id,err_x_cm,err_y_cm,err_z_cm,err_3d_cm,cmd_lr,cmd_fb,cmd_ud,publish_count,tello_height_cm,tello_baro_cm,tello_battery,tello_temp_c,tello_pitch,tello_roll,tello_yaw,tello_vgx,tello_vgy,tello_vgz
1778195917.286635,1.5020370483398438e-05,wait_slave,2,0.06524382478846245,1.3669064437356884,3.7458091353211906,0.009229592403767417,1.4864444301792998,3.6894216057342986,2,5.601423238469503,-11.953798644361147,5.638752958689208,14.354956609322192,30,-30,-30,1,150,251387.0,69,79.0,0,0,-4,0,0,0
1778195917.3598652,0.07324528694152832,wait_slave,2,0.06524382478846245,1.3669064437356884,3.7458091353211906,-0.0001738428759756605,1.4299292857430022,3.7214433900965496,2,6.5417667664438115,-6.302284200731378,2.4365745224641078,9.404806961169285,7,9,15,4,150,251394.99999999997,69,79.0,0,0,-4,0,0,0
1778195917.4303958,0.14377593994140625,wait_slave,2,0.06524382478846245,1.3669064437356884,3.7458091353211906,0.06331734284042512,1.3522164356658517,3.760506474908218,2,0.19264819480373369,1.4690008069836669,-1.4697339587027347,2.0869103016765753,-22,14,28,8,150,251394.99999999997,69,79.0,0,0,-4,0,0,0
1778195917.5014138,0.21479392051696777,wait_slave,2,0.06524382478846245,1.3669064437356884,3.7458091353211906,0.06711844428059699,1.4235136656618805,3.742470064675078,2,-0.18746194921345355,-5.660722192619216,0.33390706461124964,5.673659458604465,-1,-6,-28,11,150,251394.99999999997,69,79.0,0,0,-4,0,0,0
1778195917.574473,0.2878530025482178,wait_slave,2,0.06524382478846245,1.3669064437356884,3.7458091353211906,0.06163827665374377,1.4276020467856538,3.738470968791088,2,0.3605548134718681,-6.069560304996546,0.7338166530102441,6.1243815156914145,2,-1,-5,15,150,251406.0,69,79.0,0,0,-4,0,0,0
1778195917.645762,0.3591420650482178,wait_slave,2,0.06524382478846245,1.3669064437356884,3.7458091353211906,0.06729550399946327,1.4950942947226262,3.720050561713281,2,-0.20516792110008147,-12.818785098693786,2.5758573607909785,13.07663513391283,-2,-8,-30,19,150,251394.0,69,79.0,0,0,-4,0,0,0
1778195917.718503,0.4318830966949463,wait_slave,2,0.06524382478846245,1.3669064437356884,3.7458091353211906,0.06556282152458404,1.4942607561891879,3.7199170414476073,2,-0.03189967361215823,-12.735431245349949,2.5892093873583377,12.99600830431394,0,-1,-8,22,150,251394.0,69,79.0,0,0,-4,0,0,0
1778195917.7892811,0.5026612281799316,wait_slave,2,0.06524382478846245,1.3669064437356884,3.7458091353211906,0.06907684211392451,1.494300759530589,3.7216495565643855,2,-0.3833017325462054,-12.739431579490068,2.415957875680519,12.972158249256152,-1,0,-9,26,150,251392.99999999997,69,79.0,0,0,-4,0,0,0
1778195917.860954,0.5743341445922852,wait_slave,2,0.06524382478846245,1.3669064437356884,3.7458091353211906,0.058282126858805405,1.3638399647479864,3.7740550662572168,2,0.6961697929657049,0.30664789877019594,-2.824593093602612,2.925236991918033,4,19,30,29,150,251394.0,69,79.0,0,-1,-4,0,0,0
1778195917.934507,0.6478869915008545,wait_slave,2,0.06524382478846245,1.3669064437356884,3.7458091353211906,0.06831971369807976,1.4959194453139055,3.7202081805420413,2,-0.3075888909617311,-12.901300157821716,2.5600954779149365,13.156452620068004,-3,-19,-30,33,150,251394.0,69,79.0,0,-1,-4,0,0,0
1778195918.007885,0.7212650775909424,wait_slave,2,0.06524382478846245,1.3669064437356884,3.7458091353211906,-0.006200255303271396,1.360820438937313,3.737753809750604,2,7.144408009173385,0.6086004798375289,0.8055325570586636,7.215389320478885,30,5,30,37,150,251392.99999999997,69,79.0,0,-1,-4,0,0,0
1778195918.07868,0.792060136795044,wait_slave,2,0.06524382478846245,1.3669064437356884,3.7458091353211906,0.07055544111904666,1.487589829028403,3.7050864445837344,2,-0.5311616330584203,-12.068338529271472,4.072269073745627,12.747952892386946,-27,-14,-30,40,150,251396.99999999997,69,79.0,0,-1,-4,0,0,0
1778195918.148587,0.8619670867919922,wait_slave,2,0.06524382478846245,1.3669064437356884,3.7458091353211906,-0.01167444125213235,1.2897236252973214,3.753658743641608,2,7.6918266040594805,7.718281843836694,-0.7849608320417367,10.924844833481894,30,17,30,44,150,251396.0,69,79.0,0,0,-4,0,0,0
1778195918.220791,0.934171199798584,wait_slave,2,0.06524382478846245,1.3669064437356884,3.7458091353211906,-0.0045383235597629135,1.3634685732081855,3.737715029343432,2,6.978214834822537,0.3437870527502884,0.8094105977758836,7.0334072350723424,1,-6,-25,47,150,251396.0,69,79.0,0,0,-4,0,0,0
1778195918.293142,1.0065221786499023,wait_slave,2,0.06524382478846245,1.3669064437356884,3.7458091353211906,0.06843546808794987,1.4270267208840712,3.741578832906943,2,-0.3191643299487415,-6.012027714838286,0.42303024142476,6.035337413819975,-25,0,-26,51,150,251396.0,69,79.0,0,0,-4,0,0,0
1778195918.364852,1.0782320499420166,wait_slave,2,0.06524382478846245,1.3669064437356884,3.7458091353211906,0.0767694580318038,1.4919312574568577,3.703841292264077,2,-1.152563324334134,-12.502481372116936,4.196784305711354,13.238332266014336,-3,-15,-30,55,150,251396.99999999997,69,79.0,0,0,-4,0,0,0
1778195918.436814,1.1501941680908203,wait_slave,2,0.06524382478846245,1.3669064437356884,3.7458091353211906,0.008953295682794793,1.4201765071535717,3.7092731073204592,2,5.629052910566766,-5.327006341788332,3.6536028000731413,8.568083021079778,27,0,20,58,150,251396.99999999997,69,79.0,0,0,-4,0,0,0
1778195918.508262,1.221642017364502,wait_slave,2,0.06524382478846245,1.3669064437356884,3.7458091353211906,0.14098102271934465,1.5015463011316093,3.7345388781369797,2,-7.57371979308822,-13.463985739592088,1.127025718421093,15.489039042824379,-30,7,-30,62,150,251392.99999999997,69,79.0,0,0,-4,0,0,0
1778195918.577844,1.2912240028381348,wait_slave,2,0.06524382478846245,1.3669064437356884,3.7458091353211906,0.0787511228833645,1.4925187664468145,3.7041923274926893,2,-1.3507298094902045,-12.56123227111261,4.16168078285013,13.301451579637103,21,-13,-6,65,150,251394.0,69,79.0,0,0,-4,0,0,0
1778195918.649714,1.3630940914154053,wait_slave,2,0.06524382478846245,1.3669064437356884,3.7458091353211906,0.008741511022792081,1.4215469312725562,3.708198708556342,2,5.650231376567037,-5.464048753686779,3.7610426764848714,8.713574777652921,27,-1,19,69,150,251394.0,69,79.0,0,-1,-4,0,0,0
1778195918.720968,1.4343481063842773,wait_slave,2,0.06524382478846245,1.3669064437356884,3.7458091353211906,0.08034547599674013,1.422294930131725,3.7259757414819976,2,-1.510165120827768,-5.538848639603655,1.9833393839193025,6.0739672419605135,-25,4,-5,72,150,251394.0,69,79.0,0,-1,-4,0,0,0
1778195918.793772,1.5071520805358887,wait_slave,2,0.06524382478846245,1.3669064437356884,3.7458091353211906,0.0029112793355312583,1.3541579649803759,3.7236116472336356,2,6.23325454529312,1.2748478755312487,2.219748808755506,6.738396256241938,30,-2,23,76,150,251392.99999999997,69,79.0,0,-1,-4,0,0,0
1778195918.865986,1.5793662071228027,wait_slave,2,0.06524382478846245,1.3669064437356884,3.7458091353211906,0.14429459465697358,1.4317086112891655,3.7560222241649543,2,-7.905076986851113,-6.480216755347712,-1.0213088843763707,10.27261034020265,-30,11,-30,80,150,251392.99999999997,69,79.0,0,0,-4,0,0,0
1778195918.938741,1.6521210670471191,wait_slave,2,0.06524382478846245,1.3669064437356884,3.7458091353211906,0.08544654597357437,1.4127202483861243,3.711178780883545,2,-2.020272118511192,-4.581380465043594,3.463035443764584,6.087952109132145,19,-17,2,83,150,251392.99999999997,69,79.0,0,0,-4,0,0,0
1778195919.0106251,1.7240052223205566,wait_slave,2,0.06524382478846245,1.3669064437356884,3.7458091353211906,0.07803494557779889,1.351563209465213,3.7439090978821006,2,-1.2791120789336432,1.5343234270475348,0.19000374390900632,2.006583542232986,1,11,21,87,150,251390.0,69,79.0,0,0,-4,0,0,0
1778195919.08146,1.7948400974273682,wait_slave,2,0.06524382478846245,1.3669064437356884,3.7458091353211906,0.08308031460391663,1.4214946590637854,3.7264962241336326,2,-1.7836489815454173,-5.458821532809699,1.9312911187558068,6.058879566538676,-2,-7,-29,90,150,251398.0,69,79.0,0,0,-4,0,0,0
1778195919.152606,1.8659861087799072,wait_slave,2,0.06524382478846245,1.3669064437356884,3.7458091353211906,0.08126839059107915,1.42534555589233,3.7242853967831215,2,-1.60245658026167,-5.843911215664166,2.1523738538069104,6.43054263610319,0,-2,-6,94,150,251402.0,69,79.0,0,-1,-4,0,0,0
1778195919.224183,1.937563180923462,wait_slave,2,0.06524382478846245,1.3669064437356884,3.7458091353211906,0.08420748239889231,1.42219002641691,3.726869460841219,2,-1.8963657610429854,-5.528358268122169,1.893967447997147,6.1437822987508035,-2,0,-3,98,150,251402.0,69,79.0,0,-1,-4,0,0,0
1778195919.295712,2.009092092514038,wait_slave,2,0.06524382478846245,1.3669064437356884,3.7458091353211906,0.09007281928103805,1.4821935448337893,3.6926223372274953,2,-2.48289944925756,-11.528710109810092,5.318679809369531,12.93693554848891,-3,-15,-30,101,150,251403.00000000003,69,79.0,0,-1,-4,0,0,0
1778195919.368512,2.0818920135498047,wait_slave,2,0.06524382478846245,1.3669064437356884,3.7458091353211906,0.15845399148084516,1.489131884680921,3.704724674510025,2,-9.32101666923827,-12.222544094523258,4.108446081116579,15.910727987500294,-29,1,-12,105,150,251402.0,69,79.0,0,-1,-4,0,0,0
1778195919.440862,2.1542420387268066,wait_slave,2,0.06524382478846245,1.3669064437356884,3.7458091353211906,0.09499924563795237,1.4199686255833321,3.7112867383329964,2,-2.9755420849489913,-5.3062181847643775,3.452239698819426,6.994838172662152,20,0,18,108,150,251402.0,69,79.0,0,-1,-4,0,0,0
1778195919.512608,2.2259881496429443,wait_slave,2,0.06524382478846245,1.3669064437356884,3.7458091353211906,0.02004964490887251,1.349878003729832,3.7121479563865805,2,4.519417987958994,1.702844000585646,3.366117893461018,5.886897851406656,28,-2,24,112,150,251396.99999999997,69,79.0,0,-1,-4,0,0,0
1778195919.5839841,2.2973642349243164,wait_slave,2,0.06524382478846245,1.3669064437356884,3.7458091353211906,0.02457884069293581,1.4213430396909925,3.6942851885511465,2,4.066498409552664,-5.443659595530415,5.152394677004413,8.527426928125982,0,-9,-30,116,150,251400.0,69,79.0,0,-1,-4,0,0,0
1778195919.655676,2.369055986404419,wait_slave,2,0.06524382478846245,1.3669064437356884,3.7458091353211906,0.09581770864967043,1.4229942747882083,3.7119362352365797,2,-3.0573883861207976,-5.608783105251991,3.387290008461097,7.230477526883469,-26,3,-5,119,150,251400.0,69,79.0,0,-1,-4,0,0,0
1778195919.727309,2.4406890869140625,wait_slave,2,0.06524382478846245,1.3669064437356884,3.7458091353211906,0.1570621022752593,1.495632127462836,3.7029828329017453,2,-9.181827748679684,-12.872568372714754,4.2826302419445295,16.381388802719332,-26,-6,-30,123,150,251405.00000000003,69,79.0,0,-1,-4,0,0,0
1778195919.799781,2.5131611824035645,wait_slave,2,0.06524382478846245,1.3669064437356884,3.7458091353211906,0.09773976532289785,1.4839191328445644,3.6759319141816675,2,-3.24959405344354,-11.701268910887608,6.9877221139523105,14.010989114937555,18,-13,-5,126,150,251404.0,69,79.0,0,0,-4,0,0,0
1778195919.8716521,2.5850322246551514,wait_slave,2,0.06524382478846245,1.3669064437356884,3.7458091353211906,0.15953864549068286,1.4942573198917768,3.7055015330929875,2,-9.429482070222042,-12.735087615608842,4.030760222820318,16.350676336584467,-27,7,-14,130,150,251404.0,69,79.0,0,0,-4,0,0,0
1778195919.9429839,2.6563639640808105,wait_slave,2,0.06524382478846245,1.3669064437356884,3.7458091353211906,0.09824611143180939,1.4859487882294071,3.676337175159437,2,-3.3002286643346936,-11.904234449371875,6.947196016175372,14.1727146146979,19,-14,-7,133,150,251404.0,69,79.0,0,0,-4,0,0,0
1778195920.014123,2.7275030612945557,wait_slave,2,0.06524382478846245,1.3669064437356884,3.7458091353211906,0.09089963809223067,1.4230755981747114,3.7139620309647174,2,-2.565581330376822,-5.616915443902304,3.18471043564732,6.947972886075999,0,10,16,137,150,251405.00000000003,69,79.0,0,-1,-4,0,0,0
1778195920.086045,2.7994251251220703,wait_slave,2,0.06524382478846245,1.3669064437356884,3.7458091353211906,0.15875267996750764,1.554237782713391,3.667124420297872,2,-9.35088551790452,-18.733133897770273,7.868471502331875,22.366989278482585,-29,-21,-30,141,150,251394.0,69,79.0,0,-1,-4,0,0,0
1778195920.155034,2.8684141635894775,wait_slave,2,0.06524382478846245,1.3669064437356884,3.7458091353211906,0.1599859534326955,1.4285981685456668,3.726686966817327,2,-9.474212864423306,-6.169172480997842,1.9122168503863612,11.466297213294563,-6,19,30,144,150,251394.0,69,79.0,0,-1,-4,0,0,0
1778195920.2236722,2.9370522499084473,wait_slave,2,0.06524382478846245,1.3669064437356884,3.7458091353211906,0.028580959065528155,1.484859157280415,3.66046020511894,2,3.66628657229343,-11.79527135447267,8.534893020225054,15.01380972380125,30,-29,-30,148,150,251404.0,69,79.0,0,-1,-4,0,0,0
1778195920.2947671,3.0081472396850586,wait_slave,2,0.06524382478846245,1.3669064437356884,3.7458091353211906,0.15828180808832315,1.4980405832889296,3.7056004723890856,2,-9.30379832998607,-13.113413955324127,4.020866293210501,16.573764046728115,-30,12,-15,151,150,251405.00000000003,69,79.0,0,0,-4,0,0,0
1778195920.367011,3.0803911685943604,wait_slave,2,0.06524382478846245,1.3669064437356884,3.7458091353211906,0.08475642445102294,1.427050176339319,3.7110536266124057,2,-1.9512599662560484,-6.014373260363071,3.4755508708784966,7.2152307674078004,23,0,18,155,150,251405.00000000003,69,79.0,0,0,-4,0,0,0
1778195920.439126,3.152506113052368,wait_slave,2,0.06524382478846245,1.3669064437356884,3.7458091353211906,0.088529097320868,1.4262798044498899,3.713693748502961,2,-2.3285272532405545,-5.937336071420152,3.2115386818229563,7.140586775532948,-2,-1,-6,158,150,251398.0,69,79.0,0,-1,-4,0,0,0
1778195920.508414,3.2217941284179688,wait_slave,2,0.06524382478846245,1.3669064437356884,3.7458091353211906,0.02795270144943074,1.4195122755656207,3.682166407170409,2,3.7291123339031715,-5.260583182993228,6.364272815078165,9.060021119666493,23,-15,-3,162,150,251405.00000000003,69,79.0,0,-1,-4,0,0,0
1778195920.581849,3.295229196548462,wait_slave,2,0.06524382478846245,1.3669064437356884,3.7458091353211906,0.08227409001378905,1.4302837785488727,3.710786152743133,2,-1.7030265225326593,-6.3377334813184305,3.5022982578057693,7.43863281143139,-20,7,-10,165,150,251402.0,69,79.5,0,0,-4,0,0,0
1778195920.653159,3.3665390014648438,wait_slave,2,0.06524382478846245,1.3669064437356884,3.7458091353211906,0.08600657632729725,1.4295470374020591,3.713432855982643,2,-2.076275153883479,-6.264059366637076,3.2376279338547587,7.3506185386989165,-2,-1,-6,169,150,251402.0,69,79.5,0,0,-4,0,0,0
1778195920.72447,3.437849998474121,wait_slave,2,0.06524382478846245,1.3669064437356884,3.7458091353211906,0.08707900443295657,1.4963112320555028,3.6936107135581726,2,-2.183517964449412,-12.940478831981439,5.219842176301803,14.12340240337052,-1,-10,-30,173,150,251407.00000000003,69,79.5,0,0,-4,0,0,0
1778195920.796736,3.5101161003112793,wait_slave,2,0.06524382478846245,1.3669064437356884,3.7458091353211906,0.14955906129257535,1.570508180848889,3.6808867582837927,2,-8.43152365041129,-20.360173711320062,6.492237703739789,22.973384927442318,-26,-9,-30,176,150,251407.00000000003,69,79.5,0,0,-4,0,0,0
1778195920.869705,3.583085060119629,wait_slave,2,0.06524382478846245,1.3669064437356884,3.7458091353211906,0.01419477281876258,1.3679334024717678,3.7108535070969175,2,5.1049051969699875,-0.10269587360793864,3.4955628224273116,6.187856087373338,30,7,30,180,150,251407.00000000003,69,79.5,0,0,-4,0,0,0
1778195920.942569,3.655949115753174,wait_slave,2,0.06524382478846245,1.3669064437356884,3.7458091353211906,0.08522319031329706,1.4310392868668402,3.7134215044467984,2,-1.9979365524834605,-6.413284313115186,3.2387630874392226,7.457315367151753,-26,-1,-29,183,150,251409.0,69,79.5,0,0,-4,0,0,0
1778195921.015156,3.7285361289978027,wait_slave,2,0.06524382478846245,1.3669064437356884,3.7458091353211906,0.08629272118129594,1.497734855734889,3.6935904282252285,2,-2.1048896392833485,-13.08284119992007,5.22187070959621,14.24286586202465,-1,-10,-30,187,150,251407.00000000003,69,79.5,0,0,-4,0,0,0
1778195921.086987,3.8003671169281006,wait_slave,2,0.06524382478846245,1.3669064437356884,3.7458091353211906,0.07973360511523742,1.502101283901308,3.688628688234867,2,-1.4489780326774961,-13.519484016561956,5.718044708632375,14.75032273217013,1,-6,-13,191,150,251407.00000000003,69,79.5,0,0,-4,0,0,0
1778195921.158682,3.8720622062683105,wait_slave,2,0.06524382478846245,1.3669064437356884,3.7458091353211906,0.07973360511523742,1.502101283901308,3.688628688234867,2,-1.4489780326774961,-13.519484016561956,5.718044708632375,14.75032273217013,-1,-4,-12,194,150,251413.0,69,79.5,0,0,-4,0,0,0
1778195921.231041,3.9444210529327393,wait_slave,2,0.06524382478846245,1.3669064437356884,3.7458091353211906,0.07996561817549108,1.503237299535436,3.6888167248797528,2,-1.4721793387028628,-13.633085579974757,5.699241044143788,14.849568442061623,-1,-4,-13,198,150,251403.00000000003,69,79.5,0,0,-4,0,0,0
1778195921.303339,4.016719102859497,wait_slave,2,0.06524382478846245,1.3669064437356884,3.7458091353211906,0.02000390410201147,1.4346898323744357,3.694854610025446,2,4.523992068645098,-6.778338863874733,5.095452529574462,9.611244376865317,23,-2,16,202,150,251407.00000000003,69,79.5,0,0,-4,0,0,0
1778195921.3760362,4.089416265487671,wait_slave,2,0.06524382478846245,1.3669064437356884,3.7458091353211906,0.019709508647995477,1.433568554953855,3.694594408246153,2,4.553431614046698,-6.6662111218166675,5.1214727075037825,9.560418028420004,2,-4,-7,205,150,251406.0,69,79.5,0,0,-4,0,0,0
1778195921.447671,4.161051034927368,wait_slave,2,0.06524382478846245,1.3669064437356884,3.7458091353211906,0.08071621908286053,1.4383311263250511,3.728044797796223,2,-1.5472394294398075,-7.142468258936274,1.7764337524967644,7.520938741868273,-22,9,-9,209,150,251414.0,69,79.5,0,0,-4,0,0,0
1778195921.5193758,4.232755899429321,wait_slave,2,0.06524382478846245,1.3669064437356884,3.7458091353211906,0.079507731263324,1.5009752422369047,3.6884457894244833,2,-1.4263906474861545,-13.406879850121634,5.736334589670733,14.652117666722662,0,-18,-30,212,150,251414.0,69,79.5,0,0,-4,0,0,0
1778195921.59118,4.30456018447876,wait_slave,2,0.06524382478846245,1.3669064437356884,3.7458091353211906,0.08583016823379841,1.495485929099158,3.693211363744609,2,-2.0586343445335955,-12.857948536346964,5.259777157658174,14.043862420148631,-3,-2,-10,216,150,251414.0,69,79.5,0,0,-4,0,0,0
1778195921.663287,4.376667022705078,wait_slave,2,0.06524382478846245,1.3669064437356884,3.7458091353211906,0.08044357195487506,1.4371730698768515,3.7278272374155783,2,-1.5199747166412605,-7.026662614116308,1.7981897905612332,7.410654300041742,0,9,11,220,150,251405.00000000003,69,79.5,0,0,-4,0,0,0
1778195921.7350762,4.448456287384033,wait_slave,2,0.06524382478846245,1.3669064437356884,3.7458091353211906,0.07832521737647269,1.4399152859235542,3.7253794283361956,2,-1.3081392588010234,-7.300884218786585,2.042970698499502,7.6933651916096535,0,-3,-9,223,150,251412.0,69,79.5,0,-1,-4,0,0,0
1778195921.8069959,4.520375967025757,wait_slave,2,0.06524382478846245,1.3669064437356884,3.7458091353211906,0.08560807709412444,1.4943772482298323,3.6930292449696442,2,-2.036425230566198,-12.747080449414394,5.27798903515464,13.94604804088749,-4,-15,-30,227,150,251417.99999999997,69,79.5,0,-1,-4,0,0,0
1778195921.879116,4.592496156692505,wait_slave,2,0.06524382478846245,1.3669064437356884,3.7458091353211906,0.08539225445858833,1.4932776068531073,3.6928526412655462,2,-2.014842967012588,-12.637116311741892,5.29564940556444,13.849195048264287,-1,-4,-12,230,150,251417.99999999997,69,79.5,0,-1,-4,0,0,0
1778195921.951186,4.6645660400390625,wait_slave,2,0.06524382478846245,1.3669064437356884,3.7458091353211906,0.08455754626648126,1.494821189854589,3.6913793797062495,2,-1.931372147801881,-12.791474611890052,5.442975561494112,14.034885253644036,-1,-5,-13,234,150,251400.0,69,79.5,0,0,-4,0,0,0
1778195922.024429,4.737809181213379,wait_slave,2,0.06524382478846245,1.3669064437356884,3.7458091353211906,0.08435583024532645,1.493736043593708,3.6912135440285456,2,-1.9112005456863992,-12.682959985801956,5.459559129264502,13.939761382936972,-1,-4,-12,238,150,251407.00000000003,69,79.5,0,0,-4,0,0,0
1778195922.096158,4.809538125991821,wait_slave,2,0.06524382478846245,1.3669064437356884,3.7458091353211906,0.08371234405701544,1.4242145884281294,3.712187177791033,2,-1.8468519268552988,-5.730814469244105,3.362195753015751,6.89619147082097,-1,4,16,241,150,251413.0,69,79.5,0,0,-4,0,0,0
1778195922.165792,4.879172086715698,wait_slave,2,0.06524382478846245,1.3669064437356884,3.7458091353211906,0.07733488648396747,1.4354074753169042,3.7245869529485613,2,-1.2091061695505014,-6.850103158121579,2.1222182372629295,7.272527844754098,1,1,-12,245,150,251406.0,69,79.5,0,0,-4,0,0,0
1778195922.2355368,4.948916912078857,wait_slave,2,0.06524382478846245,1.3669064437356884,3.7458091353211906,0.07710530649005531,1.4343065256663894,3.7244032318992213,2,-1.186148170159286,-6.740008193070102,2.1405903421969352,7.170549835077581,-1,-2,-8,248,150,251406.0,69,79.5,0,0,-4,0,0,0
1778195922.3062358,5.019615888595581,wait_slave,2,0.06524382478846245,1.3669064437356884,3.7458091353211906,0.08459401920733256,1.4889800833014055,3.6921994979101043,2,-1.9350194418870106,-12.207363956571715,5.3609637411086375,13.472340822669551,-4,-15,-30,252,150,251404.0,69,79.5,0,0,-4,0,0,0
1778195922.376568,5.0899481773376465,wait_slave,2,0.06524382478846245,1.3669064437356884,3.7458091353211906,0.07872261244639733,1.4293493044789747,3.7264598667452957,2,-1.3478787657934879,-6.244286074328631,1.9349268575894918,6.6747155512091,0,9,13,255,150,251404.0,69,79.5,0,0,-4,0,0,0
1778195922.446613,5.1599931716918945,wait_slave,2,0.06524382478846245,1.3669064437356884,3.7458091353211906,0.004819369882351765,1.3590278685468342,3.726899454816055,2,6.042445490611069,0.7878575188854153,1.890968050513564,6.380252906047956,29,-2,21,259,150,251404.0,69,79.5,0,0,-4,0,0,0
1778195922.515892,5.229272127151489,wait_slave,2,0.06524382478846245,1.3669064437356884,3.7458091353211906,0.07270348161481432,1.4249275575784233,3.7275527971845577,2,-0.745965682635187,-5.8021113842734895,1.8256338136632966,6.1281237044283134,-25,-2,-30,262,150,251408.0,69,79.5,0,0,-4,0,0,0
1778195922.586611,5.299991130828857,wait_slave,2,0.06524382478846245,1.3669064437356884,3.7458091353211906,0.011341158942184792,1.4193212008365932,3.6936157377477263,2,5.390266584627766,-5.241475710090482,5.219339757346431,9.15257062116651,24,-16,-5,266,150,251398.99999999997,69,78.5,0,0,-4,0,0,0
1778195922.658411,5.371791124343872,wait_slave,2,0.06524382478846245,1.3669064437356884,3.7458091353211906,0.0723156908997179,1.42277908973004,3.7272341070578747,2,-0.7071866111255445,-5.587264599435171,1.8575028263315918,5.930257613028843,-22,9,-9,269,150,251398.99999999997,69,78.5,0,0,-4,0,0,0
1778195922.7300181,5.4433982372283936,wait_slave,2,0.06524382478846245,1.3669064437356884,3.7458091353211906,0.08294906471559027,1.485056759261488,3.6914939438596472,2,-1.7705239927127816,-11.815031552579969,5.43151914615434,13.123685687804054,-5,-16,-30,273,150,251401.00000000003,69,78.5,0,0,-4,0,0,0
1778195922.803937,5.517317056655884,wait_slave,2,0.06524382478846245,1.3669064437356884,3.7458091353211906,0.08217872837741191,1.4866272458832408,3.690067046626988,2,-1.693490358894946,-11.972080214755243,5.574208869420261,13.314293777145206,-1,-5,-13,277,150,251396.99999999997,69,78.5,0,0,-4,0,0,0
1778195922.875693,5.589073181152344,wait_slave,2,0.06524382478846245,1.3669064437356884,3.7458091353211906,0.00382713896362441,1.3548370352825652,3.7259998705247566,2,6.141668582483804,1.206940845312321,1.9809264796434078,6.565125200550578,30,9,30,280,150,251404.0,69,78.5,0,0,-4,0,0,0
1778195922.946075,5.659455060958862,wait_slave,2,0.06524382478846245,1.3669064437356884,3.7458091353211906,0.07195470499853929,1.4206721093440344,3.7269378459215177,2,-0.6710880210076833,-5.376566560834606,1.8871289399672975,5.737515381337724,-24,-2,-30,284,150,251404.0,69,78.5,0,0,-4,0,0,0
1778195923.018284,5.731664180755615,wait_slave,2,0.06524382478846245,1.3669064437356884,3.7458091353211906,0.07770272219226548,1.4240620083633146,3.7256565684644856,2,-1.2458897403803029,-5.715556462762628,2.015256685670508,6.187171117186935,-3,-3,-9,287,150,251400.0,69,78.5,0,0,-4,0,0,0
1778195923.089791,5.803171157836914,wait_slave,2,0.06524382478846245,1.3669064437356884,3.7458091353211906,0.08344616436566621,1.481842592878559,3.691264388682362,2,-1.8202339577203754,-11.493614914287065,5.454474663882847,12.851759775131978,-3,-16,-30,291,150,251400.0,69,78.5,0,0,-4,0,0,0
1778195923.1608698,5.8742499351501465,wait_slave,2,0.06524382478846245,1.3669064437356884,3.7458091353211906,0.0725785269843835,1.4183845299070992,3.7268039106548145,2,-0.7334702195921041,-5.147808617141081,1.9005224666376108,5.5362349812787714,3,9,14,294,150,251400.0,69,78.5,0,0,-4,0,0,0
1778195923.232764,5.946144104003906,wait_slave,2,0.06524382478846245,1.3669064437356884,3.7458091353211906,0.004080676469500721,1.3515135901657698,3.7255686584196255,2,6.116314831896173,1.5392853569918596,2.0240476901565163,6.623856549258189,27,-3,19,298,150,251404.0,69,78.5,0,0,-4,0,0,0
1778195923.3044438,6.017823934555054,wait_slave,2,0.06524382478846245,1.3669064437356884,3.7458091353211906,0.14476658092561312,1.4917884706567133,3.7195466337226613,2,-7.9522756137150665,-12.48820269210249,2.6262501598529386,15.03632547591501,-30,-5,-30,302,150,251412.0,69,78.5,0,0,-4,0,0,0
1778195923.376856,6.090236186981201,wait_slave,2,0.06524382478846245,1.3669064437356884,3.7458091353211906,0.07317592555335783,1.4860977090970042,3.7053168284700826,2,-0.793210076489538,-11.919126536131586,4.049230685110805,12.613129221212457,24,-9,-11,305,150,251412.0,69,78.5,0,0,-4,0,0,0
1778195923.449943,6.163323163986206,wait_slave,2,0.06524382478846245,1.3669064437356884,3.7458091353211906,0.0658110776087606,1.3521742709432196,3.759529943493244,2,-0.05672528202981392,1.4732172792468745,-1.3720808172053456,2.013999175381116,2,17,30,309,150,251403.00000000003,69,78.5,0,0,-4,0,0,0
1778195923.521594,6.234974145889282,wait_slave,2,0.06524382478846245,1.3669064437356884,3.7458091353211906,-0.05242291064992677,1.409098054442845,3.6752721562000477,2,11.766673543838921,-4.219161070715671,7.053697912114298,14.353068684545722,30,-30,-27,312,140,251409.0,69,78.5,0,0,-4,0,0,0
1778195923.5937548,6.3071348667144775,wait_slave,2,0.06524382478846245,1.3669064437356884,3.7458091353211906,0.07176185286303294,1.4169361287736835,3.7241572919615424,2,-0.6518028074570483,-5.00296850379951,2.1651843359648204,5.490224399651276,-30,13,-11,316,140,251407.00000000003,69,78.5,0,0,-4,0,0,0
1778195923.665619,6.3789989948272705,wait_slave,2,0.06524382478846245,1.3669064437356884,3.7458091353211906,0.1425704295191641,1.4268934986435693,3.7553546917209073,2,-7.7326604730701645,-5.998705490788092,-0.9545556399716659,9.833091173521916,-29,9,-12,320,140,251407.00000000003,69,78.5,0,0,-4,0,0,0
1778195923.7370749,6.450454950332642,wait_slave,2,0.06524382478846245,1.3669064437356884,3.7458091353211906,0.0630511124206814,1.3543945999786686,3.7559909511382745,2,0.2192712367781055,1.2511843757019747,-1.0181815817083884,1.6279545296503635,27,0,21,323,140,251406.0,69,78.5,0,0,-4,0,0,0
1778195923.8088992,6.522279262542725,wait_slave,2,0.06524382478846245,1.3669064437356884,3.7458091353211906,0.07423768315091406,1.4109745098711555,3.7263179238171613,2,-0.8993858362451603,-4.40680661354671,1.9491211504029327,4.901827482744112,-4,-13,-27,327,140,251403.00000000003,69,78.5,0,0,-4,0,0,0
1778195923.881108,6.594488143920898,wait_slave,2,0.06524382478846245,1.3669064437356884,3.7458091353211906,0.0749582795510566,1.4098687116356032,3.7263221181784245,2,-0.9714454762594151,-4.296226789991486,1.9487017142766128,4.816503847772785,-1,-2,-7,330,140,251403.00000000003,69,78.5,0,0,-4,0,0,0
1778195923.952599,6.6659791469573975,wait_slave,2,0.06524382478846245,1.3669064437356884,3.7458091353211906,0.14399755836545303,1.4236656453389216,3.75529163144555,2,-7.875373357699058,-5.675920160323322,-0.9482496124359141,9.753807078110869,-29,8,-13,334,140,251407.00000000003,69,78.5,0,-1,-4,0,0,0
1778195924.025177,6.7385571002960205,wait_slave,2,0.06524382478846245,1.3669064437356884,3.7458091353211906,0.002651534335287309,1.345230536090836,3.722219220115371,2,6.259229045317515,2.1675907644852277,2.3589915205819434,7.031446434284028,30,-14,23,338,140,251401.00000000003,69,78.5,0,-1,-4,0,0,0
1778195924.096527,6.8099071979522705,wait_slave,2,0.06524382478846245,1.3669064437356884,3.7458091353211906,0.07575450272393047,1.4790946047147808,3.7050753660428173,2,-1.0510677935468018,-11.218816097909245,4.0733769278373355,11.981609981199377,-26,-10,-30,341,140,251401.00000000003,69,78.5,0,-1,-4,0,0,0
1778195924.1687381,6.882118225097656,wait_slave,2,0.06524382478846245,1.3669064437356884,3.7458091353211906,0.07340626976774955,1.4171492064346483,3.7413743263775383,2,-0.81624449792871,-5.024276269895989,0.4434808943652335,5.109430733487423,0,10,12,345,140,251406.0,69,78.5,0,-1,-4,0,0,0
1778195924.241142,6.954522132873535,wait_slave,2,0.06524382478846245,1.3669064437356884,3.7458091353211906,0.14450604083188223,1.4207575657294487,3.755139808075536,2,-7.926221604341978,-5.38511219937603,-0.9330672754345404,9.627826175284476,-29,3,-10,348,140,251402.0,69,78.5,0,0,-4,0,0,0
1778195924.312039,7.025418996810913,wait_slave,2,0.06524382478846245,1.3669064437356884,3.7458091353211906,0.06769716113123214,1.3427318619111404,3.7587894076829445,2,-0.2453336342769688,2.4174581824548014,-1.2980272361753808,2.7548443444010253,26,0,24,352,140,251394.99999999997,69,78.5,0,0,-4,0,0,0
1778195924.382876,7.0962560176849365,wait_slave,2,0.06524382478846245,1.3669064437356884,3.7458091353211906,0.13819389087190537,1.3545222590241863,3.7896002240047477,2,-7.295006608344291,1.2384184711502044,-4.379108868355708,8.598104221651685,-29,11,-8,355,140,251394.99999999997,69,78.5,0,0,-4,0,0,0
1778195924.454558,7.167937994003296,wait_slave,2,0.06524382478846245,1.3669064437356884,3.7458091353211906,0.06753698454565482,1.341855581755199,3.7586644495757624,2,-0.22931597571923673,2.5050861980489447,-1.285531425457176,2.825001543754152,23,-11,1,359,140,251394.99999999997,69,78.5,0,0,-4,0,0,0
1778195924.5271318,7.240511894226074,wait_slave,2,0.06524382478846245,1.3669064437356884,3.7458091353211906,0.06738523830911725,1.340990090304432,3.7585462670734877,2,-0.21414135206547918,2.591635343125631,-1.273713175229707,2.895647686296812,0,0,-2,363,140,251403.00000000003,69,78.5,0,0,-4,0,0,0
1778195924.5997171,7.313097238540649,wait_slave,2,0.06524382478846245,1.3669064437356884,3.7458091353211906,0.06416733668786279,1.3455381001120656,3.7552223750622544,2,0.10764881005996679,2.136834362362272,-0.9413239741063784,2.3374644773144535,0,-2,-5,366,140,251403.00000000003,69,78.5,0,0,-4,0,0,0
1778195924.6715982,7.384978294372559,wait_slave,2,0.06524382478846245,1.3669064437356884,3.7458091353211906,0.06988689872776543,1.341802554044272,3.7588656478381055,2,-0.464307393930298,2.5103889691416414,-1.3056512516914864,2.867465662129178,-2,0,-1,370,140,251398.0,69,78.5,0,0,-4,0,0,0
1778195924.743179,7.456559181213379,wait_slave,2,0.06524382478846245,1.3669064437356884,3.7458091353211906,0.0706684335899398,1.3396529022156178,3.7603107243800142,2,-0.542460880147734,2.7253541520070534,-1.4501589058823594,3.134450496125702,-1,0,-2,374,140,251408.0,69,78.5,0,0,-4,0,0,0
1778195924.819613,7.5329930782318115,wait_slave,2,0.06524382478846245,1.3669064437356884,3.7458091353211906,0.06988689872776543,1.341802554044272,3.7588656478381055,2,-0.464307393930298,2.5103889691416414,-1.3056512516914864,2.867465662129178,0,-1,-3,377,140,251400.0,69,78.5,0,0,-4,0,0,0
1778195924.892252,7.605632066726685,wait_slave,2,0.06524382478846245,1.3669064437356884,3.7458091353211906,0.0706684335899398,1.3396529022156178,3.7603107243800142,2,-0.542460880147734,2.7253541520070534,-1.4501589058823594,3.134450496125702,-1,0,-2,381,140,251400.0,69,78.5,0,0,-4,0,0,0
1778195924.964166,7.67754602432251,wait_slave,2,0.06524382478846245,1.3669064437356884,3.7458091353211906,0.06738523830911725,1.340990090304432,3.7585462670734877,2,-0.21414135206547918,2.591635343125631,-1.273713175229707,2.895647686296812,0,-1,-3,385,140,251406.0,69,78.5,0,0,-4,0,0,0
1778195925.035579,7.748959064483643,wait_slave,2,0.06524382478846245,1.3669064437356884,3.7458091353211906,0.06915791032964924,1.4157653135050032,3.7384544855182407,2,-0.39140855411867875,-4.885886976931486,0.7354649802949975,4.95641008642609,-1,-9,-30,388,140,251407.00000000003,69,78.5,0,0,-4,0,0,0
1778195925.108628,7.82200813293457,wait_slave,2,0.06524382478846245,1.3669064437356884,3.7458091353211906,0.1376062949617205,1.4226806448489677,3.7719354868925303,2,-7.236247017325804,-5.577420111327935,-2.612635157133969,9.50246012663533,-28,11,-11,392,140,251407.00000000003,69,78.5,0,0,-4,0,0,0
1778195925.180405,7.893784999847412,wait_slave,2,0.06524382478846245,1.3669064437356884,3.7458091353211906,0.06971817594760799,1.3389873154785648,3.760091737779977,2,-0.44743511591455315,2.7919128257123615,-1.4282602458786542,3.167791460826929,22,-4,25,395,140,251401.00000000003,69,78.5,0,0,-4,0,0,0
1778195925.252565,7.96594500541687,wait_slave,2,0.06524382478846245,1.3669064437356884,3.7458091353211906,0.06971817594760799,1.3389873154785648,3.760091737779977,2,-0.44743511591455315,2.7919128257123615,-1.4282602458786542,3.167791460826929,0,0,-3,399,140,251402.0,69,78.5,0,0,-4,0,0,0
1778195925.324655,8.038035154342651,wait_slave,2,0.06524382478846245,1.3669064437356884,3.7458091353211906,0.13852412483035548,1.4131964547149298,3.756090613097015,2,-7.328030004189302,-4.629001097924146,-1.0281477775824222,8.728388325425792,-28,-2,-30,403,140,251403.00000000003,69,78.5,0,-1,-4,0,0,0
1778195925.396338,8.109718084335327,wait_slave,2,0.06524382478846245,1.3669064437356884,3.7458091353211906,0.06629949658286205,1.3394656392781392,3.7582330913926962,2,-0.10556717943995958,2.744080445754915,-1.2423956071505593,3.014078427449493,24,0,22,406,140,251403.00000000003,69,78.5,0,-1,-4,0,0,0
1778195925.469226,8.182605981826782,wait_slave,2,0.06524382478846245,1.3669064437356884,3.7458091353211906,0.058017549495269605,1.344429887898016,3.774510273216537,2,0.722627529319285,2.2476555837672274,-2.8701137895346562,3.7164094680547612,2,5,-5,410,140,251392.0,69,78.5,0,0,-4,0,0,0
1778195925.541164,8.254544019699097,wait_slave,2,0.06524382478846245,1.3669064437356884,3.7458091353211906,0.0673036545393394,1.413584688343331,3.738087904006761,2,-0.2059829750876943,-4.667824460764258,0.7721231314429478,4.735735245201571,-3,-14,-30,413,140,251403.00000000003,69,78.5,0,0,-4,0,0,0
1778195925.6118789,8.32525897026062,wait_slave,2,0.06524382478846245,1.3669064437356884,3.7458091353211906,0.06701724535505105,1.3389053623251548,3.7582401799555276,2,-0.17734205665885933,2.800108141053359,-1.2431044634336974,3.0687724766854374,0,6,23,417,140,251403.00000000003,69,78.5,0,0,-4,0,0,0
1778195925.683359,8.39673900604248,wait_slave,2,0.06524382478846245,1.3669064437356884,3.7458091353211906,0.13674935496972374,1.410849205659753,3.7559243614782223,2,-7.1505530181261285,-4.3942761924064655,-1.0115226157031643,8.45359389385733,-29,-1,-30,421,140,251407.00000000003,69,78.5,0,0,-4,0,0,0
1778195925.755059,8.468439102172852,wait_slave,2,0.06524382478846245,1.3669064437356884,3.7458091353211906,0.053161239352116696,1.27226345831039,3.7879298445183687,2,1.2082585436345759,9.464298542529836,-4.212070919717803,10.429495531574414,29,12,30,424,140,251402.0,69,78.5,0,0,-4,0,0,0
1778195925.826793,8.540173053741455,wait_slave,2,0.06524382478846245,1.3669064437356884,3.7458091353211906,0.07226005708323557,1.3999316632113983,3.7253262179940814,2,-0.7016232294773119,-3.302521947570991,2.0482917327109273,3.94897776552644,-7,-24,-30,428,140,251402.0,69,78.5,0,0,-4,0,0,0
1778195925.898567,8.611947059631348,wait_slave,2,0.06524382478846245,1.3669064437356884,3.7458091353211906,0.055623088954758426,1.263056886240736,3.772154913434277,2,0.9620735833704028,10.384955749495228,-2.634577811308647,10.757039171753211,5,16,30,431,140,251398.99999999997,69,78.5,0,-1,-4,0,0,0
1778195925.9704142,8.683794260025024,wait_slave,2,0.06524382478846245,1.3669064437356884,3.7458091353211906,-0.030744521878109055,1.196379050451163,3.7801340281298703,2,9.598834666657151,17.052739328452525,-3.4324892808679675,19.86744896118382,30,3,30,435,140,251398.99999999997,69,78.5,0,-1,-4,0,0,0
1778195926.042612,8.75599217414856,wait_slave,2,0.06524382478846245,1.3669064437356884,3.7458091353211906,0.059120012089012186,1.2594310241735056,3.7747561220584647,2,0.6123812699450268,10.747541956218276,-2.8946986737274027,11.14737410030411,-30,-1,-19,438,140,251407.00000000003,69,78.5,0,0,-4,0,0,0
1778195926.115272,8.828652143478394,wait_slave,2,0.06524382478846245,1.3669064437356884,3.7458091353211906,0.06690106433999177,1.3276206855001618,3.742183486037683,2,-0.1657239551529313,3.92857582355266,0.3625649283507837,3.948749898130293,-3,-13,-26,442,140,251398.0,69,78.5,0,0,-4,0,0,0
1778195926.1839318,8.897311925888062,wait_slave,2,0.06524382478846245,1.3669064437356884,3.7458091353211906,0.058207197596995996,1.2586968940757335,3.77464638902767,2,0.7036627191466458,10.820954965995488,-2.883725370647916,11.220698713170126,2,11,27,446,140,251398.0,69,78.5,0,0,-4,0,0,0
1778195926.255035,8.968415021896362,wait_slave,2,0.06524382478846245,1.3669064437356884,3.7458091353211906,0.06609162923144529,1.3277001533161283,3.7421574603438006,2,-0.08478044429828385,3.920629041956003,0.36516749773900514,3.93851077309295,-3,-13,-25,449,140,251396.0,69,78.5,0,0,-4,0,0,0
1778195926.327444,9.040824174880981,wait_slave,2,0.06524382478846245,1.3669064437356884,3.7458091353211906,-0.010020659675359589,1.2606388374233262,3.7357239882939073,2,7.526448446382204,10.62676063123622,1.0085147027283359,13.061109050737626,30,-4,26,453,140,251401.00000000003,69,78.5,0,-1,-4,0,0,0
1778195926.39769,9.111070156097412,wait_slave,2,0.06524382478846245,1.3669064437356884,3.7458091353211906,-0.008383749188908274,1.2616063969758966,3.736136389360276,2,7.362757397737073,10.530004675979177,0.9672745960914497,12.885139313112573,3,-1,2,456,140,251401.00000000003,69,78.5,0,0,-4,0,0,0
1778195926.4687948,9.182174921035767,wait_slave,2,0.06524382478846245,1.3669064437356884,3.7458091353211906,0.06527105854983606,1.3277721525208326,3.7421375908631425,2,-0.002723376137360456,3.9134291214855788,0.36715444580481815,3.930615383466464,-26,0,-24,460,140,251401.00000000003,69,78.5,0,0,-4,0,0,0
1778195926.539003,9.25238299369812,wait_slave,2,0.06524382478846245,1.3669064437356884,3.7458091353211906,0.06527105854983606,1.3277721525208326,3.7421375908631425,2,-0.002723376137360456,3.9134291214855788,0.36715444580481815,3.930615383466464,0,-1,-1,463,140,251402.0,69,78.5,0,0,-4,0,0,0
1778195926.607873,9.321253061294556,wait_slave,2,0.06524382478846245,1.3669064437356884,3.7458091353211906,-0.008708471895536363,1.2594138658405036,3.737353066956816,2,7.395229668399882,10.749257789518474,0.8456068364374847,13.074823738610597,30,-3,28,467,140,251403.00000000003,69,78.5,0,0,-4,0,0,0
1778195926.6796858,9.393065929412842,wait_slave,2,0.06524382478846245,1.3669064437356884,3.7458091353211906,0.06445721389535786,1.328684180448135,3.7421340317192824,2,0.07866108931045973,3.8222263287553293,0.36751036019082584,3.8406595188911945,-25,0,-25,470,140,251403.00000000003,69,78.5,0,0,-4,0,0,0
1778195926.7531362,9.466516256332397,wait_slave,2,0.06524382478846245,1.3669064437356884,3.7458091353211906,0.06445721389535786,1.328684180448135,3.7421340317192824,2,0.07866108931045973,3.8222263287553293,0.36751036019082584,3.8406595188911945,0,-1,-1,474,140,251394.0,69,78.5,0,0,-4,0,0,0
1778195926.825672,9.53905200958252,wait_slave,2,0.06524382478846245,1.3669064437356884,3.7458091353211906,0.059154741687104107,1.250538578535311,3.7589670991465263,2,0.6089083101358348,11.636786520037745,-1.3157963825335628,11.726759567901656,1,5,30,478,140,251398.99999999997,69,78.5,0,0,-4,0,0,0
1778195926.89874,9.612120151519775,wait_slave,2,0.06524382478846245,1.3669064437356884,3.7458091353211906,0.059154741687104107,1.250538578535311,3.7589670991465263,2,0.6089083101358348,11.636786520037745,-1.3157963825335628,11.726759567901656,0,0,4,481,140,251398.99999999997,69,78.5,0,0,-4,0,0,0
1778195926.971769,9.685149192810059,wait_slave,2,0.06524382478846245,1.3669064437356884,3.7458091353211906,-0.04182159653438111,1.118272523255114,3.7696874373266374,2,10.706542132284357,24.86339204805743,-2.3878302005446717,27.175725227349844,30,3,30,485,140,251407.00000000003,69,78.5,0,0,-4,0,0,0
1778195927.046583,9.759963035583496,wait_slave,2,0.06524382478846245,1.3669064437356884,3.7458091353211906,0.06445721389535786,1.328684180448135,3.7421340317192824,2,0.07866108931045973,3.8222263287553293,0.36751036019082584,3.8406595188911945,-30,-11,-30,489,140,251411.0,69,78.5,0,0,-4,0,0,0
1778195927.119781,9.833161115646362,wait_slave,2,0.06524382478846245,1.3669064437356884,3.7458091353211906,0.06445721389535786,1.328684180448135,3.7421340317192824,2,0.07866108931045973,3.8222263287553293,0.36751036019082584,3.8406595188911945,0,-1,-1,492,140,251405.00000000003,69,78.5,0,0,-4,0,0,0
1778195927.191703,9.905083179473877,wait_slave,2,0.06524382478846245,1.3669064437356884,3.7458091353211906,0.06445721389535786,1.328684180448135,3.7421340317192824,2,0.07866108931045973,3.8222263287553293,0.36751036019082584,3.8406595188911945,0,-1,-1,496,140,251405.00000000003,69,78.5,0,0,-4,0,0,0
1778195927.263652,9.97703218460083,wait_slave,2,0.06524382478846245,1.3669064437356884,3.7458091353211906,0.06964669681449853,1.3331993453147724,3.740884367079843,2,-0.4402872026036078,3.3707098420916015,0.4924768241347799,3.4348320312148566,-2,-2,-3,500,140,251405.00000000003,69,78.5,0,0,-4,0,0,0
1778195927.334752,10.048132181167603,wait_slave,2,0.06524382478846245,1.3669064437356884,3.7458091353211906,0.06081732253050287,1.3328684178982844,3.739321198683835,2,0.4426502257959583,3.4038025837404007,0.6487936637355585,3.493242686899731,2,-2,-1,503,140,251407.00000000003,69,78.5,0,0,-4,0,0,0
1778195927.4076328,10.121012926101685,wait_slave,2,0.06524382478846245,1.3669064437356884,3.7458091353211906,-0.005616662215695678,1.2563118166995562,3.7207079392665823,2,7.086048700415813,11.059462703613221,2.5101196054608366,13.37252788035962,26,-9,30,507,140,251407.00000000003,69,78.5,0,0,-4,0,0,0
1778195927.478307,10.191687107086182,wait_slave,2,0.06524382478846245,1.3669064437356884,3.7458091353211906,0.0033365038971922,1.326414498596324,3.707981478755728,2,6.190732089127025,4.049194513936438,3.7827656565462497,8.308456897847265,0,-8,-25,510,140,251403.00000000003,69,78.5,0,0,-4,0,0,0
1778195927.54931,10.26269006729126,wait_slave,2,0.06524382478846245,1.3669064437356884,3.7458091353211906,0.06542230036663732,1.3311830586526958,3.7422474996567354,2,-0.017847557817486648,3.5723385082992554,0.35616356644552205,3.5900937925437257,-22,10,-2,514,140,251411.0,69,78.5,0,0,-4,0,0,0
1778195927.622148,10.335528135299683,wait_slave,2,0.06524382478846245,1.3669064437356884,3.7458091353211906,0.06537279754467495,1.3303154969420952,3.742209952206112,2,-0.012897275621250037,3.6590946793593204,0.35991831150785636,3.6767759522702503,0,-1,0,517,140,251407.00000000003,69,78.5,0,0,-4,0,0,0
1778195927.694485,10.407865047454834,wait_slave,2,0.06524382478846245,1.3669064437356884,3.7458091353211906,0.06537279754467495,1.3303154969420952,3.742209952206112,2,-0.012897275621250037,3.6590946793593204,0.35991831150785636,3.6767759522702503,0,-1,-1,521,140,251407.00000000003,69,78.5,0,0,-4,0,0,0
1778195927.7776,10.49098014831543,wait_slave,2,0.06524382478846245,1.3669064437356884,3.7458091353211906,0.06509670460324746,1.2577155856232323,3.7580341520795444,2,0.01471201852149967,10.91908581124561,-1.2225016758353746,10.987318223490867,0,3,26,525,140,251401.00000000003,69,78.5,0,0,-4,0,0,0
1778195927.848285,10.561665058135986,wait_slave,2,0.06524382478846245,1.3669064437356884,3.7458091353211906,0.1447393115174601,1.4046582547787532,3.7413318084160467,2,-7.949548672899766,-3.77518110430648,0.4477326905143908,8.811797832183304,-30,-7,-30,529,140,251403.00000000003,69,78.5,0,0,-4,0,0,0
1778195927.919274,10.632654190063477,wait_slave,2,0.06524382478846245,1.3669064437356884,3.7458091353211906,0.07095683722090229,1.395547785809296,3.7079015020471546,2,-0.5713012432439837,-2.864134207360758,3.7907633274036012,4.785346013894312,25,-15,-2,532,140,251403.00000000003,69,78.5,0,0,-4,0,0,0
1778195927.990855,10.704235076904297,wait_slave,2,0.06524382478846245,1.3669064437356884,3.7458091353211906,0.061200145968316355,1.2538417711500278,3.759309681031716,2,0.4043678820146099,11.306467258566055,-1.350054571052528,11.393961672651484,3,17,30,536,140,251402.0,69,78.5,0,0,-4,0,0,0
1778195928.063033,10.776413202285767,wait_slave,2,0.06524382478846245,1.3669064437356884,3.7458091353211906,0.14475283245990478,1.405528088764064,3.7413371451876385,2,-7.950900767144232,-3.8621645028375617,0.44719901335521506,8.85060024029439,-30,-8,-30,539,140,251413.0,69,78.5,0,0,-4,0,0,0
1778195928.134381,10.847761154174805,wait_slave,2,0.06524382478846245,1.3669064437356884,3.7458091353211906,0.14389044971250187,1.408188630636909,3.739928763726361,2,-7.864662492403942,-4.128218690122054,0.5880371594829459,8.901735413605103,-4,-2,-7,543,140,251404.0,69,78.5,0,-1,-4,0,0,0
1778195928.204374,10.917754173278809,wait_slave,2,0.06524382478846245,1.3669064437356884,3.7458091353211906,-0.018907539264885642,1.1900585494506148,3.7485274354775853,2,8.41513640533481,17.68478942850735,-0.27183001563946263,19.58673503696926,30,1,30,547,140,251404.0,69,78.5,0,-1,-4,0,0,0
1778195928.27531,10.98869013786316,wait_slave,2,0.06524382478846245,1.3669064437356884,3.7458091353211906,0.06554560096999651,1.3329494878328108,3.7423427516392036,2,-0.030177618153405528,3.3956955902877617,0.34663836819870397,3.413475851510396,-30,-4,-30,550,140,251398.0,69,78.5,0,0,-4,0,0,0
1778195928.341507,11.054887056350708,wait_slave,2,0.06524382478846245,1.3669064437356884,3.7458091353211906,-0.006128741755618616,1.2590960790875043,3.7209220873482027,2,7.137256654408107,10.781036464818406,2.488704797298791,13.166807941742558,29,-10,30,553,140,251406.0,69,78.5,0,-1,-4,0,0,0
1778195928.4110541,11.124434232711792,wait_slave,2,0.06524382478846245,1.3669064437356884,3.7458091353211906,0.002854308529538052,1.3299754232968017,3.708217564054698,2,6.23895162589244,3.693102043888663,3.7591571266492707,8.166687357774787,0,-8,-26,557,140,251406.0,69,78.5,0,-1,-4,0,0,0
1778195928.479528,11.19290804862976,wait_slave,2,0.06524382478846245,1.3669064437356884,3.7458091353211906,0.0020018137412811665,1.3301268616300144,3.7081432005760426,2,6.324201104718129,3.6779582105674002,3.766593474514801,8.228616081325926,3,-3,0,560,140,251409.0,69,78.5,0,0,-4,0,0,0
1778195928.5506382,11.264018297195435,wait_slave,2,0.06524382478846245,1.3669064437356884,3.7458091353211906,0.14217063393685825,1.4017224136109108,3.7243820643777132,2,-7.692680914839579,-3.4815969875222397,2.14270709434774,8.71148959324576,-30,2,-30,564,140,251406.0,69,78.5,0,0,-4,0,0,0
1778195928.6201758,11.333555936813354,wait_slave,2,0.06524382478846245,1.3669064437356884,3.7458091353211906,0.0676553509897797,1.399334461011361,3.7078761995781586,2,-0.24115262013172517,-3.242801727567257,3.7932935743032026,4.996298006660487,26,-9,-4,567,140,251406.0,69,78.5,0,0,-4,0,0,0
1778195928.692289,11.405669212341309,wait_slave,2,0.06524382478846245,1.3669064437356884,3.7458091353211906,0.062071512770491055,1.335246938201946,3.742241860601329,2,0.3172312017971399,3.1659505533742305,0.3567274719861846,3.201739063551855,1,10,21,571,140,251396.0,69,78.5,0,0,-4,0,0,0
1778195928.764342,11.47772216796875,wait_slave,2,0.06524382478846245,1.3669064437356884,3.7458091353211906,0.06113681290864825,1.3353527456181458,3.7422006107944075,2,0.41070118798142013,3.1553698117542606,0.36085245267831745,3.20238170856371,0,-1,-1,575,140,251392.99999999997,69,78.5,0,0,-4,0,0,0
1778195928.838442,11.551822185516357,wait_slave,2,0.06524382478846245,1.3669064437356884,3.7458091353211906,0.06566849863999968,1.4057420002716103,3.7252683480348474,2,-0.042467385153723,-3.8835556535921967,2.054078728634323,4.393523348837207,-1,-8,-28,578,140,251392.99999999997,69,78.5,0,0,-4,0,0,0
1778195928.9141781,11.62755823135376,wait_slave,2,0.06524382478846245,1.3669064437356884,3.7458091353211906,-0.015376876902795766,1.267936603790527,3.7358193923969183,2,8.062070169125821,9.896983994516129,0.9989742924272349,12.804109388651261,30,1,30,582,140,251405.00000000003,69,78.5,0,0,-4,0,0,0
1778195928.985474,11.698854207992554,wait_slave,2,0.06524382478846245,1.3669064437356884,3.7458091353211906,0.06382380857280057,1.4049541916319286,3.7252496609310843,2,0.14200162156618873,-3.8047747896240214,2.0559474390106303,4.327053909100314,-27,-6,-30,586,140,251407.00000000003,69,78.5,0,0,-4,0,0,0
1778195929.0574698,11.77084994316101,wait_slave,2,0.06524382478846245,1.3669064437356884,3.7458091353211906,0.05824568119837714,1.3346529320447564,3.742098355082049,2,0.6998143590085313,3.2253511690931935,0.371078023914162,3.3211939420752574,2,3,23,589,140,251405.00000000003,69,78.5,0,0,-4,0,0,0
1778195929.1298392,11.84321928024292,wait_slave,2,0.06524382478846245,1.3669064437356884,3.7458091353211906,-0.003879070590082856,1.3964990037296663,3.691812547648697,2,6.912289537854531,-2.959255999397792,5.399658767249349,9.25706527620054,25,-22,-26,593,140,251405.00000000003,69,78.5,0,0,-4,0,0,0
1778195929.202977,11.916357040405273,wait_slave,2,0.06524382478846245,1.3669064437356884,3.7458091353211906,0.05727486691717032,1.3347231871813627,3.7420866539092117,2,0.7968957871292135,3.2183256554325634,0.37224814119789507,3.336350041375308,-20,15,20,597,140,251409.0,69,78.5,0,0,-4,0,0,0
1778195929.275172,11.98855209350586,wait_slave,2,0.06524382478846245,1.3669064437356884,3.7458091353211906,0.05629288321715731,1.333804405881355,3.7420858498144853,2,0.8950941571305147,3.310203785433341,0.37232855067053094,3.4492421197809273,0,-1,0,600,140,251405.00000000003,69,78.5,0,0,-4,0,0,0
1778195929.345666,12.059046030044556,wait_slave,2,0.06524382478846245,1.3669064437356884,3.7458091353211906,-0.021328941142671587,1.259920856013156,3.738297531621648,2,8.657276593113403,10.69855877225323,0.7511603699542846,13.783027233319089,30,-3,30,604,140,251405.00000000003,69,78.5,0,0,-4,0,0,0
1778195929.4181602,12.131540298461914,wait_slave,2,0.06524382478846245,1.3669064437356884,3.7458091353211906,0.06016524531088663,1.4023047762039846,3.7254263126400047,2,0.5078579477575826,-3.5398332468296267,2.0382822681185964,4.116179504709144,-28,-7,-30,607,140,251408.0,69,78.5,0,0,-4,0,0,0
1778195929.4906409,12.204020977020264,wait_slave,2,0.06524382478846245,1.3669064437356884,3.7458091353211906,-0.041036367379036154,1.1971136148203085,3.761512067949658,2,10.62801921674986,16.979282891537984,-1.5702932628467448,20.09270168279569,30,11,30,611,140,251408.0,69,78.5,0,0,-4,0,0,0
1778195929.563413,12.276793003082275,wait_slave,2,0.06524382478846245,1.3669064437356884,3.7458091353211906,-0.011369704287263138,1.322340422782608,3.708739317863524,2,7.661352907572559,4.4566020953080265,3.7069817457666687,9.607254773020319,-5,-22,-30,615,140,251409.0,69,78.5,0,0,-4,0,0,0
1778195929.635131,12.348510980606079,wait_slave,2,0.06524382478846245,1.3669064437356884,3.7458091353211906,-0.03963948760569935,1.1912162310822594,3.763598010778822,2,10.48833123941618,17.569021265342897,-1.7788875457631192,20.538744881570917,16,18,30,618,140,251409.0,69,78.5,0,0,-4,0,0,0
1778195929.7084422,12.421822309494019,wait_slave,2,0.06524382478846245,1.3669064437356884,3.7458091353211906,-0.025318207472457832,1.2585951480321387,3.736471531156083,2,9.056203226092029,10.83112957035497,0.9337604165107649,14.149208216629647,0,-11,-18,622,140,251413.0,69,78.5,0,0,-4,0,0,0
1778195929.7807229,12.494102954864502,wait_slave,2,0.06524382478846245,1.3669064437356884,3.7458091353211906,-0.014230484293610735,1.3295323649906299,3.7239956952773015,2,7.947430908207319,3.737407874505849,2.1813440043889187,9.049206447342817,1,-7,-24,625,140,251405.00000000003,69,78.5,0,0,-4,0,0,0
1778195929.852579,12.565959215164185,wait_slave,2,0.06524382478846245,1.3669064437356884,3.7458091353211906,-0.014230484293610735,1.3295323649906299,3.7239956952773015,2,7.947430908207319,3.737407874505849,2.1813440043889187,9.049206447342817,4,-3,0,629,140,251405.00000000003,69,78.5,0,0,-4,0,0,0
1778195929.924917,12.638297080993652,wait_slave,2,0.06524382478846245,1.3669064437356884,3.7458091353211906,-0.017442541608630346,1.3319271218903324,3.72137703121531,2,8.26863663970928,3.4979321845356015,2.4432104105880814,9.304577290643502,6,-4,-1,633,140,251402.0,69,78.5,-1,0,-4,0,0,0
1778195929.99669,12.710070133209229,wait_slave,2,0.06524382478846245,1.3669064437356884,3.7458091353211906,-0.02805962212502333,1.26684624819034,3.7515943197658044,2,9.330344691348579,10.00601955453484,-0.5785184444613733,13.693445255876705,9,9,27,636,140,251402.0,69,78.5,-1,0,-4,0,0,0
1778195930.067544,12.780924081802368,wait_slave,2,0.06524382478846245,1.3669064437356884,3.7458091353211906,-0.012396550229436754,1.3285888315354113,3.723981698538357,2,7.764037501789921,3.8317612200277074,2.18274367828335,8.929000075125682,0,-12,-21,640,140,251403.00000000003,69,78.5,-1,0,-4,0,0,0
1778195930.138664,12.852044105529785,wait_slave,2,0.06524382478846245,1.3669064437356884,3.7458091353211906,0.12560785132328212,1.407499514589441,3.7565426287188015,2,-6.036402653481966,-4.059307085375252,-1.0733493397610872,7.353108853641935,-30,10,-30,643,140,251408.0,69,78.5,0,0,-4,0,0,0
1778195930.208113,12.92149305343628,wait_slave,2,0.06524382478846245,1.3669064437356884,3.7458091353211906,-0.022274608109799976,1.2613084600116375,3.7540094852670167,2,8.751843289826242,10.559798372405083,-0.820034994582608,13.739598248415627,30,-2,30,647,140,251408.0,69,78.5,0,0,-4,0,0,0
1778195930.27548,12.988860130310059,wait_slave,2,0.06524382478846245,1.3669064437356884,3.7458091353211906,-0.025365384324366635,1.2639475586244826,3.7516031099063487,2,9.060920911282908,10.295888511120577,-0.5793974585158068,13.727392666084961,6,-2,3,650,140,251400.0,69,78.5,0,0,-4,0,0,0
1778195930.344417,13.057797193527222,wait_slave,2,0.06524382478846245,1.3669064437356884,3.7458091353211906,-0.037573300387659936,1.1910055960643287,3.7613959863089192,2,10.281712517612238,17.59008476713597,-1.5586850987728607,20.434142841014634,11,2,30,654,140,251407.00000000003,69,78.5,0,0,-4,0,0,0
1778195930.412382,13.125761985778809,wait_slave,2,0.06524382478846245,1.3669064437356884,3.7458091353211906,-0.024499530154678206,1.2630233095974415,3.7516067622788682,2,8.974335494314065,10.38831341382469,-0.5797626957677604,13.74015567349072,1,-5,-21,657,140,251407.00000000003,69,78.5,0,0,-4,0,0,0
1778195930.48156,13.194940090179443,wait_slave,2,0.06524382478846245,1.3669064437356884,3.7458091353211906,0.04723560195054366,1.2517804346155383,3.7755615028386154,2,1.8008222837918795,11.512600912015003,-2.9752367517424716,12.026428164091332,-24,8,9,660,140,251408.0,69,78.5,0,0,-5,0,0,0
1778195930.550632,13.264012098312378,wait_slave,2,0.06524382478846245,1.3669064437356884,3.7458091353211906,0.063363992341817,1.3975666047103874,3.7234437406926237,2,0.18798324466454547,-3.0660160974699036,2.2365394628566904,3.799723829324242,-5,-21,-30,664,130,251404.0,69,78.5,0,0,-5,0,0,0
1778195930.621669,13.335049152374268,wait_slave,2,0.06524382478846245,1.3669064437356884,3.7458091353211906,0.05930355152604927,1.3290768509365734,3.7595071898371946,2,0.5940273262413185,3.782959279911502,-1.3698054516003921,4.0669418920147,2,11,24,667,130,251404.0,69,78.5,0,0,-5,0,0,0
1778195930.6933088,13.406688928604126,wait_slave,2,0.06524382478846245,1.3669064437356884,3.7458091353211906,-0.023643498439081423,1.2604616535629511,3.7516280499392467,2,8.888732322754388,10.644479017273722,-0.5818914618056059,13.879952936810753,30,-4,29,671,130,251409.0,69,78.5,0,0,-4,0,0,0
1778195930.76544,13.478820085525513,wait_slave,2,0.06524382478846245,1.3669064437356884,3.7458091353211906,0.042981873383934,1.2567038431775317,3.791102914747703,2,2.2261951404528455,11.020260055815667,-4.529377942651225,12.120946375945966,-21,14,6,675,130,251404.0,69,78.5,0,0,-4,0,0,0
1778195930.837019,13.5503990650177,wait_slave,2,0.06524382478846245,1.3669064437356884,3.7458091353211906,0.032039581062567435,1.1790228806257468,3.8028298656856916,2,3.320424372589502,18.78835631099416,-5.702073036450095,19.913341954477946,6,5,30,678,130,251398.0,69,78.5,0,0,-4,0,0,0
1778195930.909894,13.623274087905884,wait_slave,2,0.06524382478846245,1.3669064437356884,3.7458091353211906,-0.023603851670360942,1.258838135134165,3.7516774327795077,2,8.88476764588234,10.806830860152328,-0.5868297458317073,14.002537574020332,25,-19,-21,682,130,251398.0,69,78.5,0,0,-4,0,0,0
1778195930.981537,13.69491720199585,wait_slave,2,0.06524382478846245,1.3669064437356884,3.7458091353211906,0.03206848472327428,1.1772544415027406,3.802867904073285,2,3.3175340065188172,18.965200223294776,-5.705876875209448,20.080883504196695,-16,19,30,685,130,251392.0,69,78.5,0,0,-4,0,0,0
1778195931.054353,13.767733097076416,wait_slave,2,0.06524382478846245,1.3669064437356884,3.7458091353211906,0.03206848472327428,1.1772544415027406,3.802867904073285,2,3.3175340065188172,18.965200223294776,-5.705876875209448,20.080883504196695,2,1,11,689,130,251407.00000000003,69,78.5,-1,0,-4,0,0,0
1778195931.1274319,13.840811967849731,wait_slave,2,0.06524382478846245,1.3669064437356884,3.7458091353211906,0.043074570177114135,1.2550038110950021,3.791195072061727,2,2.216925461134832,11.190263264068623,-4.538593674053626,12.27744203641586,-1,-2,-20,693,130,251407.00000000003,69,78.5,-1,0,-4,0,0,0
1778195931.200626,13.914005994796753,wait_slave,2,0.06524382478846245,1.3669064437356884,3.7458091353211906,0.048352861358793686,1.247471299047314,3.77573126752158,2,1.6890963429668768,11.943514468837435,-2.9922132200389306,12.42794931906825,0,-5,9,696,130,251388.0,69,78.5,-1,0,-4,0,0,0
1778195931.272851,13.986231088638306,wait_slave,2,0.06524382478846245,1.3669064437356884,3.7458091353211906,0.04961360401439596,1.3343818533880978,3.774238033839334,2,1.5630220774066492,3.2524590347590587,-2.842889851814334,4.593860086767484,1,0,-29,700,130,251391.0,69,78.5,-1,0,-4,0,0,0
1778195931.345908,14.059288024902344,wait_slave,2,0.06524382478846245,1.3669064437356884,3.7458091353211906,-0.022805739557278493,1.2596171222909975,3.751636035542282,2,8.804956434574095,10.728932144469084,-0.5826900221091336,13.891607914033397,30,-9,30,704,130,251391.0,69,78.5,-1,0,-4,0,0,0
1778195931.417949,14.13132905960083,wait_slave,2,0.06524382478846245,1.3669064437356884,3.7458091353211906,0.04196529362263535,1.2604575941147227,3.7887498925357646,2,2.3278531165827108,10.644884962096569,-4.294075721457391,11.712026395558683,-20,13,5,707,130,251405.00000000003,69,78.5,-1,0,-4,0,0,0
1778195931.489731,14.203111171722412,wait_slave,2,0.06524382478846245,1.3669064437356884,3.7458091353211906,-0.022805739557278493,1.2596171222909975,3.751636035542282,2,8.804956434574095,10.728932144469084,-0.5826900221091336,13.891607914033397,28,-14,6,711,130,251392.0,69,78.5,0,0,-4,0,0,0
1778195931.560849,14.274229049682617,wait_slave,2,0.06524382478846245,1.3669064437356884,3.7458091353211906,0.0438534561337508,1.2566942141309958,3.791075852990692,2,2.1390368654711653,11.021222960469256,-4.526671766950141,12.105106011180693,-21,14,7,714,130,251401.00000000003,69,78.5,0,0,-4,0,0,0
1778195931.633096,14.346476078033447,wait_slave,2,0.06524382478846245,1.3669064437356884,3.7458091353211906,0.0438534561337508,1.2566942141309958,3.791075852990692,2,2.1390368654711653,11.021222960469256,-4.526671766950141,12.105106011180693,2,1,6,718,130,251401.00000000003,69,78.5,0,0,-4,0,0,0
