timestamp,phase,command,axis,repeat,t_send,t_since_cmd,marker_id,pos_x,pos_y,pos_z,marker_dist,tello_height_cm,tello_baro_cm,tello_battery,tello_temp_c,tello_pitch,tello_roll,tello_yaw,tello_vgx,tello_vgy,tello_vgz,tello_agx,tello_agy,tello_agz
1777580890.445049,init_hover,none,-,0,,,4,2.624178486523349,0.8459415220328965,2.0276958206027738,2.1679513290204535,90,254285.0,70,60.5,0,0,3,0,0,0,3.0,-16.0,-987.0
1777580890.60205,init_hover,none,-,0,,,4,2.691420074702565,0.8522208739337287,1.9893811455317656,2.154112991632604,90,254283.0,70,60.5,0,0,3,0,0,0,2.0,-22.0,-1006.0
1777580890.651283,init_hover,none,-,0,,,4,2.7023121174839915,0.8717013818374225,1.9743012005095575,2.1479315013113576,90,254296.0,70,60.5,0,0,3,0,0,0,-8.0,8.0,-1002.0
1777580890.700581,init_hover,none,-,0,,,4,2.7256229678356028,0.8649810698535358,1.9630084644943515,2.143860610778872,90,254296.0,70,60.5,0,0,3,0,0,0,-8.0,8.0,-1002.0
1777580890.749565,init_hover,none,-,0,,,4,2.7854410631931756,0.8563474784930679,1.931768141741468,2.134689400902223,90,254287.0,70,60.5,0,0,3,0,0,0,-15.0,-11.0,-998.0
1777580890.797513,init_hover,none,-,0,,,4,2.7779990333097926,0.8640457317500302,1.9322750952448775,2.134082468108951,90,254287.0,70,60.5,0,0,3,0,0,0,-15.0,-11.0,-998.0
1777580890.8468149,init_hover,none,-,0,,,4,2.7887261023224905,0.8569971415036779,1.9312994739458236,2.1356153468943733,90,254292.0,70,60.5,0,0,3,0,0,0,-16.0,-14.0,-991.0
1777580890.896032,init_hover,none,-,0,,,4,2.8413193678533437,0.8599979876932403,1.897087200826282,2.125642555780693,90,254292.0,70,60.5,0,0,3,0,0,0,-16.0,-14.0,-991.0
1777580890.9512599,init_hover,none,-,0,,,4,2.8323802261407325,0.8666023316757492,1.9068696567531773,2.132305434181821,90,254291.0,70,60.5,0,-1,3,1,4,0,-6.0,-3.0,-985.0
1777580891.000183,init_hover,none,-,0,,,4,2.8493956845588566,0.8721118130683666,1.8917171178480479,2.1267242997025346,90,254291.0,70,60.5,0,-1,3,1,4,0,-6.0,-3.0,-985.0
1777580891.049829,init_hover,none,-,0,,,,,,,,90,254296.0,70,60.5,2,-6,3,1,3,0,13.0,-24.0,-1012.0
1777580891.100117,init_hover,none,-,0,,,,,,,,90,254296.0,70,60.5,2,-6,3,1,3,0,13.0,-24.0,-1012.0
1777580891.1500869,init_hover,none,-,0,,,,,,,,90,254292.0,70,60.5,2,-6,3,1,2,0,-5.0,-11.0,-981.0
1777580891.199012,init_hover,none,-,0,,,,,,,,90,254292.0,70,60.5,2,-6,3,1,2,0,-5.0,-11.0,-981.0
1777580891.2468128,init_hover,none,-,0,,,,,,,,90,254292.0,70,60.5,2,-6,3,1,2,0,-5.0,-11.0,-981.0
1777580891.29284,init_hover,none,-,0,,,,,,,,90,254294.0,70,61.5,1,-4,3,0,1,0,-4.0,-10.0,-989.0
1777580891.339385,init_hover,none,-,0,,,,,,,,90,254294.0,70,61.5,1,-4,3,0,1,0,-4.0,-10.0,-989.0
1777580891.386614,init_hover,none,-,0,,,,,,,,90,254291.0,70,61.5,1,-2,3,0,1,0,-3.0,-3.0,-997.0
1777580891.433192,init_hover,none,-,0,,,,,,,,90,254291.0,70,61.5,1,-2,3,0,1,0,-3.0,-3.0,-997.0
1777580891.481451,init_hover,none,-,0,,,,,,,,90,254294.0,70,61.5,1,-1,3,0,0,0,-4.0,7.0,-1005.0
1777580891.5297768,init_hover,none,-,0,,,,,,,,90,254294.0,70,61.5,0,-1,3,0,0,0,9.0,-4.0,-989.0
1777580891.5769799,init_hover,none,-,0,,,,,,,,90,254294.0,70,61.5,0,-1,3,0,0,0,9.0,-4.0,-989.0
1777580891.626166,init_hover,none,-,0,,,,,,,,90,254290.0,70,61.5,0,-1,3,0,0,0,6.0,-2.0,-1004.0
1777580891.675693,init_hover,none,-,0,,,,,,,,90,254290.0,70,61.5,0,-1,3,0,0,0,6.0,-2.0,-1004.0
1777580891.7262511,init_hover,none,-,0,,,,,,,,90,254289.0,70,61.5,0,-1,3,0,0,0,8.0,4.0,-1002.0
1777580891.775243,init_hover,none,-,0,,,,,,,,90,254289.0,70,61.5,0,-1,3,0,0,0,8.0,4.0,-1002.0
1777580891.825928,init_hover,none,-,0,,,,,,,,90,254287.0,70,61.5,0,-1,3,0,0,0,-27.0,10.0,-1012.0
1777580891.8770812,init_hover,none,-,0,,,,,,,,90,254287.0,70,61.5,0,-1,3,0,0,0,-27.0,10.0,-1012.0
1777580891.927177,init_hover,none,-,0,,,,,,,,90,254296.0,70,61.5,1,-1,3,0,0,0,17.0,-4.0,-992.0
1777580891.976612,init_hover,none,-,0,,,,,,,,90,254296.0,70,61.5,1,-1,3,0,0,0,17.0,-4.0,-992.0
1777580892.026884,init_hover,none,-,0,,,,,,,,80,254289.0,70,61.5,0,-1,3,0,0,0,-3.0,10.0,-1009.0
1777580892.07609,init_hover,none,-,0,,,,,,,,80,254289.0,70,61.5,0,-1,3,0,0,0,-3.0,10.0,-1009.0
1777580892.126119,init_hover,none,-,0,,,,,,,,80,254290.0,70,61.5,1,-1,3,0,0,0,-8.0,8.0,-1013.0
1777580892.175414,init_hover,none,-,0,,,,,,,,80,254290.0,70,61.5,1,-1,3,0,0,0,-8.0,8.0,-1013.0
1777580892.224971,init_hover,none,-,0,,,,,,,,80,254285.0,70,61.5,0,-1,3,0,0,0,3.0,7.0,-992.0
1777580892.274754,init_hover,none,-,0,,,,,,,,80,254285.0,70,61.5,0,-1,3,0,0,0,3.0,7.0,-992.0
1777580892.3247201,init_hover,none,-,0,,,,,,,,80,254287.0,70,61.5,0,-1,3,0,0,0,10.0,0.0,-1012.0
1777580892.3749208,init_hover,none,-,0,,,,,,,,80,254287.0,70,61.5,0,-1,3,0,0,0,10.0,0.0,-1012.0
1777580892.424939,init_hover,none,-,0,,,,,,,,80,254294.0,70,61.5,0,-1,3,0,0,0,-26.0,17.0,-993.0
1777580892.4756851,init_hover,none,-,0,,,,,,,,80,254294.0,70,61.5,0,-1,3,0,0,0,-26.0,17.0,-993.0
1777580892.526571,init_hover,none,-,0,,,,,,,,80,254286.0,70,61.5,0,-1,3,0,0,0,8.0,9.0,-998.0
1777580892.576608,init_hover,none,-,0,,,,,,,,80,254286.0,70,61.5,0,-1,3,0,0,0,8.0,9.0,-998.0
1777580892.626633,init_hover,none,-,0,,,,,,,,80,254286.0,70,61.5,0,-1,3,0,0,0,8.0,9.0,-998.0
1777580892.676028,init_hover,none,-,0,,,,,,,,80,254287.0,70,61.5,0,-1,3,0,0,0,-31.0,17.0,-990.0
1777580892.725675,init_hover,none,-,0,,,,,,,,80,254287.0,70,61.5,0,-1,3,0,0,0,-31.0,17.0,-990.0
1777580892.7749639,init_hover,none,-,0,,,,,,,,80,254294.0,70,61.5,0,-1,3,0,0,0,9.0,11.0,-1011.0
1777580892.824286,init_hover,none,-,0,,,,,,,,80,254294.0,70,61.5,0,-1,3,0,0,0,9.0,11.0,-1011.0
1777580892.8739042,init_hover,none,-,0,,,,,,,,80,254296.0,70,61.5,0,-1,3,0,0,0,4.0,8.0,-990.0
1777580892.923239,init_hover,none,-,0,,,,,,,,80,254296.0,70,61.5,0,-1,3,0,0,0,4.0,8.0,-990.0
1777580892.972357,init_hover,none,-,0,,,,,,,,80,254301.00000000003,70,61.5,0,-1,3,0,0,0,3.0,5.0,-1005.0
1777580893.0224268,init_hover,none,-,0,,,,,,,,80,254301.00000000003,70,61.5,0,-1,3,0,0,0,3.0,5.0,-1005.0
1777580893.072435,init_hover,none,-,0,,,,,,,,80,254290.0,70,61.5,0,-1,3,0,0,0,4.0,11.0,-977.0
1777580893.122493,init_hover,none,-,0,,,,,,,,80,254290.0,70,61.5,0,-1,3,0,0,0,4.0,11.0,-977.0
1777580893.172128,init_hover,none,-,0,,,,,,,,80,254294.99999999997,70,61.5,0,-1,3,0,0,0,-18.0,13.0,-1006.0
1777580893.221594,init_hover,none,-,0,,,,,,,,80,254294.99999999997,70,61.5,0,-1,3,0,0,0,-18.0,13.0,-1006.0
1777580893.270699,init_hover,none,-,0,,,,,,,,80,254294.0,70,62.0,0,-1,3,0,0,0,19.0,3.0,-989.0
1777580893.3199842,init_hover,none,-,0,,,,,,,,80,254294.0,70,62.0,0,-1,3,0,0,0,19.0,3.0,-989.0
1777580893.369643,init_hover,none,-,0,,,,,,,,80,254288.0,70,62.0,0,-1,3,0,0,0,12.0,-2.0,-1000.0
1777580893.419429,init_hover,none,-,0,,,,,,,,80,254288.0,70,62.0,0,-1,3,0,0,0,12.0,-2.0,-1000.0
1777580893.4684532,init_hover,none,-,0,,,,,,,,80,254280.00000000003,70,62.0,0,-1,3,0,0,0,-19.0,15.0,-1003.0
1777580893.518751,init_hover,none,-,0,,,,,,,,80,254280.00000000003,70,62.0,0,-1,3,0,0,0,-19.0,15.0,-1003.0
1777580893.569207,init_hover,none,-,0,,,,,,,,80,254289.0,70,62.0,0,-1,3,0,0,0,-24.0,23.0,-997.0
1777580893.6196322,init_hover,none,-,0,,,,,,,,80,254289.0,70,62.0,0,-1,3,0,0,0,-24.0,23.0,-997.0
1777580893.67115,init_hover,none,-,0,,,,,,,,80,254292.0,70,62.0,0,-1,3,0,0,0,16.0,13.0,-1000.0
1777580893.7205381,init_hover,none,-,0,,,,,,,,80,254292.0,70,62.0,0,-1,3,0,0,0,16.0,13.0,-1000.0
1777580893.769427,init_hover,none,-,0,,,,,,,,80,254290.0,70,62.0,0,-1,3,0,0,0,3.0,18.0,-989.0
1777580893.820277,init_hover,none,-,0,,,,,,,,80,254290.0,70,62.0,0,-1,3,0,0,0,3.0,18.0,-989.0
1777580893.870311,init_hover,none,-,0,,,,,,,,80,254298.0,70,62.0,0,-1,3,0,0,0,10.0,10.0,-1003.0
1777580893.920749,init_hover,none,-,0,,,,,,,,80,254298.0,70,62.0,0,-1,3,0,0,0,10.0,10.0,-1003.0
1777580893.97053,init_hover,none,-,0,,,,,,,,80,254294.0,70,62.0,0,-1,3,0,0,0,1.0,19.0,-985.0
1777580894.01981,init_hover,none,-,0,,,,,,,,80,254294.0,70,62.0,0,-1,3,0,0,0,1.0,19.0,-985.0
1777580894.068637,init_hover,none,-,0,,,,,,,,80,254301.00000000003,70,62.0,0,-1,3,0,0,0,8.0,6.0,-996.0
1777580894.1182919,init_hover,none,-,0,,,,,,,,80,254301.00000000003,70,62.0,0,-1,3,0,0,0,8.0,6.0,-996.0
1777580894.167671,init_hover,none,-,0,,,,,,,,80,254289.0,70,62.0,0,-1,3,0,0,0,-12.0,16.0,-996.0
1777580894.217099,init_hover,none,-,0,,,,,,,,80,254289.0,70,62.0,0,-1,3,0,0,0,-12.0,16.0,-996.0
1777580894.2664928,init_hover,none,-,0,,,,,,,,80,254289.0,70,62.0,0,-1,3,0,0,0,-14.0,20.0,-995.0
1777580894.3165162,init_hover,none,-,0,,,,,,,,80,254289.0,70,62.0,0,-1,3,0,0,0,-14.0,20.0,-995.0
1777580894.365779,init_hover,none,-,0,,,,,,,,80,254286.0,70,62.0,0,-1,3,0,0,0,-6.0,36.0,-1004.0
1777580894.415078,init_hover,none,-,0,,,,,,,,80,254286.0,70,62.0,0,-1,3,0,0,0,-6.0,36.0,-1004.0
1777580894.463943,init_hover,none,-,0,,,,,,,,80,254286.0,70,62.0,0,-1,3,0,0,0,-6.0,36.0,-1004.0
1777580894.51324,init_hover,none,-,0,,,,,,,,80,254287.0,70,62.0,0,-1,3,0,0,0,-3.0,18.0,-998.0
1777580894.562398,init_hover,none,-,0,,,,,,,,80,254287.0,70,62.0,0,-1,3,0,0,0,-3.0,18.0,-998.0
1777580894.6122959,init_hover,none,-,0,,,,,,,,80,254285.0,70,62.0,0,-1,3,0,0,0,0.0,29.0,-1006.0
1777580894.661498,init_hover,none,-,0,,,,,,,,80,254285.0,70,62.0,0,-1,3,0,0,0,0.0,29.0,-1006.0
1777580894.7105222,init_hover,none,-,0,,,,,,,,80,254292.99999999997,70,62.0,0,-1,3,0,0,0,-29.0,41.0,-1009.0
1777580894.76019,init_hover,none,-,0,,,,,,,,80,254292.99999999997,70,62.0,0,-1,3,0,0,0,-29.0,41.0,-1009.0
1777580894.809841,init_hover,none,-,0,,,,,,,,80,254296.0,70,62.0,0,-1,3,0,0,0,6.0,7.0,-996.0
1777580894.8593311,init_hover,none,-,0,,,,,,,,80,254286.0,70,62.0,0,-1,3,0,0,0,9.0,14.0,-999.0
1777580894.908396,init_hover,none,-,0,,,,,,,,80,254286.0,70,62.0,0,-1,3,0,0,0,9.0,14.0,-999.0
1777580894.959028,init_hover,none,-,0,,,,,,,,90,254289.0,70,62.0,0,-1,3,0,0,0,-7.0,16.0,-995.0
1777580895.008692,init_hover,none,-,0,,,,,,,,90,254289.0,70,62.0,0,-1,3,0,0,0,-7.0,16.0,-995.0
1777580895.05894,init_hover,none,-,0,,,,,,,,90,254286.0,70,62.0,0,-1,3,0,0,0,1.0,24.0,-995.0
1777580895.108881,init_hover,none,-,0,,,,,,,,90,254286.0,70,62.0,0,-1,3,0,0,0,1.0,24.0,-995.0
1777580895.159111,init_hover,none,-,0,,,,,,,,90,254294.0,70,62.0,0,-1,3,0,0,0,18.0,22.0,-1000.0
1777580895.2082958,init_hover,none,-,0,,,,,,,,90,254294.0,70,62.0,0,-1,3,0,0,0,18.0,22.0,-1000.0
1777580895.258531,init_hover,none,-,0,,,,,,,,90,254294.0,70,62.0,0,-1,3,0,0,0,18.0,22.0,-1000.0
1777580895.3081448,init_hover,none,-,0,,,,,,,,90,254294.0,70,62.0,0,-1,3,0,0,0,2.0,24.0,-1004.0
1777580895.3573701,init_hover,none,-,0,,,,,,,,90,254294.0,70,62.0,0,-1,3,0,0,0,2.0,24.0,-1004.0
1777580895.406585,init_hover,none,-,0,,,,,,,,90,254290.0,70,62.0,0,-1,3,0,0,0,9.0,9.0,-981.0
1777580901.456619,pre_hover,right,x,1,,,,,,,,90,254294.99999999997,70,63.5,0,-2,3,0,0,0,-9.0,37.0,-993.0
1777580901.5057411,pre_hover,right,x,1,,,,,,,,90,254294.99999999997,70,63.5,0,-2,3,0,0,0,-9.0,37.0,-993.0
1777580901.555541,pre_hover,right,x,1,,,,,,,,90,254287.0,70,63.5,0,-1,3,0,0,0,15.0,0.0,-992.0
1777580901.604533,pre_hover,right,x,1,,,,,,,,90,254287.0,70,63.5,0,-1,3,0,0,0,15.0,0.0,-992.0
1777580901.653383,pre_hover,right,x,1,,,,,,,,80,254283.0,70,63.5,0,-1,3,0,0,0,10.0,18.0,-1004.0
1777580901.7028291,pre_hover,right,x,1,,,,,,,,80,254283.0,70,63.5,0,-1,3,0,0,0,10.0,18.0,-1004.0
1777580901.752447,pre_hover,right,x,1,,,,,,,,80,254285.0,70,63.5,1,-1,3,0,0,0,3.0,30.0,-991.0
1777580901.8028412,pre_hover,right,x,1,,,,,,,,80,254285.0,70,63.5,1,-1,3,0,0,0,3.0,30.0,-991.0
1777580901.8523881,pre_hover,right,x,1,,,,,,,,80,254289.0,70,63.5,1,-1,3,0,0,0,-5.0,27.0,-997.0
1777580901.901782,pre_hover,right,x,1,,,,,,,,80,254289.0,70,63.5,1,-1,3,0,0,0,-5.0,27.0,-997.0
1777580901.951104,pre_hover,right,x,1,,,,,,,,80,254286.0,70,63.5,0,-1,3,0,0,0,9.0,28.0,-998.0
1777580902.000663,pre_hover,right,x,1,,,,,,,,80,254286.0,70,63.5,0,-1,3,0,0,0,9.0,28.0,-998.0
1777580902.0504599,pre_hover,right,x,1,,,,,,,,80,254280.00000000003,70,63.5,1,-1,3,0,0,0,4.0,28.0,-999.0
1777580902.099791,pre_hover,right,x,1,,,,,,,,80,254280.00000000003,70,63.5,1,-1,3,0,0,0,4.0,28.0,-999.0
1777580902.148556,pre_hover,right,x,1,,,,,,,,80,254287.0,70,63.5,1,-1,3,0,0,0,8.0,30.0,-1003.0
1777580902.197976,pre_hover,right,x,1,,,,,,,,80,254287.0,70,63.5,1,-1,3,0,0,0,8.0,30.0,-1003.0
1777580902.246978,pre_hover,right,x,1,,,,,,,,80,254282.00000000003,70,63.5,1,-1,3,0,0,0,9.0,24.0,-1008.0
1777580902.295872,pre_hover,right,x,1,,,,,,,,80,254282.00000000003,70,63.5,1,-1,3,0,0,0,9.0,24.0,-1008.0
1777580902.344938,pre_hover,right,x,1,,,,,,,,80,254286.0,70,63.5,0,-1,3,0,0,0,7.0,11.0,-990.0
1777580902.393949,pre_hover,right,x,1,,,,,,,,80,254286.0,70,63.5,0,-1,3,0,0,0,7.0,11.0,-990.0
1777580902.442909,pre_hover,right,x,1,,,,,,,,80,254296.0,70,63.5,1,-1,3,0,0,0,0.0,32.0,-1013.0
1777580902.4922519,pre_hover,right,x,1,,,,,,,,80,254296.0,70,63.5,1,-1,3,0,0,0,0.0,32.0,-1013.0
1777580902.54176,pre_hover,right,x,1,,,,,,,,80,254288.0,70,63.5,0,-1,3,0,0,0,9.0,20.0,-1002.0
1777580902.591588,pre_hover,right,x,1,,,,,,,,80,254288.0,70,63.5,0,-1,3,0,0,0,9.0,20.0,-1002.0
1777580902.640714,pre_hover,right,x,1,,,,,,,,80,254302.0,70,63.5,0,-1,3,0,0,0,4.0,12.0,-995.0
1777580902.6901178,pre_hover,right,x,1,,,,,,,,80,254302.0,70,63.5,0,-1,3,0,0,0,4.0,12.0,-995.0
1777580902.7392519,pre_hover,right,x,1,,,,,,,,80,254277.0,70,63.5,0,-1,3,0,0,0,4.0,29.0,-1004.0
1777580902.7894552,pre_hover,right,x,1,,,,,,,,80,254277.0,70,63.5,0,-1,3,0,0,0,4.0,29.0,-1004.0
1777580902.839013,pre_hover,right,x,1,,,,,,,,80,254281.0,70,63.5,1,-1,3,0,0,0,-1.0,32.0,-989.0
1777580902.889507,pre_hover,right,x,1,,,,,,,,80,254271.0,70,63.5,1,-2,3,0,0,0,27.0,14.0,-1005.0
1777580902.938576,pre_hover,right,x,1,,,,,,,,80,254271.0,70,63.5,1,-2,3,0,0,0,27.0,14.0,-1005.0
1777580902.9880152,pre_hover,right,x,1,,,,,,,,80,254271.0,70,63.5,1,-2,3,0,0,0,27.0,14.0,-1005.0
1777580903.038391,pre_hover,right,x,1,,,,,,,,80,254283.0,70,63.5,1,-1,3,0,0,0,6.0,17.0,-1000.0
1777580903.088841,pre_hover,right,x,1,,,,,,,,80,254296.0,70,63.5,1,-1,3,0,0,0,11.0,17.0,-1000.0
1777580903.138578,pre_hover,right,x,1,,,,,,,,80,254296.0,70,63.5,1,-1,3,0,0,0,11.0,17.0,-1000.0
1777580903.189139,pre_hover,right,x,1,,,,,,,,80,254296.0,70,63.5,1,-1,3,0,0,0,11.0,17.0,-1000.0
1777580903.238616,pre_hover,right,x,1,,,,,,,,80,254290.0,70,63.5,0,-1,3,0,0,0,14.0,15.0,-1000.0
1777580903.288497,pre_hover,right,x,1,,,,,,,,80,254290.0,70,63.5,0,-1,3,0,0,0,14.0,15.0,-1000.0
1777580903.3386052,pre_hover,right,x,1,,,,,,,,80,254296.99999999997,70,63.0,0,-1,3,0,0,0,9.0,9.0,-992.0
1777580903.388695,pre_hover,right,x,1,,,,,,,,80,254296.99999999997,70,63.0,0,-1,3,0,0,0,9.0,9.0,-992.0
1777580903.438008,pre_hover,right,x,1,,,,,,,,80,254288.0,70,63.0,1,-1,3,0,0,0,4.0,31.0,-1009.0
1777580903.4878788,pre_hover,right,x,1,,,,,,,,80,254288.0,70,63.0,1,-1,3,0,0,0,4.0,31.0,-1009.0
1777580903.5366888,pre_hover,right,x,1,,,,,,,,80,254291.0,70,63.0,0,-1,3,0,0,0,8.0,16.0,-997.0
1777580903.586047,pre_hover,right,x,1,,,,,,,,80,254291.0,70,63.0,0,-1,3,0,0,0,8.0,16.0,-997.0
1777580903.635543,pre_hover,right,x,1,,,,,,,,80,254284.0,70,63.0,0,-1,3,0,0,0,13.0,16.0,-1002.0
1777580903.685369,pre_hover,right,x,1,,,,,,,,80,254284.0,70,63.0,0,-1,3,0,0,0,13.0,16.0,-1002.0
1777580903.7348711,pre_hover,right,x,1,,,,,,,,90,254292.0,70,63.0,0,-1,3,0,0,0,8.0,28.0,-1005.0
1777580903.784703,pre_hover,right,x,1,,,,,,,,90,254292.0,70,63.0,0,-1,3,0,0,0,8.0,28.0,-1005.0
1777580903.834704,pre_hover,right,x,1,,,,,,,,90,254281.0,70,63.0,0,-1,3,0,0,0,18.0,18.0,-987.0
1777580903.884002,pre_hover,right,x,1,,,,,,,,90,254281.0,70,63.0,0,-1,3,0,0,0,18.0,18.0,-987.0
1777580903.935277,pre_hover,right,x,1,,,,,,,,90,254281.0,70,63.0,0,-1,3,0,0,0,18.0,18.0,-987.0
1777580903.98853,pre_hover,right,x,1,,,,,,,,90,254289.0,70,63.0,0,-1,3,0,0,0,13.0,11.0,-993.0
1777580904.038521,pre_hover,right,x,1,,,,,,,,90,254280.00000000003,69,63.0,0,-1,3,0,0,0,28.0,6.0,-983.0
1777580904.0887308,pre_hover,right,x,1,,,,,,,,90,254280.00000000003,69,63.0,0,-1,3,0,0,0,28.0,6.0,-983.0
1777580904.1382651,pre_hover,right,x,1,,,,,,,,90,254289.0,69,63.0,0,-1,3,0,0,0,11.0,14.0,-996.0
1777580904.187802,pre_hover,right,x,1,,,,,,,,90,254289.0,69,63.0,0,-1,3,0,0,0,11.0,14.0,-996.0
1777580904.237105,pre_hover,right,x,1,,,,,,,,90,254290.0,69,63.0,0,-1,3,0,0,0,26.0,7.0,-991.0
1777580904.2863328,pre_hover,right,x,1,,,,,,,,90,254290.0,69,63.0,0,-1,3,0,0,0,26.0,7.0,-991.0
1777580904.3356469,pre_hover,right,x,1,,,,,,,,90,254283.0,69,64.0,0,-1,3,0,0,0,23.0,13.0,-991.0
1777580904.384723,pre_hover,right,x,1,,,,,,,,90,254283.0,69,64.0,0,-1,3,0,0,0,23.0,13.0,-991.0
1777580904.4352682,pre_hover,right,x,1,,,,,,,,90,254283.0,69,64.0,0,-1,3,0,0,0,23.0,13.0,-991.0
1777580904.4841259,response,right,x,1,1777580904.484021,0.0001049041748046875,,,,,,90,254283.0,69,64.0,0,-1,3,0,0,0,17.0,12.0,-991.0
1777580904.533659,response,right,x,1,1777580904.484021,0.04963803291320801,,,,,,90,254283.0,69,64.0,0,-1,3,0,0,0,17.0,12.0,-991.0
1777580904.583169,response,right,x,1,1777580904.484021,0.09914803504943848,,,,,,90,254286.0,69,64.0,1,-1,3,0,0,0,4.0,13.0,-997.0
1777580904.632983,response,right,x,1,1777580904.484021,0.14896202087402344,,,,,,90,254286.0,69,64.0,1,-1,3,0,0,0,4.0,13.0,-997.0
1777580904.682336,response,right,x,1,1777580904.484021,0.19831514358520508,,,,,,90,254296.0,69,64.0,1,-1,3,0,0,0,4.0,6.0,-1032.0
1777580904.731488,response,right,x,1,1777580904.484021,0.247467041015625,,,,,,90,254296.0,69,64.0,1,-1,3,0,0,0,4.0,6.0,-1032.0
1777580904.780802,response,right,x,1,1777580904.484021,0.296781063079834,,,,,,90,254286.0,69,64.0,0,1,3,0,0,0,-1.0,32.0,-973.0
1777580904.8297658,response,right,x,1,1777580904.484021,0.3457448482513428,,,,,,90,254286.0,69,64.0,0,1,3,0,0,0,-1.0,32.0,-973.0
1777580904.8794692,response,right,x,1,1777580904.484021,0.3954482078552246,,,,,,90,254296.0,69,64.0,0,5,3,0,0,0,-2.0,9.0,-984.0
1777580904.929472,response,right,x,1,1777580904.484021,0.445451021194458,,,,,,90,254289.0,69,64.0,0,3,3,0,1,0,6.0,18.0,-1008.0
1777580904.9780521,response,right,x,1,1777580904.484021,0.4940311908721924,,,,,,90,254289.0,69,64.0,0,3,3,0,1,0,6.0,18.0,-1008.0
1777580905.027272,response,right,x,1,1777580904.484021,0.5432510375976562,,,,,,90,254300.0,69,64.0,0,1,3,0,2,0,0.0,9.0,-995.0
1777580905.076512,response,right,x,1,1777580904.484021,0.5924911499023438,,,,,,90,254300.0,69,64.0,0,1,3,0,2,0,0.0,9.0,-995.0
1777580905.126656,response,right,x,1,1777580904.484021,0.6426351070404053,,,,,,90,254300.0,69,64.0,0,0,3,0,2,0,2.0,10.0,-995.0
1777580905.176019,response,right,x,1,1777580904.484021,0.6919980049133301,,,,,,90,254300.0,69,64.0,0,0,3,0,2,0,2.0,10.0,-995.0
1777580905.226259,response,right,x,1,1777580904.484021,0.7422380447387695,,,,,,90,254285.0,69,64.0,0,0,3,0,2,0,16.0,-4.0,-979.0
1777580905.276368,response,right,x,1,1777580904.484021,0.7923469543457031,,,,,,90,254285.0,69,64.0,0,0,3,0,2,0,16.0,-4.0,-979.0
1777580905.325941,response,right,x,1,1777580904.484021,0.8419201374053955,,,,,,90,254286.0,69,64.0,0,0,3,0,2,0,-5.0,0.0,-1004.0
1777580905.375264,response,right,x,1,1777580904.484021,0.8912429809570312,,,,,,90,254286.0,69,64.0,0,0,3,0,2,0,-5.0,0.0,-1004.0
1777580905.42419,response,right,x,1,1777580904.484021,0.940169095993042,,,,,,90,254291.0,69,64.0,0,0,3,0,2,0,-9.0,30.0,-1020.0
1777580905.473106,response,right,x,1,1777580904.484021,0.9890849590301514,,,,,,90,254291.0,69,64.0,0,0,3,0,2,0,-9.0,30.0,-1020.0
1777580905.5221918,response,right,x,1,1777580904.484021,1.0381708145141602,,,,,,90,254290.0,69,64.0,0,0,3,0,2,0,16.0,0.0,-998.0
1777580905.571263,response,right,x,1,1777580904.484021,1.0872421264648438,,,,,,90,254290.0,69,64.0,0,0,3,0,2,0,16.0,0.0,-998.0
1777580905.620592,response,right,x,1,1777580904.484021,1.1365711688995361,,,,,,90,254290.0,69,64.0,0,0,3,0,2,0,16.0,0.0,-998.0
1777580905.6696541,response,right,x,1,1777580904.484021,1.1856331825256348,,,,,,90,254296.0,69,64.0,0,-1,3,0,2,0,7.0,18.0,-1010.0
1777580905.7185469,response,right,x,1,1777580904.484021,1.2345259189605713,,,,,,90,254296.0,69,64.0,0,-1,3,0,2,0,7.0,18.0,-1010.0
1777580905.7674592,response,right,x,1,1777580904.484021,1.2834382057189941,,,,,,90,254296.0,69,64.0,1,-2,3,0,2,0,17.0,15.0,-996.0
1777580905.8166661,response,right,x,1,1777580904.484021,1.3326451778411865,,,,,,90,254296.0,69,64.0,1,-2,3,0,2,0,17.0,15.0,-996.0
1777580905.8662322,response,right,x,1,1777580904.484021,1.3822112083435059,,,,,,90,254288.0,69,64.0,4,-3,3,0,2,0,17.0,-5.0,-1006.0
1777580905.924664,response,right,x,1,1777580904.484021,1.440643072128296,,,,,,90,254288.0,69,64.0,4,-3,3,0,2,0,17.0,-5.0,-1006.0
1777580905.973377,response,right,x,1,1777580904.484021,1.4893560409545898,,,,,,90,254294.99999999997,69,64.0,5,-5,3,0,1,0,2.0,22.0,-1007.0
1777580906.022897,response,right,x,1,1777580904.484021,1.5388760566711426,,,,,,90,254294.99999999997,69,64.0,5,-5,3,0,1,0,2.0,22.0,-1007.0
1777580906.071671,response,right,x,1,1777580904.484021,1.5876500606536865,,,,,,90,254294.99999999997,69,64.0,4,-3,3,-1,1,0,6.0,23.0,-982.0
1777580906.121134,response,right,x,1,1777580904.484021,1.637113094329834,,,,,,90,254294.99999999997,69,64.0,4,-3,3,-1,1,0,6.0,23.0,-982.0
1777580906.1697059,response,right,x,1,1777580904.484021,1.6856849193572998,,,,,,90,254291.0,69,64.0,0,-2,3,-1,0,0,39.0,15.0,-976.0
1777580906.218552,response,right,x,1,1777580904.484021,1.7345311641693115,,,,,,90,254291.0,69,64.0,0,-2,3,-1,0,0,39.0,15.0,-976.0
1777580906.267673,response,right,x,1,1777580904.484021,1.7836520671844482,,,,,,90,254296.99999999997,69,64.0,-4,-2,3,-1,0,0,26.0,19.0,-990.0
1777580906.316324,response,right,x,1,1777580904.484021,1.8323030471801758,,,,,,90,254296.99999999997,69,64.0,-4,-2,3,-1,0,0,26.0,19.0,-990.0
1777580906.36534,response,right,x,1,1777580904.484021,1.8813190460205078,,,,,,90,254289.0,69,64.0,-1,-2,3,0,0,0,-1.0,14.0,-997.0
1777580906.4151099,response,right,x,1,1777580904.484021,1.931088924407959,,,,,,90,254289.0,69,64.0,-1,-2,3,0,0,0,-1.0,14.0,-997.0
1777580906.4632351,response,right,x,1,1777580904.484021,1.9792141914367676,,,,,,90,254289.0,69,64.0,0,-2,3,0,0,0,6.0,19.0,-1008.0
1777580906.5123332,response,right,x,1,1777580904.484021,2.0283122062683105,,,,,,90,254289.0,69,64.0,0,-2,3,0,0,0,6.0,19.0,-1008.0
1777580906.5609238,response,right,x,1,1777580904.484021,2.0769028663635254,,,,,,90,254286.0,69,64.0,0,-1,3,0,0,0,8.0,10.0,-1003.0
1777580906.609913,response,right,x,1,1777580904.484021,2.125892162322998,,,,,,90,254286.0,69,64.0,0,-1,3,0,0,0,8.0,10.0,-1003.0
1777580906.658727,response,right,x,1,1777580904.484021,2.174705982208252,,,,,,90,254289.0,69,64.0,0,-1,3,0,0,0,6.0,16.0,-1000.0
1777580906.7083,response,right,x,1,1777580904.484021,2.2242791652679443,,,,,,90,254289.0,69,64.0,0,-1,3,0,0,0,6.0,16.0,-1000.0
1777580906.757154,response,right,x,1,1777580904.484021,2.2731330394744873,,,,,,90,254292.99999999997,69,64.0,1,-2,3,0,0,0,14.0,16.0,-991.0
1777580906.80613,response,right,x,1,1777580904.484021,2.3221089839935303,,,,,,90,254292.99999999997,69,64.0,1,-2,3,0,0,0,14.0,16.0,-991.0
1777580906.85588,response,right,x,1,1777580904.484021,2.371859073638916,,,,,,90,254298.99999999997,69,64.0,1,-2,3,0,0,0,16.0,8.0,-1012.0
1777580906.9049642,response,right,x,1,1777580904.484021,2.420943260192871,,,,,,90,254298.99999999997,69,64.0,1,-2,3,0,0,0,16.0,8.0,-1012.0
1777580906.953668,response,right,x,1,1777580904.484021,2.469647169113159,,,,,,90,254281.0,69,64.0,1,-2,3,0,0,0,8.0,21.0,-1000.0
1777580907.003197,response,right,x,1,1777580904.484021,2.5191760063171387,,,,,,90,254281.0,69,64.0,1,-2,3,0,0,0,8.0,21.0,-1000.0
1777580907.052199,response,right,x,1,1777580904.484021,2.5681779384613037,,,,,,90,254281.0,68,64.0,1,-2,3,0,0,0,-12.0,25.0,-1008.0
1777580907.1011698,response,right,x,1,1777580904.484021,2.6171488761901855,,,,,,90,254281.0,68,64.0,1,-2,3,0,0,0,-12.0,25.0,-1008.0
1777580907.150149,response,right,x,1,1777580904.484021,2.666128158569336,,,,,,90,254281.0,68,64.0,1,-2,3,0,0,0,-12.0,25.0,-1008.0
1777580907.199797,response,right,x,1,1777580904.484021,2.715775966644287,,,,,,90,254298.0,68,64.0,0,-2,3,0,0,0,-8.0,11.0,-994.0
1777580907.2491121,response,right,x,1,1777580904.484021,2.7650911808013916,,,,,,90,254298.0,68,64.0,0,-2,3,0,0,0,-8.0,11.0,-994.0
1777580907.298301,response,right,x,1,1777580904.484021,2.8142800331115723,,,,,,90,254288.0,68,64.0,0,-2,3,0,0,0,0.0,21.0,-996.0
1777580907.3470771,response,right,x,1,1777580904.484021,2.863056182861328,,,,,,90,254288.0,68,64.0,0,-2,3,0,0,0,0.0,21.0,-996.0
1777580907.395807,response,right,x,1,1777580904.484021,2.9117860794067383,,,,,,90,254294.99999999997,68,64.0,1,-2,3,0,0,0,3.0,34.0,-998.0
1777580907.4452438,response,right,x,1,1777580904.484021,2.9612228870391846,,,,,,90,254294.99999999997,68,64.0,1,-2,3,0,0,0,3.0,34.0,-998.0
1777580907.4953878,response,right,x,1,1777580904.484021,3.011366844177246,,,,,,90,254292.0,68,64.0,1,-2,3,0,0,0,23.0,23.0,-1004.0
1777580907.5447528,response,right,x,1,1777580904.484021,3.060731887817383,,,,,,90,254292.0,68,64.0,1,-2,3,0,0,0,23.0,23.0,-1004.0
1777580907.593931,response,right,x,1,1777580904.484021,3.109910011291504,,,,,,90,254296.0,68,64.0,0,-2,3,0,0,0,13.0,13.0,-993.0
1777580907.6430368,response,right,x,1,1777580904.484021,3.1590158939361572,,,,,,90,254296.0,68,64.0,0,-2,3,0,0,0,13.0,13.0,-993.0
1777580907.6935449,response,right,x,1,1777580904.484021,3.209523916244507,,,,,,90,254287.0,68,64.0,1,-1,3,0,0,0,25.0,18.0,-1006.0
1777580907.742899,response,right,x,1,1777580904.484021,3.258877992630005,,,,,,90,254287.0,68,64.0,1,-1,3,0,0,0,25.0,18.0,-1006.0
1777580907.791896,response,right,x,1,1777580904.484021,3.307875156402588,,,,,,90,254288.0,68,64.0,1,-1,3,0,0,0,18.0,17.0,-996.0
1777580907.8409238,response,right,x,1,1777580904.484021,3.356902837753296,,,,,,90,254288.0,68,64.0,1,-1,3,0,0,0,18.0,17.0,-996.0
1777580907.890244,response,right,x,1,1777580904.484021,3.4062230587005615,,,,,,90,254292.99999999997,68,64.0,1,-1,3,0,0,0,12.0,11.0,-1009.0
1777580907.939967,response,right,x,1,1777580904.484021,3.4559459686279297,,,,,,90,254292.0,68,64.0,1,-1,3,0,0,0,20.0,17.0,-998.0
1777580907.988715,response,right,x,1,1777580904.484021,3.5046939849853516,,,,,,90,254292.0,68,64.0,1,-1,3,0,0,0,20.0,17.0,-998.0
1777580908.037793,response,right,x,1,1777580904.484021,3.55377197265625,,,,,,90,254286.0,68,64.0,1,-1,3,0,0,0,-13.0,24.0,-1020.0
1777580908.088285,response,right,x,1,1777580904.484021,3.6042640209198,,,,,,90,254286.0,68,64.0,1,-1,3,0,0,0,-13.0,24.0,-1020.0
1777580908.1383271,response,right,x,1,1777580904.484021,3.654306173324585,,,,,,90,254294.99999999997,68,64.0,1,-1,3,0,0,0,8.0,20.0,-986.0
1777580908.188236,response,right,x,1,1777580904.484021,3.7042150497436523,,,,,,90,254294.99999999997,68,64.0,1,-1,3,0,0,0,8.0,20.0,-986.0
1777580908.23772,response,right,x,1,1777580904.484021,3.7536990642547607,,,,,,90,254291.0,68,64.0,0,-1,3,0,0,0,9.0,21.0,-1008.0
1777580908.287668,response,right,x,1,1777580904.484021,3.803647041320801,,,,,,90,254291.0,68,64.0,0,-1,3,0,0,0,9.0,21.0,-1008.0
1777580908.336201,response,right,x,1,1777580904.484021,3.852180004119873,,,,,,90,254294.0,68,64.0,0,-1,3,0,0,0,18.0,8.0,-980.0
1777580908.3854022,response,right,x,1,1777580904.484021,3.901381254196167,,,,,,90,254294.0,68,64.0,0,-1,3,0,0,0,18.0,8.0,-980.0
1777580908.434865,response,right,x,1,1777580904.484021,3.9508440494537354,,,,,,90,254291.0,68,64.0,0,-1,3,0,0,0,6.0,32.0,-1001.0
1777580908.4846451,response,right,x,1,1777580904.484021,4.000624179840088,,,,,,90,254291.0,68,64.0,0,-1,3,0,0,0,6.0,32.0,-1001.0
1777580908.533447,response,right,x,1,1777580904.484021,4.049426078796387,,,,,,90,254290.0,68,64.0,0,-1,3,0,0,0,-1.0,16.0,-1003.0
1777580908.584065,response,right,x,1,1777580904.484021,4.100044012069702,,,,,,90,254290.0,68,64.0,0,-1,3,0,0,0,-1.0,16.0,-1003.0
1777580908.6339579,response,right,x,1,1777580904.484021,4.14993691444397,,,,,,90,254287.0,68,64.0,1,-1,3,0,0,0,-5.0,5.0,-1010.0
1777580908.683449,response,right,x,1,1777580904.484021,4.199428081512451,,,,,,90,254287.0,68,64.0,1,-1,3,0,0,0,-5.0,5.0,-1010.0
1777580908.732554,response,right,x,1,1777580904.484021,4.248533010482788,,,,,,90,254291.0,68,64.0,0,-1,3,0,0,0,-6.0,35.0,-1023.0
1777580908.782069,response,right,x,1,1777580904.484021,4.29804801940918,,,,,,90,254291.0,68,64.0,0,-1,3,0,0,0,-6.0,35.0,-1023.0
1777580908.8315089,response,right,x,1,1777580904.484021,4.347487926483154,,,,,,90,254291.0,68,64.0,0,-1,3,0,0,0,-6.0,35.0,-1023.0
1777580908.880408,response,right,x,1,1777580904.484021,4.396387100219727,,,,,,90,254296.0,68,64.0,0,-1,3,0,0,0,26.0,23.0,-994.0
1777580908.928823,response,right,x,1,1777580904.484021,4.4448020458221436,,,,,,90,254296.0,68,64.0,0,-1,3,0,0,0,26.0,23.0,-994.0
1777580908.979167,response,right,x,1,1777580904.484021,4.495146036148071,,,,,,90,254292.0,68,64.0,0,-1,3,0,0,0,4.0,16.0,-998.0
1777580909.028466,response,right,x,1,1777580904.484021,4.544445037841797,,,,,,90,254292.0,68,64.0,0,-1,3,0,0,0,4.0,16.0,-998.0
1777580909.077923,response,right,x,1,1777580904.484021,4.593902111053467,,,,,,90,254288.0,68,64.0,0,-1,3,0,0,0,27.0,11.0,-993.0
1777580909.126495,response,right,x,1,1777580904.484021,4.642473936080933,,,,,,90,254288.0,68,64.0,0,-1,3,0,0,0,27.0,11.0,-993.0
1777580909.176169,response,right,x,1,1777580904.484021,4.692147970199585,,,,,,90,254288.0,68,64.0,0,-1,3,0,0,0,18.0,12.0,-983.0
1777580909.2257001,response,right,x,1,1777580904.484021,4.7416791915893555,,,,,,90,254288.0,68,64.0,0,-1,3,0,0,0,18.0,12.0,-983.0
1777580909.2739909,response,right,x,1,1777580904.484021,4.7899699211120605,,,,,,90,254292.0,68,64.0,1,-1,3,0,0,0,34.0,13.0,-1000.0
1777580909.323752,response,right,x,1,1777580904.484021,4.839730978012085,,,,,,90,254292.0,68,64.0,1,-1,3,0,0,0,34.0,13.0,-1000.0
1777580909.3730948,response,right,x,1,1777580904.484021,4.889073848724365,,,,,,90,254296.99999999997,68,64.0,1,-1,3,0,0,0,3.0,26.0,-996.0
1777580909.422405,response,right,x,1,1777580904.484021,4.938384056091309,,,,,,90,254296.99999999997,68,64.0,1,-1,3,0,0,0,3.0,26.0,-996.0
1777580909.4723148,response,right,x,1,1777580904.484021,4.988293886184692,,,,,,90,254294.0,68,64.0,1,-1,3,0,0,0,21.0,19.0,-1012.0
1777580909.522922,response,right,x,1,1777580904.484021,5.038901090621948,,,,,,90,254294.0,68,64.0,1,-1,3,0,0,0,21.0,19.0,-1012.0
1777580909.572792,response,right,x,1,1777580904.484021,5.088771104812622,,,,,,90,254292.0,68,64.0,1,-1,3,0,0,0,6.0,17.0,-1005.0
1777580909.6229382,response,right,x,1,1777580904.484021,5.1389172077178955,,,,,,90,254292.0,68,64.0,1,-1,3,0,0,0,6.0,17.0,-1005.0
1777580909.6722848,response,right,x,1,1777580904.484021,5.188263893127441,,,,,,90,254291.0,68,64.0,1,-1,3,0,0,0,20.0,26.0,-1001.0
1777580909.721571,response,right,x,1,1777580904.484021,5.2375500202178955,,,,,,90,254291.0,68,64.0,1,-1,3,0,0,0,20.0,26.0,-1001.0
1777580909.770508,response,right,x,1,1777580904.484021,5.286487102508545,,,,,,80,254286.0,68,64.0,0,-1,3,0,0,0,7.0,8.0,-1005.0
1777580909.820124,response,right,x,1,1777580904.484021,5.3361029624938965,,,,,,80,254286.0,68,64.0,0,-1,3,0,0,0,7.0,8.0,-1005.0
1777580909.869906,response,right,x,1,1777580904.484021,5.385885000228882,,,,,,80,254300.0,68,64.0,0,-1,3,0,0,0,36.0,3.0,-998.0
1777580909.919262,response,right,x,1,1777580904.484021,5.435240983963013,,,,,,80,254300.0,68,64.0,0,-1,3,0,0,0,36.0,3.0,-998.0
1777580909.968516,response,right,x,1,1777580904.484021,5.484495162963867,,,,,,80,254298.0,68,64.0,0,-1,3,0,0,0,1.0,20.0,-994.0
1777580910.017328,response,right,x,1,1777580904.484021,5.533307075500488,,,,,,80,254298.0,68,64.0,0,-1,3,0,0,0,1.0,20.0,-994.0
1777580910.06689,response,right,x,1,1777580904.484021,5.582869052886963,,,,,,80,254287.0,67,64.0,0,-1,3,0,0,0,14.0,2.0,-996.0
1777580910.1164658,response,right,x,1,1777580904.484021,5.632444858551025,,,,,,80,254287.0,67,64.0,0,-1,3,0,0,0,14.0,2.0,-996.0
1777580910.166574,response,right,x,1,1777580904.484021,5.682553052902222,,,,,,80,254288.0,67,64.0,0,-1,3,0,0,0,-3.0,25.0,-997.0
1777580910.2168179,response,right,x,1,1777580904.484021,5.732796907424927,,,,,,80,254288.0,67,64.0,0,-1,3,0,0,0,-3.0,25.0,-997.0
1777580910.2662241,response,right,x,1,1777580904.484021,5.782203197479248,,,,,,80,254288.0,67,64.0,0,-1,3,0,0,0,0.0,8.0,-989.0
1777580910.315991,response,right,x,1,1777580904.484021,5.831969976425171,,,,,,80,254288.0,67,64.0,0,-1,3,0,0,0,0.0,8.0,-989.0
1777580910.364476,response,right,x,1,1777580904.484021,5.880455017089844,,,,,,80,254288.0,67,64.0,0,-1,3,0,0,0,0.0,8.0,-989.0
1777580910.413756,response,right,x,1,1777580904.484021,5.929734945297241,,,,,,80,254290.0,67,64.0,0,-1,3,0,0,0,4.0,17.0,-995.0
1777580910.4627268,response,right,x,1,1777580904.484021,5.978705883026123,,,,,,80,254290.0,67,64.0,0,-1,3,0,0,0,4.0,17.0,-995.0
1777580910.5118122,response,right,x,1,1777580904.484021,6.027791261672974,,,,,,80,254296.99999999997,67,64.0,0,-1,3,0,0,0,0.0,20.0,-1016.0
1777580910.561118,response,right,x,1,1777580904.484021,6.077096939086914,,,,,,80,254296.99999999997,67,64.0,0,-1,3,0,0,0,0.0,20.0,-1016.0
1777580910.610739,response,right,x,1,1777580904.484021,6.126718044281006,,,,,,80,254298.99999999997,67,64.0,0,-1,3,0,0,0,12.0,20.0,-1014.0
1777580910.6595578,response,right,x,1,1777580904.484021,6.175536870956421,,,,,,80,254298.99999999997,67,64.0,0,-1,3,0,0,0,12.0,20.0,-1014.0
1777580910.708731,response,right,x,1,1777580904.484021,6.224709987640381,,,,,,80,254294.0,67,64.0,1,-1,3,0,0,0,4.0,36.0,-1001.0
1777580910.758143,response,right,x,1,1777580904.484021,6.274121999740601,,,,,,80,254294.0,67,64.0,1,-1,3,0,0,0,4.0,36.0,-1001.0
1777580910.81112,response,right,x,1,1777580904.484021,6.327099084854126,,,,,,80,254294.99999999997,67,64.0,1,-1,3,0,0,0,8.0,19.0,-986.0
1777580910.859689,response,right,x,1,1777580904.484021,6.375668048858643,,,,,,80,254294.99999999997,67,64.0,1,-1,3,0,0,0,8.0,19.0,-986.0
1777580910.9085162,response,right,x,1,1777580904.484021,6.424495220184326,,,,,,80,254285.0,67,64.0,0,-1,3,0,0,0,24.0,20.0,-1004.0
1777580910.958295,response,right,x,1,1777580904.484021,6.474274158477783,,,,,,80,254298.99999999997,67,64.0,0,-1,3,0,0,0,-7.0,34.0,-1023.0
1777580911.007413,response,right,x,1,1777580904.484021,6.523391962051392,,,,,,80,254298.99999999997,67,64.0,0,-1,3,0,0,0,-7.0,34.0,-1023.0
1777580911.0566819,response,right,x,1,1777580904.484021,6.57266092300415,,,,,,80,254294.99999999997,67,64.0,0,-1,3,0,0,0,15.0,15.0,-997.0
1777580911.106016,response,right,x,1,1777580904.484021,6.621994972229004,,,,,,80,254294.99999999997,67,64.0,0,-1,3,0,0,0,15.0,15.0,-997.0
1777580911.155463,response,right,x,1,1777580904.484021,6.671442031860352,,,,,,80,254301.00000000003,67,64.0,0,-1,3,0,0,0,5.0,20.0,-999.0
1777580911.205268,response,right,x,1,1777580904.484021,6.721246957778931,,,,,,80,254301.00000000003,67,64.0,0,-1,3,0,0,0,5.0,20.0,-999.0
1777580911.255141,response,right,x,1,1777580904.484021,6.771120071411133,,,,,,80,254296.99999999997,67,64.0,0,-1,3,0,0,0,37.0,9.0,-1015.0
1777580911.307128,response,right,x,1,1777580904.484021,6.823107004165649,,,,,,80,254296.99999999997,67,64.0,0,-1,3,0,0,0,37.0,9.0,-1015.0
1777580911.3561559,response,right,x,1,1777580904.484021,6.8721349239349365,,,,,,80,254296.99999999997,67,64.0,0,-1,3,0,0,0,37.0,9.0,-1015.0
1777580911.4051452,response,right,x,1,1777580904.484021,6.921124219894409,,,,,,80,254303.00000000003,67,65.0,1,-1,3,0,0,0,13.0,15.0,-995.0
1777580911.4543738,response,right,x,1,1777580904.484021,6.9703528881073,,,,,,80,254303.00000000003,67,65.0,1,-1,3,0,0,0,13.0,15.0,-995.0
1777580911.5031629,response,right,x,1,1777580904.484021,7.019141912460327,,,,,,80,254288.0,67,65.0,0,-1,3,0,0,0,5.0,2.0,-990.0
1777580911.5534642,response,right,x,1,1777580904.484021,7.069443225860596,,,,,,80,254290.0,67,65.0,1,-1,3,0,0,0,0.0,11.0,-992.0
1777580911.6029382,response,right,x,1,1777580904.484021,7.118917226791382,,,,,,80,254290.0,67,65.0,1,-1,3,0,0,0,0.0,11.0,-992.0
1777580911.6527731,response,right,x,1,1777580904.484021,7.168752193450928,,,,,,80,254292.99999999997,67,65.0,0,-1,3,0,0,0,28.0,11.0,-1000.0
1777580911.702732,response,right,x,1,1777580904.484021,7.2187111377716064,,,,,,80,254292.99999999997,67,65.0,0,-1,3,0,0,0,28.0,11.0,-1000.0
1777580911.752118,response,right,x,1,1777580904.484021,7.268097162246704,,,,,,80,254292.99999999997,67,65.0,0,-1,3,0,0,0,15.0,10.0,-981.0
1777580911.800731,response,right,x,1,1777580904.484021,7.316709995269775,,,,,,80,254292.99999999997,67,65.0,0,-1,3,0,0,0,15.0,10.0,-981.0
1777580911.8500538,response,right,x,1,1777580904.484021,7.366032838821411,,,,,,80,254304.0,67,65.0,0,-1,3,0,0,0,7.0,27.0,-1001.0
1777580911.898776,response,right,x,1,1777580904.484021,7.41475510597229,,,,,,80,254304.0,67,65.0,0,-1,3,0,0,0,7.0,27.0,-1001.0
1777580911.9487512,response,right,x,1,1777580904.484021,7.464730262756348,,,,,,80,254304.0,67,65.0,0,-1,3,0,0,0,7.0,27.0,-1001.0
1777580911.997684,response,right,x,1,1777580904.484021,7.513663053512573,,,,,,80,254288.0,67,65.0,0,-1,3,0,0,0,25.0,13.0,-992.0
1777580912.0465002,response,right,x,1,1777580904.484021,7.562479257583618,,,,,,80,254288.0,67,65.0,0,-1,3,0,0,0,25.0,13.0,-992.0
1777580912.096617,response,right,x,1,1777580904.484021,7.612596035003662,,,,,,80,254287.0,67,65.0,0,-1,3,0,0,0,9.0,17.0,-1008.0
1777580912.1461902,response,right,x,1,1777580904.484021,7.6621692180633545,,,,,,80,254287.0,67,65.0,0,-1,3,0,0,0,9.0,17.0,-1008.0
1777580912.1952572,response,right,x,1,1777580904.484021,7.711236238479614,,,,,,80,254287.0,67,65.0,1,-1,3,0,0,0,14.0,7.0,-1002.0
1777580912.244612,response,right,x,1,1777580904.484021,7.76059103012085,,,,,,80,254287.0,67,65.0,1,-1,3,0,0,0,14.0,7.0,-1002.0
1777580912.294545,response,right,x,1,1777580904.484021,7.810523986816406,,,,,,80,254287.0,67,65.0,1,-1,3,0,0,0,14.0,7.0,-1002.0
1777580912.343955,response,right,x,1,1777580904.484021,7.859934091567993,,,,,,80,254285.0,67,65.0,1,-1,3,0,0,0,29.0,10.0,-1008.0
1777580912.393183,response,right,x,1,1777580904.484021,7.9091620445251465,,,,,,80,254291.0,67,64.5,1,-1,3,0,0,0,17.0,17.0,-1000.0
1777580912.4422889,response,right,x,1,1777580904.484021,7.9582679271698,,,,,,80,254291.0,67,64.5,1,-1,3,0,0,0,17.0,17.0,-1000.0
1777580912.4917781,response,right,x,1,1777580904.484021,8.007757186889648,,,,,,80,254288.0,67,64.5,1,-1,3,0,0,0,18.0,3.0,-988.0
1777580912.540611,response,right,x,1,1777580904.484021,8.05659008026123,,,,,,80,254288.0,67,64.5,1,-1,3,0,0,0,18.0,3.0,-988.0
1777580912.59074,response,right,x,1,1777580904.484021,8.106719017028809,,,,,,80,254291.0,67,64.5,1,-1,3,0,0,0,24.0,7.0,-996.0
1777580912.639636,response,right,x,1,1777580904.484021,8.155615091323853,,,,,,80,254291.0,67,64.5,1,-1,3,0,0,0,24.0,7.0,-996.0
1777580912.689172,response,right,x,1,1777580904.484021,8.205151081085205,,,,,,80,254292.0,67,64.5,1,-1,3,0,0,0,-9.0,22.0,-1009.0
1777580912.737539,response,right,x,1,1777580904.484021,8.253518104553223,,,,,,80,254292.0,67,64.5,1,-1,3,0,0,0,-9.0,22.0,-1009.0
1777580912.787251,response,right,x,1,1777580904.484021,8.303230047225952,,,,,,80,254285.0,67,64.5,1,0,3,0,0,0,-6.0,11.0,-994.0
1777580912.8363469,response,right,x,1,1777580904.484021,8.352325916290283,,,,,,80,254285.0,67,64.5,1,0,3,0,0,0,-6.0,11.0,-994.0
1777580912.885182,response,right,x,1,1777580904.484021,8.401160955429077,,,,,,80,254290.0,67,64.5,0,0,3,0,0,0,24.0,5.0,-993.0
1777580912.934331,response,right,x,1,1777580904.484021,8.450309991836548,,,,,,80,254290.0,67,64.5,0,0,3,0,0,0,24.0,5.0,-993.0
1777580912.984668,response,right,x,1,1777580904.484021,8.500647068023682,,,,,,80,254288.0,67,64.5,0,-1,3,0,0,0,14.0,27.0,-1001.0
1777580913.0339048,response,right,x,1,1777580904.484021,8.549883842468262,,,,,,80,254288.0,67,64.5,0,-1,3,0,0,0,14.0,27.0,-1001.0
1777580913.082146,response,right,x,1,1777580904.484021,8.598124980926514,,,,,,80,254301.00000000003,66,64.5,0,-1,3,0,0,0,2.0,19.0,-997.0
1777580913.1313531,response,right,x,1,1777580904.484021,8.647332191467285,,,,,,80,254301.00000000003,66,64.5,0,-1,3,0,0,0,2.0,19.0,-997.0
1777580913.180688,response,right,x,1,1777580904.484021,8.696666955947876,,,,,,80,254301.00000000003,66,64.5,0,-1,3,0,0,0,2.0,19.0,-997.0
1777580913.2284591,response,right,x,1,1777580904.484021,8.744438171386719,,,,,,80,254294.99999999997,66,64.5,0,-2,3,0,0,0,-1.0,45.0,-1011.0
1777580913.273802,response,right,x,1,1777580904.484021,8.789781093597412,,,,,,80,254294.99999999997,66,64.5,0,-2,3,0,0,0,-1.0,45.0,-1011.0
1777580913.3206851,response,right,x,1,1777580904.484021,8.836664199829102,,,,,,80,254294.99999999997,66,64.5,0,-2,3,0,0,0,-3.0,24.0,-1018.0
1777580913.370431,response,right,x,1,1777580904.484021,8.886409997940063,,,,,,80,254294.99999999997,66,64.5,0,-2,3,0,0,0,-3.0,24.0,-1018.0
1777580913.420888,response,right,x,1,1777580904.484021,8.936866998672485,,,,,,80,254292.99999999997,66,65.0,0,-2,3,0,0,0,5.0,22.0,-984.0
1777580913.4700532,response,right,x,1,1777580904.484021,8.986032247543335,,,,,,80,254292.99999999997,66,65.0,0,-2,3,0,0,0,5.0,22.0,-984.0
1777580913.5204248,response,right,x,1,1777580904.484021,9.036403894424438,,,,,,80,254303.00000000003,66,65.0,0,-2,3,0,0,0,-4.0,31.0,-1011.0
1777580913.5679722,response,right,x,1,1777580904.484021,9.083951234817505,,,,,,80,254303.00000000003,66,65.0,0,-2,3,0,0,0,-4.0,31.0,-1011.0
1777580913.618686,response,right,x,1,1777580904.484021,9.13466501235962,,,,,,90,254302.0,66,65.0,0,-1,3,0,0,0,-27.0,37.0,-1019.0
1777580913.6677492,response,right,x,1,1777580904.484021,9.183728218078613,,,,,,90,254302.0,66,65.0,0,-1,3,0,0,0,-27.0,37.0,-1019.0
1777580913.717437,response,right,x,1,1777580904.484021,9.233416080474854,,,,,,90,254305.00000000003,66,65.0,0,-1,3,0,0,0,0.0,26.0,-1003.0
1777580913.767086,response,right,x,1,1777580904.484021,9.2830650806427,,,,,,90,254305.00000000003,66,65.0,0,-1,3,0,0,0,0.0,26.0,-1003.0
1777580913.8161721,response,right,x,1,1777580904.484021,9.332151174545288,,,,,,90,254300.0,66,65.0,0,-1,3,0,0,0,-5.0,25.0,-997.0
1777580913.865917,response,right,x,1,1777580904.484021,9.381896018981934,,,,,,90,254300.0,66,65.0,0,-1,3,0,0,0,-5.0,25.0,-997.0
1777580913.9153202,response,right,x,1,1777580904.484021,9.431299209594727,,,,,,90,254303.00000000003,66,65.0,0,-1,3,0,0,0,13.0,27.0,-965.0
1777580913.9651608,response,right,x,1,1777580904.484021,9.481139898300171,,,,,,90,254303.00000000003,66,65.0,0,-1,3,0,0,0,13.0,27.0,-965.0
1777580914.014441,response,right,x,1,1777580904.484021,9.530420064926147,,,,,,90,254298.0,66,65.0,0,-1,3,0,0,0,15.0,15.0,-999.0
1777580914.0630558,response,right,x,1,1777580904.484021,9.579034805297852,,,,,,90,254298.0,66,65.0,0,-1,3,0,0,0,15.0,15.0,-999.0
1777580914.11247,response,right,x,1,1777580904.484021,9.628448963165283,,,,,,90,254298.99999999997,66,65.0,0,-1,3,0,0,0,21.0,23.0,-1000.0
1777580914.161552,response,right,x,1,1777580904.484021,9.677531003952026,,,,,,90,254298.99999999997,66,65.0,0,-1,3,0,0,0,21.0,23.0,-1000.0
1777580914.211176,response,right,x,1,1777580904.484021,9.727154970169067,,,,,,90,254305.00000000003,66,65.0,0,-1,3,0,0,0,7.0,18.0,-999.0
1777580914.2603772,response,right,x,1,1777580904.484021,9.776356220245361,,,,,,90,254305.00000000003,66,65.0,0,-1,3,0,0,0,7.0,18.0,-999.0
1777580914.309612,response,right,x,1,1777580904.484021,9.825591087341309,,,,,,90,254301.00000000003,66,65.0,0,-1,3,0,0,0,17.0,18.0,-1001.0
1777580914.35837,response,right,x,1,1777580904.484021,9.874349117279053,,,,,,90,254301.00000000003,66,65.0,0,-1,3,0,0,0,17.0,18.0,-1001.0
1777580914.4074712,response,right,x,1,1777580904.484021,9.923450231552124,,,,,,90,254294.0,66,65.0,0,-1,3,0,0,0,38.0,1.0,-985.0
1777580914.4562209,response,right,x,1,1777580904.484021,9.9721999168396,,,,,,90,254294.0,66,65.0,0,-1,3,0,0,0,38.0,1.0,-985.0
1777580914.504936,recovery,right,x,1,,,,,,,,90,254300.0,66,65.0,0,-1,3,0,0,0,1.0,38.0,-1001.0
1777580914.554362,recovery,right,x,1,,,,,,,,90,254300.0,66,65.0,0,-1,3,0,0,0,1.0,38.0,-1001.0
1777580914.6027179,recovery,right,x,1,,,,,,,,90,254300.0,66,65.0,0,-1,3,0,0,0,1.0,38.0,-1001.0
1777580914.652839,recovery,right,x,1,,,,,,,,90,254298.0,66,65.0,0,-1,3,0,0,0,-17.0,36.0,-1003.0
1777580914.7020302,recovery,right,x,1,,,,,,,,90,254298.0,66,65.0,0,-1,3,0,0,0,-17.0,36.0,-1003.0
1777580914.751622,recovery,right,x,1,,,,,,,,90,254306.0,66,65.0,0,-2,3,0,0,0,2.0,23.0,-983.0
1777580914.800949,recovery,right,x,1,,,,,,,,90,254306.0,66,65.0,0,-2,3,0,0,0,2.0,23.0,-983.0
1777580914.850741,recovery,right,x,1,,,,,,,,90,254304.0,66,65.0,0,-4,3,0,0,0,4.0,31.0,-1015.0
1777580914.90027,recovery,right,x,1,,,,,,,,90,254304.0,66,65.0,0,-4,3,0,0,0,4.0,31.0,-1015.0
1777580914.9500601,recovery,right,x,1,,,,,,,,90,254292.99999999997,66,65.0,0,-5,3,0,-1,0,40.0,14.0,-1013.0
1777580914.999511,recovery,right,x,1,,,,,,,,90,254302.0,66,65.0,0,-4,3,0,-1,0,8.0,32.0,-1021.0
1777580915.048716,recovery,right,x,1,,,,,,,,90,254302.0,66,65.0,0,-4,3,0,-1,0,8.0,32.0,-1021.0
1777580915.0978901,recovery,right,x,1,,,,,,,,90,254306.0,66,65.0,0,-3,3,0,-2,0,18.0,2.0,-971.0
1777580915.1460469,recovery,right,x,1,,,,,,,,90,254306.0,66,65.0,0,-3,3,0,-2,0,18.0,2.0,-971.0
1777580915.195078,recovery,right,x,1,,,,,,,,90,254298.99999999997,66,65.0,0,-2,3,0,-2,0,27.0,17.0,-1006.0
1777580915.2420428,recovery,right,x,1,,,,,,,,90,254298.99999999997,66,65.0,0,-2,3,0,-2,0,27.0,17.0,-1006.0
1777580915.289001,recovery,right,x,1,,,,,,,,90,254292.0,66,65.0,0,-2,3,0,-2,0,15.0,7.0,-1002.0
1777580915.335816,recovery,right,x,1,,,,,,,,90,254292.0,66,65.0,0,-2,3,0,-2,0,15.0,7.0,-1002.0
1777580915.38466,recovery,right,x,1,,,,,,,,90,254307.00000000003,66,65.5,0,-2,3,0,-2,0,-13.0,35.0,-1009.0
1777580915.433376,recovery,right,x,1,,,,,,,,90,254307.00000000003,66,65.5,0,-2,3,0,-2,0,-13.0,35.0,-1009.0
1777580915.483018,recovery,right,x,1,,,,,,,,90,254298.0,66,65.5,0,-2,3,0,-2,0,-8.0,36.0,-1000.0
