timestamp,phase,command,axis,repeat,t_send,t_since_cmd,marker_id,n_markers,pos_x,pos_y,pos_z,marker_dist,tello_height_cm,tello_baro_cm,tello_battery,tello_temp_c,tello_pitch,tello_roll,tello_yaw,tello_vgx,tello_vgy,tello_vgz,tello_agx,tello_agy,tello_agz
1777586610.801483,init_hover,none,-,0,,,2,1,0.6620607861409795,1.375298364344287,3.0952742422218367,3.2628411616746313,150,255117.99999999997,84,83.0,0,0,0,0,0,-1,5.0,-4.0,-966.0
1777586610.992291,init_hover,none,-,0,,,2,1,0.6490506806534281,1.385968658828049,3.106515808399333,3.278069567409448,150,255111.0,84,83.0,0,0,0,0,0,0,16.0,4.0,-970.0
1777586611.042546,init_hover,none,-,0,,,2,1,0.6715970584291706,1.340172033761986,3.1258598915084037,3.2806663967007452,150,255110.0,84,83.0,0,0,0,0,0,0,-3.0,21.0,-954.0
1777586611.093835,init_hover,none,-,0,,,2,1,0.6500752281932787,1.3854527837026231,3.1079804188699023,3.279193013366241,150,255110.0,84,83.0,0,0,0,0,0,0,-3.0,21.0,-954.0
1777586611.143324,init_hover,none,-,0,,,2,1,0.6448796094681277,1.386792041184908,3.10742332875998,3.2796263153656913,150,255119.99999999997,84,83.0,0,0,0,0,0,0,3.0,-1.0,-964.0
1777586611.192957,init_hover,none,-,0,,,2,1,0.6462675582824329,1.3925706260537227,3.118851476882286,3.2920445961254785,150,255119.99999999997,84,83.0,0,0,0,0,0,0,3.0,-1.0,-964.0
1777586611.242625,init_hover,none,-,0,,,2,1,0.5953888638172504,1.3716189395134246,3.1263773736339746,3.2987859914694004,150,255117.99999999997,84,83.0,0,0,0,0,0,0,-17.0,36.0,-999.0
1777586611.292115,init_hover,none,-,0,,,2,1,0.6240246132364403,1.4276723604347104,3.090343087147467,3.2783667226430904,150,255117.99999999997,84,83.0,0,0,0,0,0,0,-17.0,36.0,-999.0
1777586611.351973,init_hover,none,-,0,,,2,1,0.6421581249651744,1.3876130083442058,3.1209962921996164,3.2930302333417596,150,255121.99999999997,84,83.5,0,0,0,0,0,0,-15.0,1.0,-965.0
1777586611.401553,init_hover,none,-,0,,,2,1,0.6373480430631359,1.3910315053290234,3.1317798656173372,3.304800298521984,150,255121.99999999997,84,83.5,0,0,0,0,0,0,-15.0,1.0,-965.0
1777586611.4513779,init_hover,none,-,0,,,2,1,0.6362330800149136,1.3887658066458846,3.132603322150489,3.305024624176922,150,255109.0,84,83.5,0,0,0,0,0,0,17.0,20.0,-1044.0
1777586611.501337,init_hover,none,-,0,,,2,1,0.6344394866320027,1.388251240816206,3.1332121125396992,3.3056456473848086,150,255109.0,84,83.5,0,0,0,0,0,0,17.0,20.0,-1044.0
1777586611.551758,init_hover,none,-,0,,,2,1,0.6333392005305964,1.3859682060164253,3.134060398669469,3.3058898995052792,150,255121.99999999997,84,83.5,0,0,0,0,0,0,10.0,25.0,-970.0
1777586611.601526,init_hover,none,-,0,,,2,1,0.5817139652490162,1.3646774858006996,3.1408312183264013,3.312157393677445,150,255121.99999999997,84,83.5,0,0,0,0,0,0,10.0,25.0,-970.0
1777586611.652433,init_hover,none,-,0,,,2,1,0.5833152844150329,1.3690099298884588,3.1531180168739263,3.324869865838289,150,255117.0,84,83.5,0,0,0,0,0,0,-18.0,24.0,-984.0
1777586611.7027352,init_hover,none,-,0,,,2,1,0.629256053496897,1.3846583155806784,3.1476363634156783,3.318827767240649,150,255117.0,84,83.5,0,0,0,0,0,0,-18.0,24.0,-984.0
1777586611.753922,init_hover,none,-,0,,,2,1,0.5774268262326306,1.3665652523226761,3.153272881880367,3.3250483217221882,150,255119.0,84,83.5,-1,0,0,0,0,0,-2.0,-4.0,-1013.0
1777586611.804158,init_hover,none,-,0,,,2,1,0.6056799352983355,1.4268050650546944,3.1290749037950074,3.3167644939923058,150,255119.0,84,83.5,-1,0,0,0,0,0,-2.0,-4.0,-1013.0
1777586611.8552089,init_hover,none,-,0,,,2,1,0.574584659238885,1.3600351098859633,3.156018604256436,3.3261237281227816,150,255112.0,84,83.5,-1,0,0,0,0,0,22.0,14.0,-1000.0
1777586611.9047308,init_hover,none,-,0,,,2,1,0.5779276709646202,1.3616381431708584,3.1561601090992957,3.326295176860906,150,255112.0,84,83.5,-1,0,0,0,0,0,22.0,14.0,-1000.0
1777586611.954876,init_hover,none,-,0,,,2,1,0.6048606439418136,1.428991655552596,3.142799241906298,3.330487353651076,150,255111.0,84,83.5,-1,0,0,0,0,0,28.0,-6.0,-1028.0
1777586612.006125,init_hover,none,-,0,,,2,1,0.569162110790592,1.36353243764023,3.1680009791490034,3.339198444095886,150,255111.0,84,83.5,-1,0,0,0,0,0,28.0,-6.0,-1028.0
1777586612.0556648,init_hover,none,-,0,,,2,1,0.521110630516953,1.341089820840819,3.1612793035644584,3.332967433720147,150,255115.0,84,83.5,-1,0,0,0,0,0,6.0,-3.0,-957.0
1777586612.106184,init_hover,none,-,0,,,2,1,0.568523775924366,1.3613183780496314,3.169386110644683,3.3399570467696096,150,255115.0,84,83.5,-1,0,0,0,0,0,6.0,-3.0,-957.0
1777586612.156364,init_hover,none,-,0,,,2,1,0.583269390279627,1.316469936359918,3.201043874001386,3.355631599060193,150,255111.0,84,83.5,-1,0,0,0,0,0,-17.0,18.0,-1007.0
1777586612.206461,init_hover,none,-,0,,,2,1,0.5643046368885576,1.3600827040968713,3.170124675436212,3.3408501471859404,150,255111.0,84,83.5,-1,0,0,0,0,0,-17.0,18.0,-1007.0
1777586612.256808,init_hover,none,-,0,,,2,1,0.5852236795947307,1.3134986489344662,3.2031640007054563,3.3566022691092576,150,255116.0,84,83.5,-1,0,0,0,0,0,-15.0,39.0,-1010.0
1777586612.3069398,init_hover,none,-,0,,,2,1,0.5640660390472411,1.363889435467417,3.1833696294384795,3.3545437036576136,150,255116.0,84,83.5,-1,0,0,0,0,0,-15.0,39.0,-1010.0
1777586612.35599,init_hover,none,-,0,,,2,1,0.5088126042133299,1.340434908680471,3.174652322986566,3.34725264165831,150,255117.99999999997,83,82.0,-1,0,0,0,0,0,-18.0,19.0,-1032.0
1777586612.4055722,init_hover,none,-,0,,,2,1,0.6094274162113977,1.3835453747731066,3.1906233961483146,3.361545195813062,150,255117.99999999997,83,82.0,-1,0,0,0,0,0,-18.0,19.0,-1032.0
1777586612.4560661,init_hover,none,-,0,,,2,1,0.5041942793129215,1.3437020336911898,3.187116210949696,3.360670555582214,150,255103.00000000003,83,82.0,-1,0,0,0,0,0,-14.0,27.0,-1026.0
1777586612.506154,init_hover,none,-,0,,,2,1,0.519193288084579,1.2965034518287513,3.2055645960264614,3.3631143175131695,150,255103.00000000003,83,82.0,-1,0,0,0,0,0,-14.0,27.0,-1026.0
1777586612.557303,init_hover,none,-,0,,,2,1,0.5907572372324513,1.4270360564985776,3.159783292886442,3.3476130538385185,150,255105.00000000003,83,82.0,-1,0,0,0,0,0,-3.0,-8.0,-1025.0
1777586612.607896,init_hover,none,-,0,,,2,1,0.5196008834507182,1.2964822757947219,3.206186226027052,3.363642950427558,150,255105.00000000003,83,82.0,-1,0,0,0,0,0,-3.0,-8.0,-1025.0
1777586612.658314,init_hover,none,-,0,,,2,1,0.53297121769869,1.2472068165213155,3.237167826645436,3.3786285400035267,150,255106.0,83,82.0,0,0,0,0,0,0,-1.0,31.0,-973.0
1777586612.708763,init_hover,none,-,0,,,2,1,0.5720137382648314,1.3153557726593537,3.216619991493364,3.371600895783725,150,255106.0,83,82.0,0,0,0,0,0,0,-1.0,31.0,-973.0
1777586612.759112,init_hover,none,-,0,,,2,1,0.5720137382648314,1.3153557726593537,3.216619991493364,3.371600895783725,150,255111.0,83,82.0,-1,0,0,0,0,0,9.0,9.0,-982.0
1777586612.809366,init_hover,none,-,0,,,2,1,0.5400250439214405,1.4120685645616717,3.164597605818608,3.354182127784098,150,255111.0,83,82.0,-1,0,0,0,0,0,9.0,9.0,-982.0
1777586612.85933,init_hover,none,-,0,,,2,1,0.5564557706378654,1.36612791451764,3.197440073674489,3.3695337445038556,150,255111.0,83,82.0,-1,0,0,0,0,0,9.0,9.0,-982.0
1777586612.9094558,init_hover,none,-,0,,,2,1,0.5400250439214405,1.4120685645616717,3.164597605818608,3.354182127784098,150,255113.0,83,82.0,0,0,0,0,0,0,-7.0,9.0,-1006.0
1777586612.959697,init_hover,none,-,0,,,2,1,0.5551132287583738,1.3705175360304986,3.1955734226945656,3.369201393030753,150,255113.0,83,82.0,0,0,0,0,0,0,-7.0,9.0,-1006.0
1777586613.010509,init_hover,none,-,0,,,2,1,0.5400250439214405,1.4120685645616717,3.164597605818608,3.354182127784098,150,255112.0,83,82.0,-1,0,0,0,0,0,-6.0,32.0,-1020.0
1777586613.061376,init_hover,none,-,0,,,2,1,0.5576415118820781,1.3639831632044004,3.1850190486382615,3.3569764537661135,150,255112.0,83,82.0,-1,0,0,0,0,0,-6.0,32.0,-1020.0
1777586613.111302,init_hover,none,-,0,,,2,1,0.5878783745754739,1.4327419915704085,3.171573396795348,3.360844844165727,150,255100.0,83,82.0,0,0,0,0,0,0,4.0,1.0,-964.0
1777586613.161352,init_hover,none,-,0,,,2,1,0.5878783745754739,1.4327419915704085,3.171573396795348,3.360844844165727,150,255113.0,83,82.0,0,0,0,0,0,0,19.0,7.0,-966.0
1777586613.211052,init_hover,none,-,0,,,2,1,0.5525190233679437,1.3669410431552196,3.1958375126432284,3.3687670760388495,150,255113.0,83,82.0,0,0,0,0,0,0,19.0,7.0,-966.0
1777586613.261923,init_hover,none,-,0,,,2,1,0.5525190233679437,1.3669410431552196,3.1958375126432284,3.3687670760388495,150,255113.0,83,82.0,0,0,0,0,0,0,-23.0,12.0,-989.0
1777586613.3126268,init_hover,none,-,0,,,2,1,0.5558545029211649,1.3585725616475512,3.18549009111386,3.3561099056949173,150,255113.0,83,82.0,0,0,0,0,0,0,-23.0,12.0,-989.0
1777586613.36321,init_hover,none,-,0,,,2,1,0.5379499206266876,1.406809445093657,3.1651069984490205,3.3533651525310586,150,255113.0,83,82.0,0,0,0,0,0,0,-23.0,12.0,-989.0
1777586613.413725,init_hover,none,-,0,,,2,1,0.6080815925138622,1.3846095996500702,3.1905445021297565,3.36193847681958,150,255109.0,83,82.5,-1,0,0,0,0,0,-12.0,26.0,-979.0
1777586613.463116,init_hover,none,-,0,,,2,1,0.5551804551196937,1.3657098743270732,3.1954855229018446,3.367727381477843,150,255109.0,83,82.5,-1,0,0,0,0,0,-12.0,26.0,-979.0
1777586613.513081,init_hover,none,-,0,,,2,1,0.5217367868077094,1.2978194847229785,3.2186048014336017,3.3755343867382956,150,255115.0,83,82.5,-1,0,0,0,0,0,23.0,9.0,-1068.0
1777586613.563464,init_hover,none,-,0,,,2,1,0.5080992138302416,1.3438491926651746,3.1875717158660404,3.360570059635463,150,255115.0,83,82.5,-1,0,0,0,0,0,23.0,9.0,-1068.0
1777586613.614075,init_hover,none,-,0,,,2,1,0.5583661056260975,1.3645838167857813,3.1956803302550494,3.3671702079704713,150,255113.0,83,82.5,0,0,0,0,0,0,-13.0,23.0,-1017.0
1777586613.663966,init_hover,none,-,0,,,2,1,0.5583661056260975,1.3645838167857813,3.1956803302550494,3.3671702079704713,150,255113.0,83,82.5,0,0,0,0,0,0,-13.0,23.0,-1017.0
1777586613.7146602,init_hover,none,-,0,,,2,1,0.5578271532888595,1.364491565252792,3.195133148454808,3.366695210761905,150,255116.0,83,82.5,0,0,0,0,0,0,-4.0,4.0,-1002.0
1777586613.765152,init_hover,none,-,0,,,2,1,0.5902172901165252,1.4272744732588905,3.1708197421505937,3.358171012610992,150,255116.0,83,82.5,0,0,0,0,0,0,-4.0,4.0,-1002.0
1777586613.815992,init_hover,none,-,0,,,2,1,0.5955602460242049,1.4294807395194131,3.170235716270991,3.357647480656312,150,255116.0,83,82.5,0,0,0,0,0,0,0.0,-8.0,-1007.0
1777586613.867004,init_hover,none,-,0,,,2,1,0.5454986967027149,1.4112341074813108,3.1756571668493208,3.363623685282572,150,255116.0,83,82.5,0,0,0,0,0,0,0.0,-8.0,-1007.0
1777586613.917736,init_hover,none,-,0,,,2,1,0.6190723095162346,1.3811385956695759,3.190209112384668,3.359341160113384,150,255119.99999999997,83,82.5,0,0,0,0,0,0,0.0,4.0,-1018.0
1777586613.968829,init_hover,none,-,0,,,2,1,0.5656413821068511,1.3655403253416551,3.194187265430167,3.3650806551158867,150,255119.99999999997,83,82.5,0,0,0,0,0,0,0.0,4.0,-1018.0
1777586614.019572,init_hover,none,-,0,,,2,1,0.5472473210475126,1.4039276218736765,3.1633691582629626,3.3495910332022496,150,255117.0,83,82.5,0,0,0,0,0,0,3.0,28.0,-1021.0
1777586614.0700648,init_hover,none,-,0,,,2,1,0.565478069035233,1.362794441116153,3.194303648526246,3.3644253957134493,150,255121.99999999997,83,82.5,0,0,0,0,0,0,-53.0,39.0,-997.0
1777586614.121493,init_hover,none,-,0,,,2,1,0.5523676324121795,1.4024375944321115,3.164115721445559,3.349161710927388,150,255121.99999999997,83,82.5,0,0,0,0,0,0,-53.0,39.0,-997.0
1777586614.171726,init_hover,none,-,0,,,2,1,0.5970030873786618,1.4258077286779431,3.1691729997520772,3.35534581081523,150,255116.0,83,82.5,-1,0,0,0,0,0,-8.0,12.0,-986.0
1777586614.223043,init_hover,none,-,0,,,2,1,0.5726073524118873,1.3584529997860773,3.1826113478988414,3.3511657105827797,150,255116.0,83,82.5,-1,0,0,0,0,0,-8.0,12.0,-986.0
1777586614.273309,init_hover,none,-,0,,,2,1,0.5714913570157466,1.360673603054496,3.1949924003186094,3.3637018100318556,150,255110.0,83,82.5,-1,0,0,0,0,0,13.0,-2.0,-993.0
1777586614.323474,init_hover,none,-,0,,,2,1,0.5195079827917737,1.3409464382480638,3.1856570551986345,3.356287182526159,150,255110.0,83,82.5,-1,0,0,0,0,0,13.0,-2.0,-993.0
1777586614.374034,init_hover,none,-,0,,,2,1,0.5325680681896955,1.2895492138787077,3.204313217786555,3.358186059834947,150,255112.0,82,82.5,0,0,0,0,0,0,-4.0,18.0,-1008.0
1777586614.424255,init_hover,none,-,0,,,2,1,0.5325680681896955,1.2895492138787077,3.204313217786555,3.358186059834947,150,255112.0,82,82.5,0,0,0,0,0,0,-4.0,18.0,-1008.0
1777586614.4752462,init_hover,none,-,0,,,2,1,0.5058388524958845,1.383646181647543,3.1547782700853144,3.3413142599544363,150,255117.99999999997,82,82.5,0,0,0,0,0,0,-7.0,1.0,-1001.0
1777586614.525785,init_hover,none,-,0,,,2,1,0.5349892957600946,1.2901052029235895,3.2043676107075085,3.358049137800203,150,255117.99999999997,82,82.5,0,0,0,0,0,0,-7.0,1.0,-1001.0
1777586614.576658,init_hover,none,-,0,,,2,1,0.5870110026112945,1.3165484831090293,3.211374158656515,3.3650475510370472,150,255112.0,82,82.5,0,0,0,0,0,0,16.0,6.0,-1048.0
1777586614.62752,init_hover,none,-,0,,,2,1,0.5707850289375698,1.3611768248652685,3.1804407235062913,3.3501178450585023,150,255112.0,82,82.5,0,0,0,0,0,0,16.0,6.0,-1048.0
1777586614.677855,init_hover,none,-,0,,,2,1,0.590256557898895,1.3101184828476597,3.200937156134941,3.352939608566046,150,255106.0,82,82.5,0,0,0,0,0,0,1.0,-2.0,-1020.0
1777586614.727954,init_hover,none,-,0,,,2,1,0.5338558262114887,1.291987172332639,3.2035009348593224,3.357878756895118,150,255106.0,82,82.5,0,0,0,0,0,0,1.0,-2.0,-1020.0
1777586614.77879,init_hover,none,-,0,,,2,1,0.5707850289375698,1.3611768248652685,3.1804407235062913,3.3501178450585023,150,255104.0,82,82.5,0,0,0,0,0,0,-16.0,3.0,-982.0
1777586614.829303,init_hover,none,-,0,,,2,1,0.5711198953948995,1.357383389306634,3.1818141701505587,3.350292899377192,150,255104.0,82,82.5,0,0,0,0,0,0,-16.0,3.0,-982.0
1777586614.879733,init_hover,none,-,0,,,2,1,0.5554752732663064,1.4024441838093349,3.149776650096455,3.3352045694115486,150,255106.0,82,82.5,0,0,0,0,0,0,23.0,15.0,-1023.0
1777586614.929406,init_hover,none,-,0,,,2,1,0.5711198953948995,1.357383389306634,3.1818141701505587,3.350292899377192,150,255106.0,82,82.5,0,0,0,0,0,0,23.0,15.0,-1023.0
1777586614.979769,init_hover,none,-,0,,,2,1,0.5773896008893593,1.3521090986893056,3.1711946224561594,3.337901529215366,150,255104.0,82,82.5,0,0,0,0,0,0,-4.0,21.0,-996.0
1777586615.02976,init_hover,none,-,0,,,2,1,0.5773896008893593,1.3521090986893056,3.1711946224561594,3.337901529215366,150,255104.0,82,82.5,0,0,0,0,0,0,-4.0,21.0,-996.0
1777586615.0797818,init_hover,none,-,0,,,2,1,0.5762506050634966,1.3595908679370416,3.181338595962341,3.34981991242766,150,255116.0,82,82.5,0,0,0,0,0,0,-22.0,20.0,-993.0
1777586615.129761,init_hover,none,-,0,,,2,1,0.5929557553386496,1.308871450685482,3.2005933351386444,3.351944216110551,150,255116.0,82,82.5,0,0,0,0,0,0,-22.0,20.0,-993.0
1777586615.1809971,init_hover,none,-,0,,,2,1,0.5423780366254347,1.2860525675401353,3.1927582250218096,3.3448784876661324,150,255111.0,82,82.5,0,0,0,0,0,0,-18.0,20.0,-948.0
1777586615.23223,init_hover,none,-,0,,,2,1,0.5393079847925941,1.2867698920657369,3.191343293161053,3.344139648572436,150,255111.0,82,82.5,0,0,0,0,0,0,-18.0,20.0,-948.0
1777586615.283572,init_hover,none,-,0,,,2,1,0.5765863373486971,1.3518672108956267,3.1698156206549286,3.3366242500236676,150,255117.99999999997,82,82.5,0,0,0,0,0,0,-7.0,31.0,-1009.0
1777586615.334943,init_hover,none,-,0,,,2,1,0.6101481392066317,1.4175118068275427,3.1446945012312426,3.3281253366529806,150,255117.99999999997,82,82.5,0,0,0,0,0,0,-7.0,31.0,-1009.0
1777586615.387181,init_hover,none,-,0,,,2,1,0.5760298582842129,1.3517312222471256,3.1693250396714223,3.3361900736550933,150,255112.0,82,81.5,0,0,0,0,0,0,-8.0,29.0,-987.0
1777586615.4380171,init_hover,none,-,0,,,2,1,0.5292148533974713,1.3295072699414057,3.162118905547246,3.3293570538400963,150,255112.0,82,81.5,0,0,0,0,0,0,-8.0,29.0,-987.0
1777586615.488364,init_hover,none,-,0,,,2,1,0.5292148533974713,1.3295072699414057,3.162118905547246,3.3293570538400963,150,255113.0,82,81.5,0,0,0,0,0,0,-18.0,23.0,-1014.0
1777586615.539331,init_hover,none,-,0,,,2,1,0.544977350718429,1.2846987093761486,3.192506208823261,3.3439248363421856,150,255113.0,82,81.5,0,0,0,0,0,0,-18.0,23.0,-1014.0
1777586615.589484,init_hover,none,-,0,,,2,1,0.544977350718429,1.2846987093761486,3.192506208823261,3.3439248363421856,150,255115.0,82,81.5,0,0,0,0,0,0,-8.0,13.0,-984.0
1777586615.6399622,init_hover,none,-,0,,,2,1,0.5760298582842129,1.3517312222471256,3.1693250396714223,3.3361900736550933,150,255115.0,82,81.5,0,0,0,0,0,0,-8.0,13.0,-984.0
1777586615.690241,init_hover,none,-,0,,,2,1,0.544977350718429,1.2846987093761486,3.192506208823261,3.3439248363421856,150,255117.0,82,81.5,0,0,0,0,0,0,-17.0,32.0,-1008.0
1777586615.7403378,init_hover,none,-,0,,,2,1,0.5760298582842129,1.3517312222471256,3.1693250396714223,3.3361900736550933,150,255117.0,82,81.5,0,0,0,0,0,0,-17.0,32.0,-1008.0
1777586615.789983,init_hover,none,-,0,,,2,1,0.6283892781188676,1.3710570140466425,3.163787819163256,3.330255188094748,150,255104.0,82,81.5,0,0,0,0,0,0,14.0,7.0,-1029.0
1777586615.859256,recenter,right,-,1,,,2,,0.6101481392066317,1.4175118068275427,3.1446945012312426,3.3281253366529806,150,255104.0,82,81.5,0,0,0,0,0,0,14.0,7.0,-1029.0
1777586615.910261,recenter,right,-,1,,,2,,0.5937347798290868,1.307016374285483,3.200879002055337,3.351619984148154,150,255107.00000000003,82,81.5,0,0,0,0,0,0,-13.0,-1.0,-987.0
1777586615.95978,recenter,right,-,1,,,2,,0.5609754019952937,1.3958774454589498,3.1391746065285933,3.3224887801617906,150,255107.00000000003,82,81.5,0,0,0,0,0,0,-13.0,-1.0,-987.0
1777586616.0106812,recenter,right,-,1,,,2,,0.5609754019952937,1.3958774454589498,3.1391746065285933,3.3224887801617906,150,255113.0,82,81.5,0,0,0,0,0,0,18.0,5.0,-1013.0
1777586616.060884,recenter,right,-,1,,,2,,0.5792276776091482,1.3481742848271052,3.159286049545366,3.3252326481841155,150,255113.0,82,81.5,0,0,0,0,0,0,18.0,5.0,-1013.0
1777586616.111815,recenter,right,-,1,,,2,,0.5740362574989817,1.3530317815569348,3.1701667306083054,3.3376146851364994,150,255117.99999999997,82,81.5,0,0,0,0,0,0,23.0,3.0,-1028.0
1777586616.16205,recenter,right,-,1,,,2,,0.5942150513320767,1.307790951127134,3.2024073027082127,3.3532310340852787,150,255117.99999999997,82,81.5,0,0,0,0,0,0,23.0,3.0,-1028.0
1777586616.2124119,recenter,right,-,1,,,2,,0.5397642925413324,1.2874197246659518,3.1930097234695776,3.345839471390916,150,255123.0,82,81.5,0,0,0,0,0,0,3.0,26.0,-1015.0
1777586616.2622879,recenter,right,-,1,,,2,,0.5182955814536008,1.337043762052617,3.17330861867841,3.343647371991778,150,255123.0,82,81.5,0,0,0,0,0,0,3.0,26.0,-1015.0
1777586616.313258,recenter,right,-,1,,,2,,0.5748258977104084,1.3532965134168853,3.171544868195905,3.338898637384838,150,255123.0,82,81.5,0,0,0,0,0,0,-34.0,39.0,-993.0
1777586616.36352,recenter,right,-,1,,,2,,0.5707248411311305,1.3559742552052296,3.1702317628410746,3.3389419534881872,150,255123.0,82,81.5,0,0,0,0,0,0,-34.0,39.0,-993.0
1777586616.364007,pre_hover,right,x,1,,,2,1,0.5707248411311305,1.3559742552052296,3.1702317628410746,3.3389419534881872,150,255123.0,82,81.5,0,0,0,0,0,0,-34.0,39.0,-993.0
1777586616.414219,pre_hover,right,x,1,,,2,1,0.58676786919472,1.3132691754381143,3.200992176136797,3.354276716734067,150,255121.99999999997,81,81.5,0,0,0,0,0,0,-34.0,30.0,-1053.0
1777586616.465075,pre_hover,right,x,1,,,2,1,0.5358240072388747,1.2926430966599294,3.192707408374916,3.347484375730898,150,255121.99999999997,81,81.5,0,0,0,0,0,0,-34.0,30.0,-1053.0
1777586616.516006,pre_hover,right,x,1,,,2,1,0.6167541592115131,1.382279562208931,3.176244601472119,3.346681980887312,150,255119.0,81,81.5,0,0,0,0,0,0,7.0,4.0,-979.0
1777586616.566745,pre_hover,right,x,1,,,2,1,0.5666674578421799,1.360758760727005,3.170009917779834,3.340628289293671,150,255119.0,81,81.5,0,0,0,0,0,0,7.0,4.0,-979.0
1777586616.617318,pre_hover,right,x,1,,,2,1,0.5825077468016534,1.3183902636748885,3.2007574348566226,3.355978041448336,150,255115.0,81,81.5,0,0,0,0,0,0,-41.0,24.0,-1000.0
1777586616.668236,pre_hover,right,x,1,,,2,1,0.5914390175884525,1.4334692523621189,3.1556801737966933,3.3456386731415777,150,255115.0,81,81.5,0,0,0,0,0,0,-41.0,24.0,-1000.0
1777586616.718807,pre_hover,right,x,1,,,2,1,0.5623278537489255,1.3735920546215974,3.1812986089086186,3.3556071336600533,150,255117.0,81,81.5,0,0,0,0,0,0,-20.0,29.0,-975.0
1777586616.7694259,pre_hover,right,x,1,,,2,1,0.5602370654143504,1.3743873696833009,3.1814119495785596,3.356218732108349,150,255117.0,81,81.5,0,0,0,0,0,0,-20.0,29.0,-975.0
1777586616.820388,pre_hover,right,x,1,,,2,1,0.6051811864408279,1.4003180886661384,3.186731488813324,3.3632983447573204,150,255119.99999999997,81,81.5,0,0,0,0,0,0,-16.0,9.0,-1022.0
1777586616.87149,pre_hover,right,x,1,,,2,1,0.5683028393267235,1.4844006044854074,3.1366850240558457,3.34680146553062,150,255119.99999999997,81,81.5,0,0,0,0,0,0,-16.0,9.0,-1022.0
1777586616.922966,pre_hover,right,x,1,,,2,1,0.6009022211431971,1.4052568551976816,3.186587871356897,3.3651393201306306,150,255123.99999999997,81,81.5,0,0,0,0,0,0,2.0,2.0,-1011.0
1777586616.973713,pre_hover,right,x,1,,,2,1,0.5312740951391368,1.4284790646079002,3.1609647063302253,3.3569585989239883,150,255123.99999999997,81,81.5,0,0,0,0,0,0,2.0,2.0,-1011.0
1777586617.024874,pre_hover,right,x,1,,,2,1,0.5461114598274215,1.3900760927789497,3.1922161629323296,3.3729081676320254,150,255121.99999999997,81,81.5,0,0,0,0,0,0,-9.0,9.0,-1025.0
1777586617.075371,pre_hover,right,x,1,,,2,1,0.528055694129041,1.4316172448427316,3.161017380770632,3.358421719980229,150,255121.99999999997,81,81.5,0,0,0,0,0,0,-9.0,9.0,-1025.0
1777586617.126066,pre_hover,right,x,1,,,2,1,0.5056594558881267,1.3308159304962952,3.213385627782822,3.381809879762567,150,255117.0,81,81.5,0,0,0,0,0,0,18.0,8.0,-1028.0
1777586617.176641,pre_hover,right,x,1,,,2,1,0.5389575357638767,1.396680416548251,3.1917582924979535,3.37538931151492,150,255117.0,81,81.5,0,0,0,0,0,0,18.0,8.0,-1028.0
1777586617.2259321,pre_hover,right,x,1,,,2,1,0.5737244346111643,1.4604842802821327,3.167600471223707,3.3674961784194704,150,255123.0,81,81.5,0,0,0,0,0,0,18.0,-3.0,-960.0
1777586617.273025,pre_hover,right,x,1,,,2,1,0.5729966653734986,1.4623201570933868,3.1673186366379253,3.3679019151309912,150,255123.0,81,81.5,0,0,0,0,0,0,18.0,-3.0,-960.0
1777586617.319603,pre_hover,right,x,1,,,2,1,0.5355767185507624,1.4000955185275314,3.1917962376072,3.3768984664828774,150,255126.00000000003,81,81.5,0,0,0,0,0,0,5.0,19.0,-990.0
1777586617.366902,pre_hover,right,x,1,,,2,1,0.5349014583630749,1.4020715564446373,3.1915168407884154,3.3773131040376225,150,255126.00000000003,81,81.5,0,0,0,0,0,0,5.0,19.0,-990.0
1777586617.414896,pre_hover,right,x,1,,,2,1,0.5148789158652892,1.4535621470856133,3.1832511044191,3.3879821808606234,150,255123.99999999997,81,82.0,0,0,0,0,0,0,-17.0,12.0,-966.0
1777586617.462476,pre_hover,right,x,1,,,2,1,0.5320857025599584,1.4066816813199208,3.2039321463431882,3.390801232102109,150,255123.99999999997,81,82.0,0,0,0,0,0,0,-17.0,12.0,-966.0
1777586617.512904,pre_hover,right,x,1,,,2,1,0.5147125768192744,1.4476370294029022,3.1726651807648825,3.3762185322800704,150,255125.0,81,82.0,0,0,0,0,0,0,-36.0,31.0,-978.0
1777586617.560189,pre_hover,right,x,1,,,2,1,0.5315175385733365,1.4055479248390235,3.191552437101416,3.3788473485170116,150,255125.0,81,82.0,0,0,0,0,0,0,-36.0,31.0,-978.0
1777586617.6074119,pre_hover,right,x,1,,,2,1,0.517876256474157,1.451558558719999,3.1725020441896064,3.376831048020597,150,255113.0,81,82.0,0,0,0,0,0,0,7.0,1.0,-1027.0
1777586617.656645,pre_hover,right,x,1,,,2,1,0.46823490686835945,1.4363293595613804,3.1753806528842805,3.382276592248778,150,255113.0,81,82.0,0,0,0,0,0,0,7.0,1.0,-1027.0
1777586617.707993,pre_hover,right,x,1,,,2,1,0.5859635171702444,1.5304366794937372,3.1527603066761962,3.374790489321055,150,255123.99999999997,81,82.0,0,0,0,0,0,0,25.0,-6.0,-997.0
1777586617.758218,pre_hover,right,x,1,,,2,1,0.5323669508427602,1.4121114244491002,3.204057546304047,3.3924968628124614,150,255123.99999999997,81,82.0,0,0,0,0,0,0,25.0,-6.0,-997.0
1777586617.808199,pre_hover,right,x,1,,,2,1,0.5323669508427602,1.4121114244491002,3.204057546304047,3.3924968628124614,150,255123.99999999997,81,82.0,0,0,0,0,0,0,25.0,-6.0,-997.0
1777586617.859415,pre_hover,right,x,1,,,2,1,0.5129636056258872,1.454241669026652,3.18538611117629,3.390474100097484,150,255125.0,81,82.0,0,0,0,0,0,0,-1.0,25.0,-975.0
1777586617.910476,pre_hover,right,x,1,,,2,1,0.5274006243058622,1.4045384362686169,3.192746659968358,3.380248345105222,150,255125.0,81,82.0,0,0,0,0,0,0,-1.0,25.0,-975.0
1777586617.96143,pre_hover,right,x,1,,,2,1,0.5139396854882528,1.4506317312887074,3.173705569673607,3.3782375149049604,150,255135.0,81,82.0,0,0,0,0,0,0,-16.0,18.0,-1008.0
1777586618.0121799,pre_hover,right,x,1,,,2,1,0.4793258731282328,1.3860478126052982,3.1970002756678477,3.385882838752349,150,255135.0,81,82.0,0,0,0,0,0,0,-16.0,18.0,-1008.0
1777586618.062912,pre_hover,right,x,1,,,2,1,0.5394109239373428,1.5067667500164248,3.149416654061824,3.3698516579832036,150,255135.0,81,82.0,0,0,0,0,0,0,-16.0,18.0,-1008.0
1777586618.114024,pre_hover,right,x,1,,,2,1,0.5126224665548365,1.4482449944755547,3.1746050076439407,3.378530950444014,150,255117.99999999997,81,82.0,0,0,0,0,0,0,3.0,-7.0,-1004.0
1777586618.1642501,pre_hover,right,x,1,,,2,1,0.5126224665548365,1.4482449944755547,3.1746050076439407,3.378530950444014,150,255117.99999999997,81,82.0,0,0,0,0,0,0,3.0,-7.0,-1004.0
1777586618.214945,pre_hover,right,x,1,,,2,1,0.5596693021575765,1.468036221588274,3.1822037225780093,3.3854117956426357,150,255119.0,81,82.0,0,0,0,0,0,0,38.0,-2.0,-959.0
1777586618.2657568,pre_hover,right,x,1,,,2,1,0.5127140648277944,1.4468314129546256,3.175006052281458,3.378456307515182,150,255119.0,81,82.0,0,0,0,0,0,0,38.0,-2.0,-959.0
1777586618.3159308,pre_hover,right,x,1,,,2,1,0.5246521699391398,1.399487289175942,3.194552912376784,3.380842899447242,150,255114.0,81,82.0,0,0,0,0,0,0,12.0,-4.0,-990.0
1777586618.36713,pre_hover,right,x,1,,,2,1,0.511991583776829,1.4439451783401478,3.1758162488143187,3.3784290130055035,150,255114.0,81,82.0,0,0,0,0,0,0,12.0,-4.0,-990.0
1777586618.4184508,pre_hover,right,x,1,,,2,1,0.511991583776829,1.4439451783401478,3.1758162488143187,3.3784290130055035,150,255121.0,80,81.5,0,0,0,0,0,0,4.0,17.0,-971.0
1777586618.469899,pre_hover,right,x,1,,,2,1,0.511991583776829,1.4439451783401478,3.1758162488143187,3.3784290130055035,150,255121.0,80,81.5,0,0,0,0,0,0,4.0,17.0,-971.0
1777586618.521891,pre_hover,right,x,1,,,2,1,0.5615203783408099,1.4590954815487485,3.1715504842783058,3.372340447222569,150,255112.0,80,81.5,0,0,0,0,0,0,11.0,-6.0,-1029.0
1777586618.572746,pre_hover,right,x,1,,,2,1,0.5264359058347284,1.3955392282247177,3.1957448552575825,3.380554168493999,150,255112.0,80,81.5,0,0,0,0,0,0,11.0,-6.0,-1029.0
1777586618.622582,pre_hover,right,x,1,,,2,1,0.5622862443937144,1.457231215490518,3.171855854844282,3.3719431695632816,150,255114.0,80,81.5,0,0,0,0,0,0,18.0,1.0,-996.0
1777586618.6721358,pre_hover,right,x,1,,,2,1,0.5622862443937144,1.457231215490518,3.171855854844282,3.3719431695632816,150,255114.0,80,81.5,0,0,0,0,0,0,18.0,1.0,-996.0
1777586618.7233589,pre_hover,right,x,1,,,2,1,0.4287950590315769,1.3588677422763658,3.186837172356546,3.3766305090842232,150,255113.0,80,81.5,0,0,0,0,0,0,-14.0,11.0,-1007.0
1777586618.774241,pre_hover,right,x,1,,,2,1,0.516593168370926,1.429653667339859,3.166281285952181,3.364402773346717,150,255113.0,80,81.5,0,0,0,0,0,0,-14.0,11.0,-1007.0
1777586618.824415,pre_hover,right,x,1,,,2,1,0.4818466679453288,1.3706289728811072,3.1872763191159903,3.3718442747127524,150,255110.0,80,81.5,0,0,0,0,0,0,-31.0,24.0,-988.0
1777586618.87515,pre_hover,right,x,1,,,2,1,0.5140039203255811,1.4299351733038912,3.1651128372068884,3.363762465293776,150,255110.0,80,81.5,0,0,0,0,0,0,-31.0,24.0,-988.0
1777586618.9257832,pre_hover,right,x,1,,,2,1,0.5173036537229437,1.427787910245816,3.166585233235377,3.364016318405877,150,255117.0,80,81.5,0,0,0,0,0,0,0.0,3.0,-997.0
1777586618.9763,pre_hover,right,x,1,,,2,1,0.5635906744219168,1.4448375566754148,3.1606208055449456,3.3573296674194135,150,255117.0,80,81.5,0,0,0,0,0,0,0.0,3.0,-997.0
1777586619.026886,pre_hover,right,x,1,,,2,1,0.5203306838142732,1.4305416822363068,3.164831950243351,3.3627756518979455,150,255111.0,80,81.5,0,0,0,0,0,0,18.0,-7.0,-972.0
1777586619.0771189,pre_hover,right,x,1,,,2,1,0.5206580225286431,1.4246098212854656,3.1665430319567602,3.362527143455454,150,255111.0,80,81.5,0,0,0,0,0,0,18.0,-7.0,-972.0
1777586619.1276522,pre_hover,right,x,1,,,2,1,0.5180623933580255,1.42490530225728,3.165382047333996,3.3618950371591376,150,255117.0,80,81.5,0,0,0,0,0,0,10.0,13.0,-1031.0
1777586619.177975,pre_hover,right,x,1,,,2,1,0.5187824003061381,1.4230707748232811,3.165689561840378,3.361522659524662,150,255117.0,80,81.5,0,0,0,0,0,0,10.0,13.0,-1031.0
1777586619.2275012,pre_hover,right,x,1,,,2,1,0.5011878898237524,1.3173369535784158,3.2188886834007846,3.384016099811679,150,255105.00000000003,80,81.5,0,0,0,0,0,0,14.0,21.0,-993.0
1777586619.2777421,pre_hover,right,x,1,,,2,1,0.5190968060820889,1.421090829950399,3.165383851284035,3.360587640710921,150,255105.00000000003,80,81.5,0,0,0,0,0,0,14.0,21.0,-993.0
1777586619.3277812,pre_hover,right,x,1,,,2,1,0.48978398963257763,1.3583120810823848,3.1883933925335515,3.3681649080078175,150,255104.0,80,81.5,0,0,0,0,0,0,-21.0,7.0,-989.0
1777586619.377954,response,right,x,1,1777586619.377661,0.0002930164337158203,2,1,0.5379178871743259,1.3771502344931958,3.1975399561645186,3.3752932066758494,150,255104.0,80,81.5,0,0,0,0,0,0,-21.0,7.0,-989.0
1777586619.4276748,response,right,x,1,1777586619.377661,0.05001378059387207,2,1,0.5386884338687106,1.3752420526219833,3.19785660862311,3.3749358974006216,150,255119.0,80,81.5,0,0,0,0,0,0,35.0,7.0,-1026.0
1777586619.476897,response,right,x,1,1777586619.377661,0.09923601150512695,2,1,0.5394650252820699,1.373341140059058,3.1981753097625476,3.374583048295697,150,255119.0,80,81.5,0,0,0,0,0,0,35.0,7.0,-1026.0
1777586619.526625,response,right,x,1,1777586619.377661,0.14896392822265625,2,1,0.5370247212265165,1.3726968494764749,3.198252848511536,3.3748046688288493,150,255110.0,80,81.5,0,0,0,0,0,0,-22.0,8.0,-978.0
1777586619.576718,response,right,x,1,1777586619.377661,0.19905710220336914,2,1,0.5391356968820281,1.3766756734118561,3.210867533465771,3.3876188679347443,150,255110.0,80,81.5,0,0,0,0,0,0,-22.0,8.0,-978.0
1777586619.6272671,response,right,x,1,1777586619.377661,0.24960613250732422,2,1,0.5229891529729062,1.4221672477019025,3.1910817621424057,3.38457797120023,150,255110.0,80,81.5,0,3,0,0,0,0,-2.0,16.0,-1011.0
1777586619.6774049,response,right,x,1,1777586619.377661,0.2997438907623291,2,1,0.5885953937572912,1.3948557376844835,3.218473429775785,3.39375351300211,150,255110.0,80,81.5,0,3,0,0,0,0,-2.0,16.0,-1011.0
1777586619.727092,response,right,x,1,1777586619.377661,0.34943103790283203,2,1,0.538432674271687,1.3676925477685935,3.212348392056092,3.3865403371482556,150,255111.0,80,81.5,0,4,0,0,0,0,6.0,6.0,-1034.0
1777586619.777975,response,right,x,1,1777586619.377661,0.4003140926361084,2,1,0.5046495815302628,1.3079314318560016,3.2449900341096933,3.4058290978117887,150,255111.0,80,81.5,0,4,0,0,0,0,6.0,6.0,-1034.0
1777586619.828334,response,right,x,1,1777586619.377661,0.45067310333251953,2,1,0.5254039286907524,1.416075549733272,3.1905863001479067,3.3819361159488883,150,255114.0,80,81.5,0,3,0,0,1,0,-11.0,3.0,-1027.0
1777586619.878433,response,right,x,1,1777586619.377661,0.5007719993591309,2,1,0.5301828680332031,1.4229058293710826,3.200189908060165,3.3923855796328595,150,255114.0,80,81.5,0,3,0,0,1,0,-11.0,3.0,-1027.0
1777586619.928738,response,right,x,1,1777586619.377661,0.551077127456665,2,1,0.5349323284582019,1.421222576238125,3.200577273248481,3.3915893577151155,150,255114.0,80,81.5,0,1,0,0,2,0,-4.0,-13.0,-980.0
1777586619.9785652,response,right,x,1,1777586619.377661,0.6009042263031006,2,1,0.5423948871654729,1.4222769537133666,3.198267850053924,3.3887121226321852,150,255114.0,80,81.5,0,1,0,0,2,0,-4.0,-13.0,-980.0
1777586620.028506,response,right,x,1,1777586619.377661,0.6508450508117676,2,1,0.5599010228845518,1.3738141419629741,3.2169449523405684,3.389798802161363,150,255112.0,80,81.5,0,0,0,0,2,0,11.0,-2.0,-980.0
1777586620.078704,response,right,x,1,1777586619.377661,0.7010431289672852,2,1,0.5855768410415287,1.328773188207181,3.2464651575432653,3.402043828194468,150,255112.0,80,81.5,0,0,0,0,2,0,11.0,-2.0,-980.0
1777586620.128883,response,right,x,1,1777586619.377661,0.7512218952178955,2,1,0.5927196954770657,1.328840995329268,3.245531797144616,3.400308734120083,150,255113.0,80,81.5,0,0,0,0,2,0,21.0,-18.0,-977.0
1777586620.1793332,response,right,x,1,1777586619.377661,0.8016722202301025,2,1,0.6317775623908546,1.4049445739868984,3.2280535824360923,3.400857434739512,150,255113.0,80,81.5,0,0,0,0,2,0,21.0,-18.0,-977.0
1777586620.229231,response,right,x,1,1777586619.377661,0.8515701293945312,2,1,0.6359774477081273,1.404491438979965,3.2269179937901065,3.3991933172750706,150,255113.0,80,81.5,0,0,0,0,2,0,-20.0,3.0,-984.0
1777586620.2794518,response,right,x,1,1777586619.377661,0.9017908573150635,2,1,0.5955454988141016,1.3791482907394412,3.220688683786573,3.39044988410954,150,255113.0,80,81.5,0,0,0,0,2,0,-20.0,3.0,-984.0
1777586620.3298922,response,right,x,1,1777586619.377661,0.9522311687469482,2,1,0.59424496944925,1.3838081628159775,3.2310356076990248,3.4017799376590476,150,255108.0,80,81.5,0,0,0,0,2,0,28.0,-18.0,-998.0
1777586620.380688,response,right,x,1,1777586619.377661,1.0030269622802734,2,1,0.7051613710116581,1.43223907388627,3.222752818693697,3.396848988871816,150,255108.0,80,81.5,0,0,0,0,2,0,28.0,-18.0,-998.0
1777586620.431593,response,right,x,1,1777586619.377661,1.0539319515228271,2,1,0.6601740048551091,1.4108515942073874,3.2322907105204415,3.4036753502360613,150,255117.0,79,81.0,0,0,0,0,2,0,-24.0,0.0,-1015.0
1777586620.481751,response,right,x,1,1777586619.377661,1.1040899753570557,2,1,0.6384314846429062,1.339696058112943,3.258163391773615,3.4101890212163144,150,255117.0,79,81.0,0,0,0,0,2,0,-24.0,0.0,-1015.0
1777586620.532175,response,right,x,1,1777586619.377661,1.1545140743255615,2,1,0.6384314846429062,1.339696058112943,3.258163391773615,3.4101890212163144,150,255117.0,79,81.0,0,0,0,0,2,0,-24.0,0.0,-1015.0
1777586620.582613,response,right,x,1,1777586619.377661,1.2049520015716553,2,1,0.7050333219137367,1.3666646573472279,3.258801909890299,3.4119255251031113,150,255110.0,79,81.0,0,0,0,0,2,0,-7.0,5.0,-1006.0
1777586620.6328099,response,right,x,1,1777586619.377661,1.2551488876342773,2,1,0.7061431314135796,1.372315506023611,3.2680577945890663,3.4222727903023333,150,255110.0,79,81.0,0,0,0,0,2,0,-7.0,5.0,-1006.0
1777586620.6836648,response,right,x,1,1777586619.377661,1.3060038089752197,2,1,0.7122839859466195,1.3726761168652417,3.2668811746383164,3.4207297382677044,150,255110.0,79,81.0,0,0,0,0,2,0,-7.0,5.0,-1006.0
1777586620.7344892,response,right,x,1,1777586619.377661,1.356828212738037,2,1,0.6891545733588789,1.2931506676843334,3.29756483788873,3.4304922175292565,150,255107.00000000003,79,81.0,0,0,0,0,2,0,14.0,0.0,-919.0
1777586620.78509,response,right,x,1,1777586619.377661,1.4074289798736572,2,1,0.7453296847470705,1.4475194706152186,3.232414496062624,3.4074414866795295,150,255107.00000000003,79,81.0,0,0,0,0,2,0,14.0,0.0,-919.0
1777586620.8364968,response,right,x,1,1777586619.377661,1.4588358402252197,2,1,0.701246524670787,1.2945337567940776,3.294768149170756,3.4270893536433364,150,255105.00000000003,79,81.0,0,0,0,0,2,0,0.0,-11.0,-976.0
1777586620.886847,response,right,x,1,1777586619.377661,1.509186029434204,2,1,0.7631831425537731,1.3347704256016026,3.304641931616818,3.442460786813735,150,255105.00000000003,79,81.0,0,0,0,0,2,0,0.0,-11.0,-976.0
1777586620.937228,response,right,x,1,1777586619.377661,1.5595669746398926,2,1,0.7374331713761109,1.2464768187455246,3.3373759413546646,3.453048293624068,150,255114.0,79,81.0,0,0,0,0,2,0,1.0,-16.0,-947.0
1777586620.9874449,response,right,x,1,1777586619.377661,1.6097838878631592,2,1,0.8264891662649666,1.372020148008787,3.2986670478099414,3.44327365596544,150,255114.0,79,81.0,0,0,0,0,2,0,1.0,-16.0,-947.0
1777586621.036191,response,right,x,1,1777586619.377661,1.6585299968719482,2,1,0.7521522541631039,1.2521806753320357,3.348277639820085,3.4639000507874003,150,255109.0,79,81.0,0,-1,0,0,1,0,-32.0,17.0,-1021.0
1777586621.084497,response,right,x,1,1777586619.377661,1.7068359851837158,2,1,0.8234847879726928,1.2892925193640252,3.3455809445688893,3.4662531156475467,150,255109.0,79,81.0,0,-1,0,0,1,0,-32.0,17.0,-1021.0
1777586621.131851,response,right,x,1,1777586619.377661,1.7541899681091309,2,1,0.861316222985492,1.2377213021854487,3.3759176841329674,3.481067419655068,150,255111.0,79,81.0,0,-4,0,0,1,0,21.0,-13.0,-1048.0
1777586621.17778,response,right,x,1,1777586619.377661,1.8001189231872559,2,1,0.7640330629545883,1.2610218102970232,3.357865051951521,3.474521069198336,150,255111.0,79,81.0,0,-4,0,0,1,0,21.0,-13.0,-1048.0
1777586621.2257578,response,right,x,1,1777586619.377661,1.8480968475341797,2,1,0.8254050794705061,1.299824551055743,3.355334041973501,3.478280342666991,150,255115.0,79,81.0,-3,-2,0,0,0,0,-5.0,9.0,-1014.0
1777586621.275428,response,right,x,1,1777586619.377661,1.8977670669555664,2,1,0.6910185556700855,1.0508863999218763,3.4201616777374237,3.4952293973939863,150,255115.0,79,81.0,-3,-2,0,0,0,0,-5.0,9.0,-1014.0
1777586621.324236,response,right,x,1,1777586619.377661,1.9465749263763428,2,1,0.7370927917390206,1.3142228886830725,3.349369432299067,3.481838491999159,150,255116.0,79,81.0,-4,-1,0,0,0,0,-33.0,20.0,-951.0
1777586621.373415,response,right,x,1,1777586619.377661,1.9957540035247803,2,1,0.7992197323790562,1.3458460754792587,3.3479375594408283,3.4847702099679485,150,255116.0,79,81.0,-4,-1,0,0,0,0,-33.0,20.0,-951.0
1777586621.422246,response,right,x,1,1777586619.377661,2.0445849895477295,2,1,0.8919345775760031,1.342404600034489,3.3600084178254637,3.491340879024536,150,255114.0,79,80.5,-3,0,0,1,0,0,-1.0,-6.0,-953.0
1777586621.469886,response,right,x,1,1777586619.377661,2.0922250747680664,2,1,0.9427629088378526,1.3887916069251118,3.3373387929548457,3.481208862664169,150,255114.0,79,80.5,-3,0,0,1,0,0,-1.0,-6.0,-953.0
1777586621.51732,response,right,x,1,1777586619.377661,2.1396589279174805,2,1,0.7730676678543522,1.0947015517425405,3.423483362475275,3.500620925280481,150,255112.0,79,80.5,1,0,0,1,0,0,0.0,9.0,-1029.0
1777586621.564547,response,right,x,1,1777586619.377661,2.1868860721588135,,,,,,,150,255112.0,79,80.5,1,0,0,1,0,0,0.0,9.0,-1029.0
1777586621.614544,response,right,x,1,1777586619.377661,2.2368829250335693,2,1,0.8919222804182638,1.3422164001528083,3.346610147229031,3.4783979093432107,150,255115.0,79,80.5,2,0,0,0,0,0,4.0,-3.0,-975.0
1777586621.661123,response,right,x,1,1777586619.377661,2.2834620475769043,2,1,0.8919222804182638,1.3422164001528083,3.346610147229031,3.4783979093432107,150,255115.0,79,80.5,2,0,0,0,0,0,4.0,-3.0,-975.0
1777586621.7139359,response,right,x,1,1777586619.377661,2.3362748622894287,2,1,0.8350184614156009,1.3071213726158644,3.3658564762716026,3.4898535659235987,150,255115.0,79,80.5,1,0,0,0,0,0,-1.0,29.0,-1016.0
1777586621.766109,response,right,x,1,1777586619.377661,2.3884479999542236,2,1,0.940325460703325,1.2963107357923018,3.375534636090116,3.4930170433567658,150,255115.0,79,80.5,1,0,0,0,0,0,-1.0,29.0,-1016.0
1777586621.818481,response,right,x,1,1777586619.377661,2.4408199787139893,2,1,0.8951580298639715,1.3518667495690138,3.3579120066161194,3.491792547075753,150,255111.0,79,80.5,0,0,0,0,0,0,-17.0,24.0,-977.0
1777586621.8698082,response,right,x,1,1777586619.377661,2.492147207260132,2,1,0.8401422989686529,1.3144178609077206,3.378479959948891,3.503689676427172,150,255111.0,79,80.5,0,0,0,0,0,0,-17.0,24.0,-977.0
1777586621.921248,response,right,x,1,1777586619.377661,2.5435869693756104,2,1,0.8981622032251448,1.3591974854926203,3.370523041446036,3.5058317595038635,150,255112.0,79,80.5,0,0,0,0,0,0,-14.0,19.0,-942.0
1777586621.972866,response,right,x,1,1777586619.377661,2.595205068588257,2,1,0.9095216103872072,1.4446033997370384,3.3314456439143667,3.492551027556378,150,255112.0,79,80.5,0,0,0,0,0,0,-14.0,19.0,-942.0
1777586622.023942,response,right,x,1,1777586619.377661,2.6462810039520264,2,1,0.8996118051583122,1.3645579982177112,3.3833540761604817,3.519592977357052,150,255116.0,79,80.5,0,0,0,0,0,0,-27.0,49.0,-977.0
1777586622.075572,response,right,x,1,1777586619.377661,2.697911024093628,2,1,0.8888489202181253,1.2667439965930298,3.423138805444647,3.53291366997663,150,255116.0,79,80.5,0,0,0,0,0,0,-27.0,49.0,-977.0
1777586622.126507,response,right,x,1,1777586619.377661,2.7488460540771484,2,1,0.9327042138041202,1.2098209503620836,3.453829049318847,3.54813666540676,150,255113.0,79,80.5,0,0,0,0,0,0,15.0,-2.0,-1030.0
1777586622.177245,response,right,x,1,1777586619.377661,2.799583911895752,2,1,0.9008436848990213,1.3717483633584378,3.3954752327559565,3.533182547332266,150,255113.0,79,80.5,0,0,0,0,0,0,15.0,-2.0,-1030.0
1777586622.2280362,response,right,x,1,1777586619.377661,2.850375175476074,2,1,0.9119361372993489,1.4580139710190072,3.3557350854458683,3.5196742420964977,150,255119.0,79,80.5,0,0,0,0,0,0,0.0,15.0,-1000.0
1777586622.278374,response,right,x,1,1777586619.377661,2.9007129669189453,2,1,0.9071757772488254,1.4637900040596161,3.3685389911053716,3.5337402909189164,150,255119.0,79,80.5,0,0,0,0,0,0,0.0,15.0,-1000.0
1777586622.3293738,response,right,x,1,1777586619.377661,2.9517128467559814,2,1,0.902289942829167,1.3772204949182196,3.408510355660583,3.5471749316330556,150,255115.0,79,80.5,0,0,0,0,0,0,10.0,25.0,-966.0
1777586622.380055,response,right,x,1,1777586619.377661,3.002393960952759,2,1,0.902289942829167,1.3772204949182196,3.408510355660583,3.5471749316330556,150,255115.0,79,80.5,0,0,0,0,0,0,10.0,25.0,-966.0
1777586622.431233,response,right,x,1,1777586619.377661,3.053571939468384,2,1,0.8881910238222851,1.2828784270475864,3.462503647739006,3.5750394507901375,150,255110.0,78,81.0,0,0,0,0,0,0,-7.0,12.0,-1019.0
1777586622.482218,response,right,x,1,1777586619.377661,3.1045570373535156,2,1,0.8976536237984616,1.3811484220340176,3.421659454739587,3.5610223856345296,150,255110.0,78,81.0,0,0,0,0,0,0,-7.0,12.0,-1019.0
1777586622.532991,response,right,x,1,1777586619.377661,3.155329942703247,2,1,0.8976536237984616,1.3811484220340176,3.421659454739587,3.5610223856345296,150,255106.0,78,81.0,0,0,0,0,0,0,-6.0,34.0,-987.0
1777586622.5844102,response,right,x,1,1777586619.377661,3.206749200820923,2,1,0.9525543019495901,1.4256903561870535,3.41109590677596,3.5622839704692724,150,255106.0,78,81.0,0,0,0,0,0,0,-6.0,34.0,-987.0
1777586622.634948,response,right,x,1,1777586619.377661,3.25728702545166,2,1,0.9014221859251106,1.3867791390820132,3.4352107495810165,3.575489274042392,150,255114.0,78,81.0,0,0,0,0,0,0,15.0,13.0,-1024.0
1777586622.685408,response,right,x,1,1777586619.377661,3.3077471256256104,2,1,0.8826880606718194,1.2871253051849805,3.4758929136751067,3.5892318043761544,150,255114.0,78,81.0,0,0,0,0,0,0,15.0,13.0,-1024.0
1777586622.736157,response,right,x,1,1777586619.377661,3.3584959506988525,2,1,0.8826880606718194,1.2871253051849805,3.4758929136751067,3.5892318043761544,150,255107.00000000003,78,81.0,0,0,0,0,0,0,0.0,-14.0,-935.0
1777586622.786612,response,right,x,1,1777586619.377661,3.4089510440826416,2,1,0.9459710566708247,1.336415105661854,3.4661879015787047,3.5908565755094637,150,255107.00000000003,78,81.0,0,0,0,0,0,0,0.0,-14.0,-935.0
1777586622.838169,response,right,x,1,1777586619.377661,3.460508108139038,2,1,0.8866372427642792,1.2922099857745402,3.489875889552063,3.6039039246240585,150,255107.00000000003,78,81.0,0,0,0,0,0,0,1.0,21.0,-1018.0
1777586622.889518,response,right,x,1,1777586619.377661,3.511857032775879,2,1,0.8806481392388769,1.2982487033726917,3.503436708306035,3.6187241355046793,150,255107.00000000003,78,81.0,0,0,0,0,0,0,1.0,21.0,-1018.0
1777586622.940049,response,right,x,1,1777586619.377661,3.5623879432678223,2,1,0.8806481392388769,1.2982487033726917,3.503436708306035,3.6187241355046793,150,255115.0,78,81.0,0,0,0,0,0,0,-25.0,22.0,-1076.0
1777586622.990384,response,right,x,1,1777586619.377661,3.6127231121063232,2,1,0.8992797315121521,1.3999678767910115,3.461935690880053,3.604868798567756,150,255115.0,78,81.0,0,0,0,0,0,0,-25.0,22.0,-1076.0
1777586623.040591,response,right,x,1,1777586619.377661,3.6629300117492676,2,1,0.8992797315121521,1.3999678767910115,3.461935690880053,3.604868798567756,150,255115.0,78,81.0,0,0,0,0,0,0,-25.0,22.0,-1076.0
1777586623.0910988,response,right,x,1,1777586619.377661,3.713437795639038,2,1,0.8379257452010764,1.3610181138538096,3.4834664338925783,3.6172312996655376,150,255114.0,78,81.0,0,0,0,0,0,0,33.0,0.0,-990.0
1777586623.14128,response,right,x,1,1777586619.377661,3.7636189460754395,2,1,0.8925733621184361,1.4053022966809863,3.4757708880794898,3.6198282357951035,150,255113.0,78,81.0,0,0,0,0,0,0,-15.0,23.0,-1008.0
1777586623.191089,response,right,x,1,1777586619.377661,3.8134279251098633,2,1,0.8826220344396906,1.3048416393404332,3.5178881016051076,3.63428846880626,150,255113.0,78,81.0,0,0,0,0,0,0,-15.0,23.0,-1008.0
1777586623.240128,response,right,x,1,1777586619.377661,3.862467050552368,2,1,0.8933803712161845,1.4075929453354425,3.4755968541643143,3.6202741306990314,150,255114.0,78,81.0,0,0,0,0,0,0,-7.0,15.0,-993.0
1777586623.288576,response,right,x,1,1777586619.377661,3.910914897918701,2,1,0.8351925878020262,1.3679366854622363,3.4978704200285,3.6330648749353993,150,255114.0,78,81.0,0,0,0,0,0,0,-7.0,15.0,-993.0
1777586623.336341,response,right,x,1,1777586619.377661,3.9586799144744873,2,1,0.9406357206879555,1.3583023883738332,3.507591556837327,3.6366283993305855,150,255116.0,78,81.0,0,0,0,0,0,0,1.0,0.0,-984.0
1777586623.3832178,response,right,x,1,1777586619.377661,4.00555682182312,2,1,0.8938340711410653,1.4155250455364086,3.489957234171139,3.6362568417131467,150,255116.0,78,81.0,0,0,0,0,0,0,1.0,0.0,-984.0
1777586623.4299111,response,right,x,1,1777586619.377661,4.052250146865845,2,1,0.8318671716995678,1.3765576424182544,3.5117363186623445,3.648866323768241,150,255114.0,78,81.0,0,0,0,0,0,0,-12.0,16.0,-966.0
1777586623.477658,response,right,x,1,1777586619.377661,4.099997043609619,2,1,0.9036394081869308,1.513436410388283,3.4610888363637557,3.637054018960225,150,255114.0,78,81.0,0,0,0,0,0,0,-12.0,16.0,-966.0
1777586623.52485,response,right,x,1,1777586619.377661,4.147188901901245,2,1,0.8860515469361909,1.4234971501390357,3.503822552227353,3.6520272649304477,150,255121.99999999997,78,81.0,0,0,0,0,0,0,11.0,-21.0,-1056.0
1777586623.5732841,response,right,x,1,1777586619.377661,4.195623159408569,2,1,0.8860515469361909,1.4234971501390357,3.503822552227353,3.6520272649304477,150,255121.99999999997,78,81.0,0,0,0,0,0,0,11.0,-21.0,-1056.0
1777586623.6210759,response,right,x,1,1777586619.377661,4.243414878845215,2,1,0.8224683449187515,1.3858203428995486,3.5257867369265115,3.6653146319678163,150,255114.0,78,81.0,0,0,0,0,0,0,13.0,22.0,-1020.0
1777586623.6685529,response,right,x,1,1777586619.377661,4.290891885757446,2,1,0.8224683449187515,1.3858203428995486,3.5257867369265115,3.6653146319678163,150,255114.0,78,81.0,0,0,0,0,0,0,13.0,22.0,-1020.0
1777586623.719423,response,right,x,1,1777586619.377661,4.341762065887451,2,1,0.8017250777369381,1.2813453205900496,3.566879207124992,3.679498579581871,150,255121.99999999997,78,81.0,-1,0,0,0,0,0,0.0,-1.0,-988.0
1777586623.770328,response,right,x,1,1777586619.377661,4.392667055130005,2,1,0.88208421640497,1.4260418332916993,3.5044393526114477,3.6534587929545834,150,255121.99999999997,78,81.0,-1,0,0,0,0,0,0.0,-1.0,-988.0
1777586623.822353,response,right,x,1,1777586619.377661,4.444691896438599,2,1,0.9277313962362378,1.3823504972681775,3.5510381580848427,3.685119706433916,150,255125.0,78,81.0,-1,0,0,0,0,0,-18.0,37.0,-994.0
1777586623.873419,response,right,x,1,1777586619.377661,4.495758056640625,2,1,0.9301974657708714,1.3770938073600267,3.5371628712006005,3.670300516247437,150,255125.0,78,81.0,-1,0,0,0,0,0,-18.0,37.0,-994.0
1777586623.9248168,response,right,x,1,1777586619.377661,4.547155857086182,2,1,0.8625496386889058,1.33340668938733,3.561360004720808,3.6842130411856697,150,255117.0,78,81.0,-1,0,0,0,0,0,-16.0,5.0,-989.0
1777586623.976019,response,right,x,1,1777586619.377661,4.598357915878296,2,1,0.8153536793165485,1.3958402795451148,3.5409730057405455,3.6829718914878593,150,255117.0,78,81.0,-1,0,0,0,0,0,-16.0,5.0,-989.0
1777586624.026295,response,right,x,1,1777586619.377661,4.64863395690918,2,1,0.8188635105923951,1.3978466970612087,3.540898510953694,3.683269026762091,150,255117.0,78,81.0,-1,0,0,0,0,0,-23.0,13.0,-1007.0
1777586624.076616,response,right,x,1,1777586619.377661,4.698955059051514,2,1,0.8375090873897489,1.4937716567788626,3.498682280406701,3.6692666069782294,150,255117.0,78,81.0,-1,0,0,0,0,0,-23.0,13.0,-1007.0
1777586624.1272771,response,right,x,1,1777586619.377661,4.7496161460876465,2,1,0.8315627713402964,1.4933399494426216,3.4991344126046595,3.669837187467574,150,255113.0,78,81.0,-1,0,0,0,0,0,-26.0,16.0,-1072.0
1777586624.1772978,response,right,x,1,1777586619.377661,4.7996368408203125,2,1,0.8785553484134451,1.440321352313299,3.5194359340622587,3.6719812926329882,150,255113.0,78,81.0,-1,0,0,0,0,0,-26.0,16.0,-1072.0
1777586624.227747,response,right,x,1,1777586619.377661,4.850085973739624,2,1,0.8551738295679665,1.3398175780692148,3.562171852346203,3.6869092754416237,150,255125.0,78,81.0,0,0,0,0,0,0,-8.0,21.0,-993.0
1777586624.277854,response,right,x,1,1777586619.377661,4.900192975997925,2,1,0.9202111567483018,1.3904029810439367,3.5531830247634417,3.6894950781692666,150,255125.0,78,81.0,0,0,0,0,0,0,-8.0,21.0,-993.0
1777586624.327473,response,right,x,1,1777586619.377661,4.949811935424805,2,1,0.8332423261129089,1.4980700514181078,3.499192904236216,3.6712282604979336,150,255108.0,78,81.0,0,0,0,0,0,0,-26.0,31.0,-1014.0
1777586624.378936,response,right,x,1,1777586619.377661,5.001275062561035,2,1,0.8701139008181464,1.4430153178955356,3.520188963321338,3.673755801576196,150,255108.0,78,81.0,0,0,0,0,0,0,-26.0,31.0,-1014.0
1777586624.429481,response,right,x,1,1777586619.377661,5.0518200397491455,2,1,0.8117550651036812,1.4059352343783087,3.5415023568640636,3.6864048604231705,150,255114.0,77,81.0,0,0,0,0,0,0,-36.0,27.0,-991.0
1777586624.4794722,response,right,x,1,1777586619.377661,5.101811170578003,2,1,0.9206547156107519,1.3951705060705355,3.553402359721856,3.6909793199616208,150,255114.0,77,81.0,0,0,0,0,0,0,-36.0,27.0,-991.0
1777586624.530218,response,right,x,1,1777586619.377661,5.152556896209717,2,1,0.8721617594283471,1.4452816004240967,3.520487076793345,3.674613652862919,160,255119.0,77,81.0,0,0,0,0,0,0,7.0,-15.0,-992.0
1777586624.581538,response,right,x,1,1777586619.377661,5.203876972198486,2,1,0.8499476238409579,1.3448532053768596,3.562710294198028,3.6889250379597716,160,255119.0,77,81.0,0,0,0,0,0,0,7.0,-15.0,-992.0
1777586624.6319501,response,right,x,1,1777586619.377661,5.254289150238037,2,1,0.803834693588284,1.4004811831880923,3.52735866556761,3.67174380654587,160,255110.0,77,81.0,0,0,0,0,0,0,-16.0,3.0,-1001.0
1777586624.682962,response,right,x,1,1777586619.377661,5.305300951004028,2,1,0.8053388140127061,1.3992195057139347,3.5276573526550483,3.6716071407042454,160,255110.0,77,81.0,0,0,0,0,0,0,-16.0,3.0,-1001.0
1777586624.733278,response,right,x,1,1777586619.377661,5.355617046356201,2,1,0.84851249511558,1.3424976285764911,3.56314850560136,3.688804347885317,160,255116.0,77,81.0,0,0,0,0,0,0,12.0,0.0,-945.0
1777586624.7824142,response,right,x,1,1777586619.377661,5.4047532081604,2,1,0.8657583577577133,1.4348108948149259,3.5072184270492945,3.659157758497671,160,255116.0,77,81.0,0,0,0,0,0,0,12.0,0.0,-945.0
1777586624.831033,response,right,x,1,1777586619.377661,5.453372001647949,2,1,0.8282672574615293,1.4881226901021325,3.487375892563201,3.6572248686136137,160,255109.0,77,81.0,0,0,0,0,0,0,-20.0,44.0,-965.0
1777586624.880673,response,right,x,1,1777586619.377661,5.50301194190979,2,1,0.8655259453022373,1.4354123804106345,3.522131783321574,3.673632312572733,160,255109.0,77,81.0,0,0,0,0,0,0,-20.0,44.0,-965.0
1777586624.930645,response,right,x,1,1777586619.377661,5.552983999252319,2,1,0.8715646892296548,1.4279436196393545,3.5084621690148565,3.658205913507107,160,255109.0,77,81.0,0,0,0,0,0,0,-20.0,44.0,-965.0
1777586624.981259,response,right,x,1,1777586619.377661,5.603598117828369,2,1,0.8230925381229669,1.4791238207075534,3.4885097735701884,3.655886337234922,160,255114.0,77,81.0,0,0,0,0,0,0,-15.0,38.0,-1000.0
1777586625.032151,response,right,x,1,1777586619.377661,5.654489994049072,2,1,0.8086966983740679,1.3793962731062899,3.515529831607963,3.654417054731573,160,255114.0,77,81.0,0,0,0,0,0,0,-15.0,38.0,-1000.0
1777586625.0835042,response,right,x,1,1777586619.377661,5.705843210220337,2,1,0.7893900794545197,1.521006455231587,3.4544517860653707,3.637890756132362,160,255119.0,77,81.0,0,0,0,0,0,0,-11.0,2.0,-969.0
1777586625.134086,response,right,x,1,1777586619.377661,5.756424903869629,2,1,0.8277277886441752,1.472834726638332,3.4892259278762126,3.6544971803587685,160,255119.0,77,81.0,0,0,0,0,0,0,-11.0,2.0,-969.0
1777586625.183924,response,right,x,1,1777586619.377661,5.806262969970703,2,1,0.8250502774131097,1.4614239465595813,3.4758245551709175,3.6384865724765914,150,255112.0,77,81.0,0,0,0,0,0,0,-1.0,6.0,-968.0
1777586625.2330508,response,right,x,1,1777586619.377661,5.855389833450317,2,1,0.7400533605300109,1.328701096756268,3.5335517036562583,3.662792053188398,150,255112.0,77,81.0,0,0,0,0,0,0,-1.0,6.0,-968.0
1777586625.28195,response,right,x,1,1777586619.377661,5.90428900718689,2,1,0.8086395417286167,1.361366133257075,3.5175488206622263,3.6515740952232796,150,255109.0,77,81.0,0,0,0,0,0,0,-46.0,22.0,-1012.0
1777586625.32987,response,right,x,1,1777586619.377661,5.952208995819092,2,1,0.80193716087442,1.3594829333982656,3.517046847802082,3.6509526040965783,150,255109.0,77,81.0,0,0,0,0,0,0,-46.0,22.0,-1012.0
1777586625.37837,response,right,x,1,1777586619.377661,6.000709056854248,2,1,0.8233125279626112,1.4493075107510052,3.4777019764109713,3.6368497015447603,150,255113.0,77,81.0,0,0,0,0,0,0,-25.0,24.0,-1025.0
1777586625.426223,response,right,x,1,1777586619.377661,6.048562049865723,2,1,0.8082525507524249,1.3524730861895264,3.5188951475391317,3.6505609327311332,150,255113.0,77,81.0,0,0,0,0,0,0,-25.0,24.0,-1025.0
1777586625.476578,response,right,x,1,1777586619.377661,6.098917007446289,2,1,0.8255704665078805,1.443984868934458,3.478645326344788,3.636111023500082,150,255108.0,77,80.0,0,0,0,0,0,0,-33.0,30.0,-1006.0
1777586625.523492,response,right,x,1,1777586619.377661,6.145831108093262,2,1,0.8091009981439673,1.3458042697283417,3.5197619177056274,3.6496180763028874,150,255108.0,77,80.0,0,0,0,0,0,0,-33.0,30.0,-1006.0
1777586625.5724978,response,right,x,1,1777586619.377661,6.194836854934692,2,1,0.7689365922178535,1.3988834806147499,3.484542896781256,3.6322441693489775,150,255108.0,77,80.0,0,0,0,0,0,0,-11.0,8.0,-1012.0
1777586625.621012,response,right,x,1,1777586619.377661,6.243350982666016,2,1,0.8107681708431286,1.3378408166524869,3.5207756557134373,3.6484538232530563,150,255108.0,77,80.0,0,0,0,0,0,0,-11.0,8.0,-1012.0
1777586625.668709,response,right,x,1,1777586619.377661,6.291048049926758,2,1,0.8107681708431286,1.3378408166524869,3.5207756557134373,3.6484538232530563,150,255109.0,77,80.0,0,0,0,0,0,0,-11.0,33.0,-997.0
1777586625.720439,response,right,x,1,1777586619.377661,6.342777967453003,2,1,0.7706567683152284,1.391120436943679,3.4855674317274103,3.6309913742070306,150,255109.0,77,80.0,0,0,0,0,0,0,-11.0,33.0,-997.0
1777586625.76975,response,right,x,1,1777586619.377661,6.392089128494263,2,1,0.8113200164510919,1.3329803338847017,3.5216147788196888,3.647988910346202,150,255112.0,77,80.0,0,0,0,0,0,0,-2.0,2.0,-1032.0
1777586625.821387,response,right,x,1,1777586619.377661,6.443726062774658,2,1,0.7427208484972534,1.285180167814092,3.525008857979476,3.6435455177784077,150,255112.0,77,80.0,0,0,0,0,0,0,-2.0,2.0,-1032.0
1777586625.873038,response,right,x,1,1777586619.377661,6.495377063751221,2,1,0.8134034358430222,1.3226458095877462,3.5087054357947896,3.6327823225292373,150,255107.00000000003,77,80.0,0,0,0,0,0,0,23.0,2.0,-1031.0
1777586625.925112,response,right,x,1,1777586619.377661,6.547451019287109,2,1,0.7367041825594527,1.2826535208485708,3.5244785250950192,3.6428492693500276,150,255107.00000000003,77,80.0,0,0,0,0,0,0,23.0,2.0,-1031.0
1777586625.9758332,response,right,x,1,1777586619.377661,6.598172187805176,2,1,0.8096864508766041,1.3192985851918073,3.508900657620796,3.632315096569578,150,255107.00000000003,77,80.0,0,0,0,0,0,0,-8.0,13.0,-1062.0
1777586626.0268538,response,right,x,1,1777586619.377661,6.649192810058594,2,1,0.784628672595328,1.2059420902793576,3.5485505363105063,3.6452898883767104,150,255107.00000000003,77,80.0,0,0,0,0,0,0,-8.0,13.0,-1062.0
1777586626.0779881,response,right,x,1,1777586619.377661,6.700327157974243,2,1,0.8095550973533343,1.3198409778308267,3.5241018315590638,3.64714551459615,140,255103.00000000003,77,80.0,0,0,0,0,0,0,-7.0,-5.0,-1026.0
1777586626.128521,response,right,x,1,1777586619.377661,6.750859975814819,2,1,0.8106025468038833,1.3146969976692264,3.5098211961725365,3.6319948818692307,140,255103.00000000003,77,80.0,0,0,0,0,0,0,-7.0,-5.0,-1026.0
1777586626.179643,response,right,x,1,1777586619.377661,6.8019819259643555,2,1,0.773114840583158,1.3768447425825694,3.488316348726916,3.629607895554325,140,255098.0,77,80.0,0,0,0,0,0,0,8.0,25.0,-979.0
1777586626.2302961,response,right,x,1,1777586619.377661,6.852635145187378,2,1,0.8568841790560623,1.2507228467319456,3.5453190855302963,3.648766766783201,140,255098.0,77,80.0,0,0,0,0,0,0,8.0,25.0,-979.0
1777586626.2918222,response,right,x,1,1777586619.377661,6.914161205291748,2,1,0.7737910440764444,1.3756354540332443,3.4884459772372716,3.629365008787292,140,255098.99999999997,77,80.0,0,0,0,0,0,0,-3.0,26.0,-979.0
1777586626.342564,response,right,x,1,1777586619.377661,6.964903116226196,2,1,0.780728149030716,1.204676279827504,3.563517138975642,3.6598139925025794,140,255106.0,76,80.0,0,0,0,0,0,0,19.0,-6.0,-1038.0
1777586626.392587,response,right,x,1,1777586619.377661,7.014925956726074,2,1,0.780728149030716,1.204676279827504,3.563517138975642,3.6598139925025794,140,255106.0,76,80.0,0,0,0,0,0,0,19.0,-6.0,-1038.0
1777586626.4430778,response,right,x,1,1777586619.377661,7.0654168128967285,2,1,0.7861644077767755,1.2027606082183389,3.5644762717680654,3.6600056484390975,140,255106.0,76,80.0,0,0,0,0,0,0,19.0,-6.0,-1038.0
1777586626.493563,response,right,x,1,1777586619.377661,7.115901947021484,2,1,0.8105943706619948,1.315302191826365,3.52505079254645,3.646866557034879,140,255096.99999999997,76,80.5,0,0,0,0,0,0,21.0,-10.0,-1012.0
1777586626.544263,response,right,x,1,1777586619.377661,7.166601896286011,2,1,0.8105943706619948,1.315302191826365,3.52505079254645,3.646866557034879,140,255092.0,76,80.5,0,0,0,0,0,0,-8.0,-2.0,-998.0
1777586626.594368,response,right,x,1,1777586619.377661,7.216706991195679,2,1,0.7703651741522768,1.381268677016405,3.5023771495845057,3.6444843349460743,140,255092.0,76,80.5,0,0,0,0,0,0,-8.0,-2.0,-998.0
1777586626.64414,response,right,x,1,1777586619.377661,7.266479015350342,2,1,0.7406027074564456,1.2780573645777753,3.5410594447409847,3.6575092183147704,140,255100.0,76,80.5,0,0,0,0,0,0,25.0,15.0,-1014.0
1777586626.694874,response,right,x,1,1777586619.377661,7.31721305847168,2,1,0.7406027074564456,1.2780573645777753,3.5410594447409847,3.6575092183147704,140,255100.0,76,80.5,0,0,0,0,0,0,25.0,15.0,-1014.0
1777586626.7452428,response,right,x,1,1777586619.377661,7.367581844329834,2,1,0.8582358451118064,1.2550731685506729,3.5600644038972793,3.664055916478752,140,255108.0,76,80.5,0,0,0,0,0,0,-14.0,13.0,-1001.0
1777586626.7956932,response,right,x,1,1777586619.377661,7.418032169342041,2,1,0.7822554872209992,1.2110356932391855,3.5782197388394477,3.675438486490228,140,255108.0,76,80.5,0,0,0,0,0,0,-14.0,13.0,-1001.0
