timestamp,phase,command,axis,repeat,t_send,t_since_cmd,marker_id,pos_x,pos_y,pos_z,marker_dist,tello_height_cm,tello_baro_cm,tello_battery,tello_temp_c,tello_pitch,tello_roll,tello_yaw,tello_vgx,tello_vgy,tello_vgz,tello_agx,tello_agy,tello_agz
1776462340.367616,init_hover,none,-,0,,,,,,,,0,253066.0,73,75.0,-1,-1,2,0,0,0,-27.0,9.0,-997.0
1776462340.664959,init_hover,none,-,0,,,,,,,,0,253065.0,73,75.0,-1,0,2,0,0,0,-30.0,15.0,-999.0
1776462340.717879,init_hover,none,-,0,,,,,,,,0,253065.0,73,75.0,-1,0,2,0,0,0,-30.0,15.0,-999.0
1776462340.766078,init_hover,none,-,0,,,,,,,,0,253065.0,73,75.0,0,0,2,0,0,0,-14.0,-9.0,-1006.0
1776462340.815315,init_hover,none,-,0,,,,,,,,0,253065.0,73,75.0,0,0,2,0,0,0,-14.0,-9.0,-1006.0
1776462340.8652349,init_hover,none,-,0,,,,,,,,0,253065.0,73,75.0,0,0,2,0,0,0,-14.0,-7.0,-989.0
1776462340.9151292,init_hover,none,-,0,,,,,,,,0,253065.0,73,75.0,0,0,2,0,0,0,-14.0,-7.0,-989.0
1776462340.965159,init_hover,none,-,0,,,,,,,,0,253065.0,73,75.0,0,0,2,0,0,0,-19.0,-14.0,-1001.0
1776462341.0304,init_hover,none,-,0,,,,,,,,0,253065.0,73,75.0,0,0,2,0,0,0,-19.0,-14.0,-1001.0
1776462341.0799491,init_hover,none,-,0,,,,,,,,0,253065.0,73,75.5,0,0,2,0,0,0,-20.0,18.0,-1009.0
1776462341.1300569,init_hover,none,-,0,,,,,,,,0,253065.0,73,75.5,0,0,2,0,0,0,-2.0,8.0,-1135.0
1776462341.180955,init_hover,none,-,0,,,,,,,,0,253065.0,73,75.5,0,0,2,0,0,0,-2.0,8.0,-1135.0
1776462341.231276,init_hover,none,-,0,,,,,,,,0,253065.0,73,75.5,0,0,2,0,0,0,-2.0,8.0,-1135.0
1776462341.2810922,init_hover,none,-,0,,,,,,,,0,253065.0,73,75.5,0,0,3,0,0,-2,7.0,-9.0,-1265.0
1776462341.331531,init_hover,none,-,0,,,,,,,,0,253065.0,73,75.5,0,0,3,0,0,-5,0.0,8.0,-1266.0
1776462341.382184,init_hover,none,-,0,,,,,,,,0,253065.0,73,75.5,0,0,3,0,0,-5,0.0,8.0,-1266.0
1776462341.433433,init_hover,none,-,0,,,,,,,,10,253067.99999999997,73,75.5,0,0,3,0,0,-7,2.0,19.0,-1105.0
1776462341.4842398,init_hover,none,-,0,,,,,,,,10,253067.99999999997,73,75.5,0,0,3,0,0,-7,2.0,19.0,-1105.0
1776462341.53566,init_hover,none,-,0,,,,,,,,10,253108.0,73,75.5,0,-1,3,0,0,-7,2.0,7.0,-1053.0
1776462341.5855,init_hover,none,-,0,,,,,,,,10,253108.0,73,75.5,0,-1,3,0,0,-7,2.0,7.0,-1053.0
1776462341.635378,init_hover,none,-,0,,,,,,,,20,253109.0,73,75.5,0,-1,3,0,0,-7,1.0,22.0,-1001.0
1776462341.683245,init_hover,none,-,0,,,,,,,,20,253109.0,73,75.5,0,-1,3,0,0,-7,1.0,22.0,-1001.0
1776462341.730131,init_hover,none,-,0,,,0,-0.5877802822951407,0.5284070899257953,2.248779843176913,2.325429420151605,30,253116.0,73,75.5,0,-1,3,0,0,-7,1.0,5.0,-964.0
1776462341.7792482,init_hover,none,-,0,,,0,-0.4368897622585069,0.5006876660385511,2.3085591215954513,2.3516336496029147,30,253116.0,73,75.5,0,-1,3,0,0,-7,1.0,5.0,-964.0
1776462341.827944,init_hover,none,-,0,,,,,,,,30,253119.0,73,75.5,0,-1,3,0,0,-7,0.0,19.0,-920.0
1776462341.875728,init_hover,none,-,0,,,0,-0.2840867542995107,0.47617500191171336,2.330139304698744,2.3506567366210533,30,253119.0,73,75.5,0,-1,3,0,0,-7,0.0,19.0,-920.0
1776462341.9265878,init_hover,none,-,0,,,,,,,,40,253126.00000000003,73,75.5,0,-1,3,0,0,-6,0.0,5.0,-924.0
1776462341.976492,init_hover,none,-,0,,,0,-0.6104780810122614,0.5787208086142321,2.2327610315811603,2.314812760360935,40,253126.00000000003,73,75.5,0,-1,3,0,0,-6,0.0,5.0,-924.0
1776462342.0259252,init_hover,none,-,0,,,,,,,,50,253128.00000000003,73,74.5,0,-1,3,0,1,-5,-4.0,7.0,-884.0
1776462342.074555,init_hover,none,-,0,,,0,-0.11746065417606276,0.964256232390309,2.297128780364901,2.3287937310323104,50,253128.00000000003,73,74.5,0,-1,3,0,1,-5,-4.0,7.0,-884.0
1776462342.1262138,init_hover,none,-,0,,,0,0.20035241090081674,0.6293555299431396,2.33082369826157,2.3396029466706,50,253148.0,73,74.5,0,-3,3,0,0,-4,-7.0,2.0,-903.0
1776462342.178676,init_hover,none,-,0,,,0,0.5242367262539367,0.6002446898094985,2.2492884631501,2.309571994003799,50,253148.0,73,74.5,0,-3,3,0,0,-4,-7.0,2.0,-903.0
1776462342.2317262,init_hover,none,-,0,,,0,0.2808751662005336,0.5903544833887815,2.3064045350264686,2.323464175357463,50,253142.99999999997,73,74.5,0,-2,3,0,0,-3,17.0,16.0,-912.0
1776462342.283791,init_hover,none,-,0,,,0,0.2808751662005336,0.5903544833887815,2.3064045350264686,2.323464175357463,50,253142.99999999997,73,74.5,0,-2,3,0,0,-3,17.0,16.0,-912.0
1776462342.337526,init_hover,none,-,0,,,0,0.00042879527057898895,0.2388250192490003,2.306106338239892,2.3342180690449794,60,253146.99999999997,73,74.5,0,-2,3,0,0,-2,14.0,12.0,-918.0
1776462342.389496,init_hover,none,-,0,,,0,0.35761066505174066,0.5819892022633903,2.299726445430074,2.327434531926581,60,253146.99999999997,73,74.5,0,-2,3,0,0,-2,14.0,12.0,-918.0
1776462342.440376,init_hover,none,-,0,,,,,,,,60,253151.00000000003,73,74.5,0,-2,3,0,0,-1,-14.0,34.0,-952.0
1776462342.491926,init_hover,none,-,0,,,0,0.26111391346004215,0.7896325796677894,2.3158159192980508,2.3381925419323695,60,253151.00000000003,73,74.5,0,-2,3,0,0,-1,-14.0,34.0,-952.0
1776462342.542649,init_hover,none,-,0,,,,,,,,60,253157.00000000003,73,74.5,0,-1,3,0,0,-1,-20.0,24.0,-963.0
1776462342.593906,init_hover,none,-,0,,,0,-0.023869450168806487,0.8807794270119624,2.3324821942404985,2.3494424921103088,60,253157.00000000003,73,74.5,0,-1,3,0,0,-1,-20.0,24.0,-963.0
1776462342.644924,init_hover,none,-,0,,,0,-0.038689475707183424,0.8749831358129652,2.3294676140680255,2.3459607766337025,60,253154.0,73,74.5,0,-2,3,0,0,0,1.0,22.0,-960.0
1776462342.694567,init_hover,none,-,0,,,0,0.28939444936561604,0.9769924472740593,2.280967936578788,2.3299543300944343,60,253154.0,73,74.5,0,-2,3,0,0,0,1.0,22.0,-960.0
1776462342.7457972,init_hover,none,-,0,,,0,-0.036650079828143556,0.8577648359912116,2.33239566291659,2.3468820736068325,60,253163.0,73,74.5,0,-2,3,0,0,0,2.0,4.0,-988.0
1776462342.795178,init_hover,none,-,0,,,0,0.29337814228626297,0.7587659733346637,2.33065066953484,2.3544022409230414,60,253163.0,73,74.5,0,-2,3,0,0,0,2.0,4.0,-988.0
1776462342.846643,init_hover,none,-,0,,,0,0.29452276865233906,0.7557162959826429,2.3303277998665513,2.354021852260525,60,253157.00000000003,73,74.5,0,-2,3,0,0,0,4.0,2.0,-994.0
1776462342.89862,init_hover,none,-,0,,,0,0.42039510440298095,0.5603677077552001,2.2939529719022826,2.332492872377938,60,253157.00000000003,73,74.5,0,-2,3,0,0,0,4.0,2.0,-994.0
1776462342.950232,init_hover,none,-,0,,,0,0.2977332526313827,0.7518365894654022,2.3292041154912453,2.3530599761256195,60,253157.00000000003,73,74.5,0,-2,3,0,0,0,4.0,2.0,-994.0
1776462343.001345,init_hover,none,-,0,,,0,0.3105713439092063,0.7595497590288495,2.3241562230411215,2.3502367613422495,60,253161.0,73,74.5,0,-2,3,0,0,0,-6.0,16.0,-1011.0
1776462343.052785,init_hover,none,-,0,,,0,0.11248588958695697,1.024145363173172,2.301675543564895,2.3431309550049106,60,253153.00000000003,73,75.5,0,-1,3,0,0,0,-2.0,21.0,-991.0
1776462343.103766,init_hover,none,-,0,,,,,,,,60,253153.00000000003,73,75.5,0,-1,3,0,0,0,-2.0,21.0,-991.0
1776462343.155692,init_hover,none,-,0,,,0,0.5661337544030606,0.6703308932238605,2.2826031832211893,2.3528134550932163,60,253153.00000000003,73,75.5,0,-1,3,0,0,0,-5.0,31.0,-982.0
1776462343.206621,init_hover,none,-,0,,,,,,,,60,253153.00000000003,73,75.5,0,-1,3,0,0,0,-5.0,31.0,-982.0
1776462343.257619,init_hover,none,-,0,,,,,,,,60,253157.00000000003,73,75.5,0,-1,3,0,0,0,-8.0,29.0,-1001.0
1776462343.308896,init_hover,none,-,0,,,,,,,,60,253157.00000000003,73,75.5,0,-1,3,0,0,0,-8.0,29.0,-1001.0
1776462343.358944,init_hover,none,-,0,,,,,,,,60,253157.00000000003,73,75.5,0,-1,3,0,0,0,-8.0,29.0,-1001.0
1776462343.41019,init_hover,none,-,0,,,,,,,,70,253162.0,73,75.5,0,-1,3,0,0,0,2.0,2.0,-993.0
1776462343.460646,init_hover,none,-,0,,,0,0.3317957372493647,0.7419025307358605,2.3440853343653236,2.371699979818839,70,253165.0,73,75.5,0,-1,3,0,0,0,15.0,-1.0,-996.0
1776462343.50895,init_hover,none,-,0,,,0,0.3334829405669079,0.7414126574736549,2.343341458933484,2.371172200515901,70,253165.0,73,75.5,0,-1,3,0,0,0,15.0,-1.0,-996.0
1776462343.560566,init_hover,none,-,0,,,0,0.33678996489843305,0.7404819336391532,2.3418703663154035,2.3701306855870894,70,253157.00000000003,73,75.5,0,-1,3,0,0,0,9.0,22.0,-991.0
1776462343.611386,init_hover,none,-,0,,,0,0.1259403317532551,1.015660071996007,2.3512590125575374,2.39103601117735,70,253157.00000000003,73,75.5,0,-1,3,0,0,0,9.0,22.0,-991.0
1776462343.6603131,init_hover,none,-,0,,,,,,,,70,253165.0,73,75.5,0,-1,3,0,0,0,-6.0,40.0,-1008.0
1776462343.709331,init_hover,none,-,0,,,0,0.34649286540822855,0.742548424263299,2.36500569377247,2.3944997996690156,70,253157.00000000003,73,75.5,0,-1,3,0,0,0,-2.0,36.0,-992.0
1776462343.757247,init_hover,none,-,0,,,0,-0.0751180594334827,0.7935358597747862,2.382406985458241,2.3914351122771533,70,253157.00000000003,73,75.5,0,-1,3,0,0,0,-2.0,36.0,-992.0
1776462343.8043709,init_hover,none,-,0,,,0,-0.050951912026469724,0.7830238964601738,2.3843650643950887,2.3919219477906077,70,253157.00000000003,73,75.5,0,-1,3,0,0,0,-2.0,36.0,-992.0
1776462343.8517828,init_hover,none,-,0,,,,,,,,70,253153.00000000003,73,75.5,0,-1,3,0,0,0,-3.0,45.0,-986.0
1776462343.8985448,init_hover,none,-,0,,,0,-0.3509285415207628,0.45644767079897164,2.3628487462581194,2.3930759098211856,70,253153.00000000003,73,75.5,0,-1,3,0,0,0,-3.0,45.0,-986.0
1776462343.9477818,init_hover,none,-,0,,,,,,,,70,253161.0,73,75.5,0,-1,3,0,0,0,-6.0,28.0,-987.0
1776462343.9951282,init_hover,none,-,0,,,0,-0.3476099162451239,0.47012952238081507,2.363789154413843,2.392738632060236,70,253161.0,73,75.5,0,-1,3,0,0,0,-6.0,28.0,-987.0
1776462344.047014,init_hover,none,-,0,,,,,,,,70,253161.0,73,75.5,0,-1,3,0,0,0,-6.0,28.0,-987.0
1776462344.097027,init_hover,none,-,0,,,,,,,,70,253157.00000000003,73,76.0,0,-1,3,0,0,0,-6.0,12.0,-989.0
1776462344.148212,init_hover,none,-,0,,,0,0.06408644595860755,0.421387643943549,2.4113302904840443,2.418785483687528,70,253157.00000000003,73,76.0,0,-1,3,0,0,0,-6.0,12.0,-989.0
1776462344.199112,init_hover,none,-,0,,,0,-0.13268881807366073,0.19056155637309719,2.349582717672518,2.3886785277108307,70,253164.0,73,76.0,0,-1,3,0,0,0,-1.0,5.0,-1019.0
1776462344.251271,init_hover,none,-,0,,,0,-0.3542732051845828,0.455795570747338,2.3611581801099595,2.391939040366209,70,253166.0,73,76.0,0,-1,3,0,0,0,0.0,13.0,-985.0
1776462344.3021839,init_hover,none,-,0,,,0,0.058662144664489754,0.4220967978973713,2.409500454382334,2.4167712420094047,70,253166.0,73,76.0,0,-1,3,0,0,0,0.0,13.0,-985.0
1776462344.3540108,init_hover,none,-,0,,,0,0.058662144664489754,0.4220967978973713,2.409500454382334,2.4167712420094047,70,253167.0,73,76.0,0,-1,3,0,0,0,-21.0,46.0,-1018.0
1776462344.405969,init_hover,none,-,0,,,0,0.058662144664489754,0.4220967978973713,2.409500454382334,2.4167712420094047,70,253167.0,73,76.0,0,-1,3,0,0,0,-21.0,46.0,-1018.0
1776462344.458431,init_hover,none,-,0,,,0,-0.05995837158913602,0.7757576790384191,2.409241081838438,2.4163874603388087,70,253171.99999999997,73,76.0,0,-1,3,0,0,0,10.0,-1.0,-1017.0
1776462344.5091882,init_hover,none,-,0,,,0,-0.006524684998205497,1.1288006815360703,2.332272423298941,2.391478076167133,70,253171.99999999997,73,76.0,0,-1,3,0,0,0,10.0,-1.0,-1017.0
1776462344.5587819,init_hover,none,-,0,,,0,0.3609762725722122,0.7483257145947001,2.3882575506914727,2.4199335766514314,70,253182.00000000003,73,76.0,0,-1,3,0,0,0,15.0,13.0,-979.0
1776462344.608619,init_hover,none,-,0,,,0,0.3609762725722122,0.7483257145947001,2.3882575506914727,2.4199335766514314,70,253182.00000000003,73,76.0,0,-1,3,0,0,0,15.0,13.0,-979.0
1776462344.660449,init_hover,none,-,0,,,,,,,,70,253181.0,73,76.0,0,-1,3,0,0,0,-7.0,8.0,-999.0
1776462344.7110121,init_hover,none,-,0,,,0,0.13427082325266335,1.011303968871679,2.3493360028407424,2.388844754903562,70,253181.0,73,76.0,0,-1,3,0,0,0,-7.0,8.0,-999.0
1776462344.760341,init_hover,none,-,0,,,0,0.13427082325266335,1.011303968871679,2.3493360028407424,2.388844754903562,70,253178.00000000003,73,76.0,0,-1,3,0,0,0,-6.0,27.0,-1017.0
1776462344.812774,init_hover,none,-,0,,,0,0.13427082325266335,1.011303968871679,2.3493360028407424,2.388844754903562,70,253178.00000000003,73,76.0,0,-1,3,0,0,0,-6.0,27.0,-1017.0
1776462344.8625228,init_hover,none,-,0,,,,,,,,70,253164.0,73,76.0,0,-1,3,0,0,0,18.0,5.0,-1000.0
1776462344.913994,init_hover,none,-,0,,,0,-0.0056537155629677715,1.1312541756574135,2.332149560635196,2.391899775664533,70,253164.0,73,76.0,0,-1,3,0,0,0,18.0,5.0,-1000.0
1776462344.9646149,init_hover,none,-,0,,,,,,,,70,253155.00000000003,73,76.0,0,-1,3,0,0,0,-4.0,26.0,-998.0
1776462345.015121,init_hover,none,-,0,,,,,,,,70,253155.00000000003,73,76.0,0,-1,3,0,0,0,-4.0,26.0,-998.0
1776462345.0656068,init_hover,none,-,0,,,0,0.3584113251265777,0.7508022593908024,2.3893346975100154,2.4207685341935603,70,253157.00000000003,73,75.0,0,-1,3,0,0,0,3.0,5.0,-1021.0
1776462345.117279,init_hover,none,-,0,,,0,0.6007862624046333,0.6773497606224053,2.318496844195939,2.39632108347546,70,253157.00000000003,73,75.0,0,-1,3,0,0,0,3.0,5.0,-1021.0
1776462345.168695,init_hover,none,-,0,,,0,0.3584113251265777,0.7508022593908024,2.3893346975100154,2.4207685341935603,70,253162.0,73,75.0,0,-1,3,0,0,0,-13.0,13.0,-998.0
1776462345.2202659,init_hover,none,-,0,,,0,-0.05572596891774176,0.7848765606324946,2.411519832860265,2.4192380268509175,70,253162.0,73,75.0,0,-1,3,0,0,0,-13.0,13.0,-998.0
1776462345.271184,init_hover,none,-,0,,,0,0.05459195729746849,0.41115546349296267,2.411115613287266,2.419115756099273,70,253151.00000000003,73,75.0,0,-1,3,0,0,0,13.0,12.0,-982.0
1776462345.322281,init_hover,none,-,0,,,0,0.04959808107783604,0.4101323405343563,2.4098576825966775,2.417834516282658,70,253151.00000000003,73,75.0,0,-1,3,0,0,0,13.0,12.0,-982.0
1776462345.392556,recenter,right,-,1,,,0,0.04959808107783604,0.4101323405343563,2.4098576825966775,2.417834516282658,70,253164.0,73,75.0,0,-1,3,0,0,0,1.0,14.0,-991.0
1776462345.442225,recenter,right,-,1,,,0,0.35739398124713506,0.7490184425603503,2.388042190715939,2.419231791022549,70,253164.0,73,75.0,0,-1,3,0,0,0,1.0,14.0,-991.0
1776462345.493353,recenter,right,-,1,,,0,0.35739398124713506,0.7490184425603503,2.388042190715939,2.419231791022549,70,253159.0,73,75.0,0,-1,3,0,0,0,-17.0,20.0,-1003.0
1776462345.545077,recenter,right,-,1,,,0,0.1337730605416962,1.0158647403832624,2.349297211636903,2.3895681832970697,70,253159.0,73,75.0,0,-1,3,0,0,0,-17.0,20.0,-1003.0
1776462345.595648,recenter,right,-,1,,,0,0.13762938735873914,1.0236706475173207,2.374289451063737,2.415717090899725,70,253162.0,73,75.0,0,-1,3,0,0,0,-3.0,20.0,-998.0
1776462345.6451719,recenter,right,-,1,,,0,0.13318483334962966,1.0172225431105808,2.34939535815649,2.389868489946945,70,253162.0,73,75.0,0,-1,3,0,0,0,-3.0,20.0,-998.0
1776462345.695246,recenter,right,-,1,,,0,0.13259935099646347,1.018593583106592,2.349492614661543,2.3901712746269532,70,253165.0,73,75.0,0,-1,3,0,0,0,4.0,19.0,-1002.0
1776462345.7435431,recenter,right,-,1,,,0,0.35283052884629884,0.7508041249673156,2.390156898022406,2.420760472115572,70,253165.0,73,75.0,0,-1,3,0,0,0,4.0,19.0,-1002.0
1776462345.792609,recenter,right,-,1,,,0,-0.005084856731435151,1.1373707841463494,2.332024835831541,2.393142923094475,70,253164.0,73,75.0,0,-1,3,0,0,0,-9.0,22.0,-1008.0
1776462345.991476,recenter,right,-,1,,,0,0.13221325086383437,1.023324619786102,2.3494447078418297,2.390935907260379,70,253161.0,73,75.0,0,-1,3,0,0,0,7.0,22.0,-1004.0
1776462346.0409238,recenter,right,-,1,,,0,0.13164189087261866,1.0247436945080723,2.3495391181931238,2.3912488079195366,70,253161.0,73,75.0,0,-1,3,0,0,0,7.0,22.0,-1004.0
1776462346.0951319,recenter,right,-,1,,,0,0.13107352183107315,1.0261753909913625,2.349632628031793,2.3915641782572825,70,253158.0,73,75.0,0,-1,3,0,0,0,2.0,26.0,-990.0
1776462346.149743,recenter,right,-,1,,,0,0.13107352183107315,1.0261753909913625,2.349632628031793,2.3915641782572825,70,253158.0,73,75.0,0,-1,3,0,0,0,2.0,26.0,-990.0
1776462346.2015722,recenter,right,-,1,,,0,0.4552559832511807,0.5733281339161878,2.333773642420076,2.3779127008326153,70,253158.0,73,75.0,0,-1,3,0,0,0,-3.0,19.0,-1005.0
1776462346.254632,recenter,right,-,1,,,0,0.5821465608466913,0.6814245030763753,2.3019896452684003,2.375853719177551,70,253158.0,73,75.0,0,-1,3,0,0,0,-3.0,19.0,-1005.0
1776462346.361682,recenter,right,-,1,,,0,0.13135178490036012,1.0296014127431943,2.3494849774001563,2.392047308114217,70,253159.0,73,75.0,0,-1,3,0,0,0,4.0,22.0,-1005.0
1776462346.466078,recenter,right,-,1,,,0,0.13079865840394692,1.0310674422111987,2.349576016029523,2.3923701393964825,70,253159.0,73,75.0,0,-1,3,0,0,0,4.0,22.0,-1005.0
1776462346.5194392,recenter,right,-,1,,,0,0.13079865840394692,1.0310674422111987,2.349576016029523,2.3923701393964825,70,253159.0,73,75.0,0,-1,3,0,0,0,4.0,22.0,-1005.0
1776462346.57113,recenter,right,-,1,,,0,0.14125886934192597,1.0351421337834061,2.3471809131116874,2.391351288212827,70,253167.0,73,75.0,0,-1,3,0,0,0,-1.0,30.0,-1001.0
1776462346.6225102,recenter,right,-,1,,,0,0.1302448629629048,1.0325445963507378,2.349666745358998,2.3926956276146774,70,253167.0,73,75.0,0,-1,3,0,0,0,-1.0,30.0,-1001.0
1776462346.674016,recenter,right,-,1,,,0,0.450941659802337,0.5741153272645085,2.3363617358237385,2.379622776292331,70,253167.0,73,75.0,0,-1,3,0,0,0,-1.0,30.0,-1001.0
1776462346.725373,recenter,right,-,1,,,0,0.32942442469874245,0.763096290425777,2.3727488607034144,2.4010535203339587,70,253159.0,73,75.0,0,-1,3,0,0,0,11.0,20.0,-987.0
1776462346.777571,recenter,right,-,1,,,0,0.13114103086674309,1.0345511689713507,2.349426565393025,2.392872306372746,70,253159.0,73,75.0,0,-1,3,0,0,0,11.0,20.0,-987.0
1776462346.930291,recenter,right,-,1,,,0,-0.04642404702253904,0.8293537369590498,2.3837750596459424,2.395233154369121,70,253159.0,73,75.0,0,-1,3,0,0,0,-13.0,10.0,-1030.0
1776462346.980742,recenter,right,-,1,,,0,-0.3242331416140285,0.45020836402844644,2.373462685567933,2.400185364531515,70,253153.00000000003,73,75.0,0,-1,3,0,0,0,2.0,26.0,-1015.0
1776462347.131242,recenter,right,-,1,,,0,0.037732513431618354,0.3687005909041897,2.412229708162863,2.42358728420526,70,253156.0,73,75.5,0,-1,3,0,0,0,17.0,13.0,-1016.0
1776462347.182945,recenter,right,-,1,,,0,0.32835282100239227,0.7656513008126664,2.3731066676887402,2.4014352343442273,70,253154.0,73,75.5,0,-1,3,0,0,0,7.0,5.0,-998.0
1776462347.28562,recenter,right,-,1,,,0,0.03799650149279058,0.3718702984327341,2.41221902997356,2.423280327042136,70,253156.0,73,75.5,0,-1,3,0,0,0,16.0,16.0,-998.0
1776462347.3354292,recenter,right,-,1,,,0,0.45810885194237033,0.5792283557753164,2.3612517059110347,2.4053699923503506,70,253156.0,73,75.5,0,-1,3,0,0,0,16.0,16.0,-998.0
1776462347.38782,recenter,right,-,1,,,0,0.45810885194237033,0.5792283557753164,2.3612517059110347,2.4053699923503506,70,253165.0,73,75.5,0,-1,3,0,0,0,-3.0,8.0,-997.0
1776462347.490439,recenter,right,-,1,,,0,0.13364526624100145,1.0320968966241575,2.348924322917033,2.392073213773378,70,253165.0,73,75.5,0,-1,3,0,0,0,-3.0,8.0,-997.0
1776462347.648145,recenter,right,-,1,,,0,0.13470591065400572,1.029183163200865,2.3487440934777957,2.391431095931275,70,253155.00000000003,73,75.5,0,-1,2,0,0,0,11.0,14.0,-1006.0
1776462347.9029639,recenter,right,-,1,,,0,0.34873190825304257,0.7635885844499708,2.3932984482685544,2.424098313039474,70,253158.0,73,75.5,0,-1,2,0,0,0,6.0,17.0,-990.0
1776462348.007874,recenter,right,-,1,,,0,0.35029304778510933,0.76289547832303,2.3925857483191364,2.4235731305748773,70,253158.0,73,75.5,0,-1,2,0,0,0,-13.0,39.0,-1016.0
1776462348.060797,recenter,right,-,1,,,0,0.6944896375134324,0.7528646454570023,2.259220249464747,2.368493105760662,70,253158.0,73,75.5,0,-1,2,0,0,0,-13.0,39.0,-1016.0
1776462348.1134238,recenter,right,-,1,,,0,0.5956649699174531,0.6830875021035452,2.322496667992956,2.3991063049041723,70,253162.0,73,76.0,0,-1,2,0,0,0,3.0,21.0,-1004.0
1776462348.1655848,recenter,right,-,1,,,0,0.695155203782397,0.7526757459905752,2.2584633482809937,2.3679542513081033,70,253162.0,73,76.0,0,-1,2,0,0,0,3.0,21.0,-1004.0
1776462348.217504,recenter,right,-,1,,,0,0.5974555873877542,0.6828438145650515,2.3209154633178484,2.3980126906212234,70,253158.0,73,76.0,0,-1,2,0,0,0,-1.0,36.0,-995.0
1776462348.268399,recenter,right,-,1,,,0,0.5974555873877542,0.6828438145650515,2.3209154633178484,2.3980126906212234,70,253157.00000000003,73,76.0,0,-1,2,0,0,0,-2.0,31.0,-998.0
1776462348.320904,recenter,right,-,1,,,0,0.5240023516653801,0.8265852180785166,2.3200492520793956,2.389256758424406,70,253157.00000000003,73,76.0,0,-1,2,0,0,0,-2.0,31.0,-998.0
1776462348.37295,recenter,right,-,1,,,0,0.7089721997245491,0.7553955495013502,2.279678713006735,2.392430645039295,70,253157.00000000003,73,76.0,0,-1,2,0,0,0,-2.0,31.0,-998.0
1776462348.424974,recenter,right,-,1,,,0,0.7089721997245491,0.7553955495013502,2.279678713006735,2.392430645039295,70,253161.0,73,76.0,0,-1,2,0,0,0,11.0,8.0,-982.0
1776462348.6860821,recenter,right,-,1,,,0,0.36034336161992425,0.7620713997248764,2.387765277332361,2.4202350085283904,70,253166.0,73,76.0,0,-1,2,0,0,0,-8.0,5.0,-1000.0
1776462348.789162,recenter,right,-,1,,,0,0.13760066198072188,1.0333861261015689,2.4010106785701257,2.4436877368196273,70,253163.0,73,76.0,0,-1,2,0,0,0,3.0,37.0,-986.0
1776462348.841954,recenter,right,-,1,,,0,-0.01683916115704871,0.7833448464476562,2.4408876581813095,2.447821776586119,70,253163.0,73,76.0,0,-1,2,0,0,0,3.0,37.0,-986.0
1776462348.8928618,recenter,right,-,1,,,0,-0.48329744966662197,0.6164591709855336,2.3772071717813965,2.4258939108569235,70,253169.99999999997,73,76.0,0,0,2,0,0,0,0.0,22.0,-1016.0
1776462348.944958,recenter,right,-,1,,,0,-0.01683916115704871,0.7833448464476562,2.4408876581813095,2.447821776586119,70,253169.99999999997,73,76.0,0,0,2,0,0,0,0.0,22.0,-1016.0
1776462348.996064,recenter,right,-,1,,,0,-0.01683916115704871,0.7833448464476562,2.4408876581813095,2.447821776586119,70,253164.0,73,76.0,0,0,2,0,0,0,10.0,-9.0,-1000.0
1776462349.0462432,recenter,right,-,1,,,0,-0.01683916115704871,0.7833448464476562,2.4408876581813095,2.447821776586119,70,253164.0,73,76.0,0,0,2,0,0,0,10.0,-9.0,-1000.0
1776462349.095789,recenter,right,-,1,,,0,0.36496483100560306,0.767703055318595,2.4155960603889906,2.4487604965780037,70,253175.0,73,76.5,0,0,2,0,0,0,5.0,-4.0,-984.0
1776462349.146847,recenter,right,-,1,,,0,-0.01683916115704871,0.7833448464476562,2.4408876581813095,2.447821776586119,70,253175.0,73,76.5,0,0,2,0,0,0,5.0,-4.0,-984.0
1776462349.1973062,recenter,right,-,1,,,0,0.36196463280543384,0.7702909639327319,2.416568440412602,2.4494530889562487,70,253173.0,73,76.5,0,0,2,0,0,0,16.0,2.0,-985.0
1776462349.2990148,recenter,right,-,1,,,0,-0.04338395033261809,0.7926942526423644,2.4384665105956866,2.446452976340352,70,253165.0,73,76.5,0,-1,2,0,0,0,-4.0,22.0,-1000.0
1776462349.350249,recenter,right,-,1,,,0,-0.020376737307892825,0.7869517988160251,2.4408877417109593,2.4481215562423952,70,253165.0,73,76.5,0,-1,2,0,0,0,-4.0,22.0,-1000.0
1776462349.452972,recenter,right,-,1,,,0,-0.1571680491420611,1.0413930980439525,2.3683521083896455,2.4142537919584264,70,253167.0,73,76.5,0,-1,2,0,0,0,26.0,0.0,-983.0
1776462349.746878,recenter,right,-,1,,,0,-0.05785188493140613,0.8024747428666031,2.43935811454159,2.448430287565671,70,253167.99999999997,73,76.5,0,-1,2,0,0,0,-17.0,29.0,-1010.0
1776462349.7960992,recenter,right,-,1,,,0,0.1525368775384327,1.0389278882697368,2.398959793929548,2.4435493207628536,70,253169.99999999997,73,76.5,0,-1,2,0,0,0,12.0,7.0,-979.0
1776462349.894232,recenter,right,-,1,,,0,-0.03411206376766471,0.7978352793824095,2.4408344565514235,2.449076412640383,70,253171.0,73,76.5,0,-1,2,0,0,0,0.0,30.0,-1007.0
1776462350.14908,recenter,right,-,1,,,0,0.36473314881352853,0.7690503919862219,2.4152208159372486,2.4484484668072377,70,253167.99999999997,73,76.0,0,-1,2,0,0,0,-5.0,23.0,-1002.0
1776462350.251093,recenter,right,-,1,,,0,0.480786397924733,0.5775885915685033,2.380977209396814,2.429137769523244,70,253165.0,73,76.0,0,-1,2,0,0,0,-8.0,19.0,-1003.0
1776462350.3015301,recenter,right,-,1,,,0,0.3569830999752689,0.7582502177255803,2.420046946708805,2.4513480555304166,70,253166.0,73,76.0,0,-1,2,0,0,0,4.0,29.0,-1009.0
1776462350.3534899,recenter,right,-,1,,,0,0.6088340896880128,0.6821472697990673,2.347130900798605,2.4262008548727665,70,253166.0,73,76.0,0,-1,2,0,0,0,4.0,29.0,-1009.0
1776462350.509162,recenter,right,-,1,,,0,0.1383207253969588,1.0299045977299368,2.402486397359769,2.4445636575312175,70,253167.0,73,76.0,0,-1,2,0,0,0,30.0,-1.0,-980.0
1776462350.561131,recenter,right,-,1,,,0,0.1383207253969588,1.0299045977299368,2.402486397359769,2.4445636575312175,70,253167.0,73,76.0,0,-1,2,0,0,0,30.0,-1.0,-980.0
1776462350.8153431,recenter,right,-,1,,,0,0.6123329196031856,0.6809553266782178,2.344127994147586,2.4241372531879715,70,253165.0,73,76.0,0,-1,2,0,0,0,23.0,-1.0,-1026.0
1776462350.868184,recenter,right,-,1,,,0,0.4855500451168927,0.572077092175539,2.3769538023758887,2.426200303710224,70,253165.0,73,76.0,0,-1,2,0,0,0,23.0,-1.0,-1026.0
1776462350.9197729,recenter,right,-,1,,,0,0.36432720517139283,0.7542391163666632,2.4167685461061907,2.4489373660618186,70,253164.0,73,76.0,0,-1,2,0,0,0,30.0,12.0,-1016.0
1776462351.0240068,recenter,right,-,1,,,0,-0.005416287709910242,1.1471044415180334,2.384495792489843,2.446461279175103,70,253171.99999999997,73,76.0,0,-1,2,0,0,0,-21.0,17.0,-988.0
1776462351.076137,recenter,right,-,1,,,0,-0.005416287709910242,1.1471044415180334,2.384495792489843,2.446461279175103,70,253171.99999999997,73,76.0,0,-1,2,0,0,0,-21.0,17.0,-988.0
1776462351.1783879,recenter,right,-,1,,,0,0.14007439261771146,1.0226190560243982,2.402317191168387,2.4432264710757665,70,253167.0,73,75.5,0,-1,2,0,0,0,10.0,12.0,-992.0
1776462351.229505,recenter,right,-,1,,,0,-0.05008520900545986,0.7705053479135527,2.440537884777303,2.4469993397754553,70,253165.0,73,75.5,0,-1,2,0,0,0,7.0,18.0,-1009.0
1776462351.332851,recenter,right,-,1,,,0,-0.3629246695562811,0.4610887234231935,2.416945102574879,2.4479857612726077,70,253159.0,73,75.5,0,-1,2,0,0,0,-1.0,-2.0,-1013.0
1776462351.38481,recenter,right,-,1,,,0,-0.36790136054839445,0.44782908467673943,2.4152536142485,2.4478475074448816,70,253159.0,73,75.5,0,-1,2,0,0,0,-1.0,-2.0,-1013.0
1776462351.416325,pre_hover,right,x,1,,,,,,,,70,253165.0,73,75.5,0,-1,2,0,0,0,-10.0,14.0,-1000.0
1776462351.4678478,pre_hover,right,x,1,,,,,,,,70,253165.0,73,75.5,0,-1,2,0,0,0,-10.0,14.0,-1000.0
1776462351.518595,pre_hover,right,x,1,,,,,,,,70,253165.0,73,75.5,0,-1,2,0,0,0,-10.0,14.0,-1000.0
1776462351.570606,pre_hover,right,x,1,,,0,0.064725721888478,0.42260049597491806,2.4673681457199814,2.4745839184832645,70,253169.99999999997,73,75.5,0,-1,2,0,0,0,-13.0,15.0,-1006.0
1776462351.6213849,pre_hover,right,x,1,,,,,,,,70,253167.0,73,75.5,0,-1,2,0,0,0,2.0,5.0,-1019.0
1776462351.672069,pre_hover,right,x,1,,,,,,,,70,253167.0,73,75.5,0,-1,2,0,0,0,2.0,5.0,-1019.0
1776462351.7227159,pre_hover,right,x,1,,,,,,,,70,253167.0,73,75.5,0,-1,2,0,0,0,2.0,5.0,-1019.0
1776462351.7740958,pre_hover,right,x,1,,,,,,,,70,253163.0,73,75.5,0,-1,2,0,0,0,14.0,20.0,-1008.0
1776462351.8256361,pre_hover,right,x,1,,,,,,,,70,253159.0,73,75.5,0,-1,2,0,0,0,21.0,22.0,-1002.0
1776462351.8751261,pre_hover,right,x,1,,,,,,,,70,253164.0,73,75.5,0,-1,2,0,0,0,-1.0,8.0,-979.0
1776462351.925807,pre_hover,right,x,1,,,0,-0.3626540144823298,0.4626774784315282,2.4172291956625354,2.4481365144765563,70,253164.0,73,75.5,0,-1,2,0,0,0,-1.0,8.0,-979.0
1776462351.975616,pre_hover,right,x,1,,,0,-0.3626540144823298,0.4626774784315282,2.4172291956625354,2.4481365144765563,70,253164.0,73,75.5,0,-1,2,0,0,0,-1.0,8.0,-979.0
1776462352.027733,pre_hover,right,x,1,,,0,-0.3626540144823298,0.4626774784315282,2.4172291956625354,2.4481365144765563,70,253163.0,73,75.5,0,-1,2,0,0,0,11.0,3.0,-992.0
1776462352.077368,pre_hover,right,x,1,,,0,-0.3626540144823298,0.4626774784315282,2.4172291956625354,2.4481365144765563,70,253163.0,73,75.5,0,-1,2,0,0,0,11.0,3.0,-992.0
1776462352.1272352,pre_hover,right,x,1,,,0,-0.3626540144823298,0.4626774784315282,2.4172291956625354,2.4481365144765563,70,253169.99999999997,73,76.0,0,-1,2,0,0,0,11.0,12.0,-1009.0
1776462352.179322,pre_hover,right,x,1,,,0,-0.36759901337223067,0.4493766273600972,2.415556847732327,2.4480055799863267,70,253169.99999999997,73,76.0,0,-1,2,0,0,0,11.0,12.0,-1009.0
1776462352.229818,pre_hover,right,x,1,,,,,,,,70,253161.0,73,76.0,0,-1,2,0,0,0,15.0,16.0,-963.0
1776462352.279839,pre_hover,right,x,1,,,,,,,,70,253161.0,73,76.0,0,-1,2,0,0,0,15.0,16.0,-963.0
1776462352.332075,pre_hover,right,x,1,,,,,,,,70,253162.0,73,76.0,0,-1,2,0,0,0,0.0,21.0,-988.0
1776462352.38383,pre_hover,right,x,1,,,,,,,,70,253161.0,73,76.0,0,-1,2,0,0,0,-6.0,28.0,-1015.0
1776462352.435582,pre_hover,right,x,1,,,,,,,,70,253161.0,73,76.0,0,-1,2,0,0,0,-6.0,28.0,-1015.0
1776462352.487224,pre_hover,right,x,1,,,0,0.06879040011538766,0.42534175715228745,2.467192981376058,2.4743239133739077,70,253165.0,73,76.0,0,-1,2,0,0,0,10.0,2.0,-997.0
1776462352.538677,pre_hover,right,x,1,,,0,0.36961376754312136,0.74958132692232,2.414569252507927,2.4472706400555606,70,253165.0,73,76.0,0,-1,2,0,0,0,10.0,2.0,-997.0
1776462352.59167,pre_hover,right,x,1,,,,,,,,70,253166.0,73,76.0,0,-1,2,0,0,0,2.0,11.0,-988.0
1776462352.6431339,pre_hover,right,x,1,,,,,,,,70,253166.0,73,76.0,0,-1,2,0,0,0,2.0,11.0,-988.0
1776462352.692498,pre_hover,right,x,1,,,0,-0.016681485597425143,1.1420250290523137,2.3845767757306473,2.445460243683153,70,253156.0,73,76.0,0,-1,2,0,0,0,22.0,6.0,-1004.0
1776462352.7435808,pre_hover,right,x,1,,,0,-0.016681485597425143,1.1420250290523137,2.3845767757306473,2.445460243683153,70,253156.0,73,76.0,0,-1,2,0,0,0,22.0,6.0,-1004.0
1776462352.79341,pre_hover,right,x,1,,,0,-0.016681485597425143,1.1420250290523137,2.3845767757306473,2.445460243683153,70,253156.0,73,76.0,0,-1,2,0,0,0,22.0,6.0,-1004.0
1776462352.844461,pre_hover,right,x,1,,,0,0.3722332323335022,0.7474305289566381,2.4134796230320554,2.446462186691802,70,253160.0,73,76.0,0,-1,2,0,0,0,-12.0,33.0,-1013.0
1776462352.896091,pre_hover,right,x,1,,,0,-0.0737745392276773,0.7660847770325105,2.466685189379624,2.473370708022756,70,253155.00000000003,73,76.0,0,-1,2,0,0,0,33.0,-11.0,-952.0
1776462352.946072,pre_hover,right,x,1,,,0,0.14013871803865144,1.0162935956964985,2.402593969822739,2.442416222092382,70,253155.00000000003,73,76.0,0,-1,2,0,0,0,33.0,-11.0,-952.0
1776462352.996813,pre_hover,right,x,1,,,0,-0.016681485597425143,1.1420250290523137,2.3845767757306473,2.445460243683153,70,253164.0,73,76.0,0,-1,2,0,0,0,-3.0,19.0,-1026.0
1776462353.046976,pre_hover,right,x,1,,,0,0.09439402905381003,1.2562999239408164,2.3531974668202245,2.4448268120124284,70,253164.0,73,76.0,0,-1,2,0,0,0,-3.0,19.0,-1026.0
1776462353.097912,pre_hover,right,x,1,,,,,,,,70,253157.00000000003,73,75.5,0,-1,2,0,0,0,5.0,20.0,-1008.0
1776462353.149076,pre_hover,right,x,1,,,,,,,,70,253157.00000000003,73,75.5,0,-1,2,0,0,0,5.0,20.0,-1008.0
1776462353.200074,pre_hover,right,x,1,,,,,,,,70,253167.0,73,75.5,0,-1,2,0,0,0,-8.0,20.0,-1004.0
1776462353.250031,pre_hover,right,x,1,,,0,0.5453330060035918,0.8147572992381973,2.3695610768814777,2.4409687589325486,70,253167.0,73,75.5,0,-1,2,0,0,0,-8.0,20.0,-1004.0
1776462353.3010712,pre_hover,right,x,1,,,,,,,,70,253160.0,73,75.5,0,-1,2,0,0,0,-7.0,16.0,-1007.0
1776462353.3528361,pre_hover,right,x,1,,,,,,,,70,253160.0,73,75.5,0,-1,2,0,0,0,-7.0,16.0,-1007.0
1776462353.40466,pre_hover,right,x,1,,,,,,,,70,253160.0,73,75.5,0,-1,2,0,0,0,13.0,2.0,-972.0
1776462353.457155,pre_hover,right,x,1,,,0,0.0694905731483276,0.42873877883707345,2.467137664262252,2.474050848315794,70,253160.0,73,75.5,0,-1,2,0,0,0,13.0,2.0,-972.0
1776462353.5086029,pre_hover,right,x,1,,,0,0.0694905731483276,0.42873877883707345,2.467137664262252,2.474050848315794,70,253163.0,73,75.5,0,-1,2,0,0,0,11.0,10.0,-1011.0
1776462353.560458,pre_hover,right,x,1,,,0,-0.37050827560272864,0.4500866997107856,2.4141665083756303,2.4470288739727395,70,253163.0,73,75.5,0,-1,2,0,0,0,11.0,10.0,-1011.0
1776462353.612256,pre_hover,right,x,1,,,0,-0.13935945025007695,0.1727417316089448,2.430511516736665,2.4717113337265113,70,253158.0,73,75.5,0,-1,2,0,0,0,18.0,8.0,-994.0
1776462353.663998,pre_hover,right,x,1,,,0,-0.3690631037093539,0.44973874974274775,2.4148587395059176,2.447514810908519,70,253158.0,73,75.5,0,-1,2,0,0,0,18.0,8.0,-994.0
1776462353.7150779,pre_hover,right,x,1,,,,,,,,70,253157.00000000003,73,75.5,0,-1,2,0,0,0,11.0,15.0,-1002.0
1776462353.765787,pre_hover,right,x,1,,,,,,,,70,253157.00000000003,73,75.5,0,-1,2,0,0,0,11.0,15.0,-1002.0
1776462353.815319,pre_hover,right,x,1,,,,,,,,70,253157.00000000003,73,75.5,0,-1,2,0,0,0,11.0,15.0,-1002.0
1776462353.8674078,pre_hover,right,x,1,,,,,,,,70,253160.0,73,75.5,0,-1,2,0,0,0,-1.0,14.0,-1005.0
1776462353.918945,pre_hover,right,x,1,,,0,-0.13802717641390763,0.17016152406175727,2.4307336601421294,2.4723023163386917,70,253160.0,73,75.5,0,-1,2,0,0,0,-1.0,14.0,-1005.0
1776462353.970688,pre_hover,right,x,1,,,0,-0.13802717641390763,0.17016152406175727,2.4307336601421294,2.4723023163386917,70,253160.0,73,75.5,0,-1,2,0,0,0,-1.0,14.0,-1005.0
1776462354.023943,pre_hover,right,x,1,,,0,-0.13802717641390763,0.17016152406175727,2.4307336601421294,2.4723023163386917,70,253159.0,73,75.5,0,-1,2,0,0,0,-18.0,26.0,-1005.0
1776462354.0752242,pre_hover,right,x,1,,,0,-0.373904256824155,0.44981362946921977,2.443019389369313,2.4760258633541863,70,253159.0,73,75.5,0,-1,2,0,0,0,-18.0,26.0,-1005.0
1776462354.126532,pre_hover,right,x,1,,,0,-0.373904256824155,0.44981362946921977,2.443019389369313,2.4760258633541863,70,253159.0,73,75.5,0,-1,2,0,0,0,-18.0,26.0,-1005.0
1776462354.177,pre_hover,right,x,1,,,0,-0.373904256824155,0.44981362946921977,2.443019389369313,2.4760258633541863,70,253159.0,73,75.5,0,-1,2,0,0,0,-18.0,26.0,-1005.0
1776462354.2258701,pre_hover,right,x,1,,,0,-0.373904256824155,0.44981362946921977,2.443019389369313,2.4760258633541863,70,253160.0,73,76.0,0,-1,2,0,0,0,-2.0,25.0,-977.0
1776462354.276951,pre_hover,right,x,1,,,,,,,,70,253160.0,73,76.0,0,-1,2,0,0,0,-2.0,25.0,-977.0
1776462354.3260942,pre_hover,right,x,1,,,,,,,,70,253161.0,73,76.0,0,-1,2,0,0,0,33.0,-2.0,-991.0
1776462354.37765,pre_hover,right,x,1,,,,,,,,70,253161.0,73,76.0,0,-1,2,0,0,0,33.0,-2.0,-991.0
1776462354.427028,response,right,x,1,1776462354.426892,0.00013589859008789062,,,,,,70,253161.0,73,76.0,0,-1,2,0,0,0,33.0,-2.0,-991.0
1776462354.477407,response,right,x,1,1776462354.426892,0.050514936447143555,,,,,,70,253166.0,73,76.0,0,-1,2,0,0,0,-2.0,16.0,-985.0
1776462354.526838,response,right,x,1,1776462354.426892,0.0999460220336914,,,,,,70,253166.0,73,76.0,0,-1,2,0,0,0,-2.0,16.0,-985.0
1776462354.577641,response,right,x,1,1776462354.426892,0.15074896812438965,,,,,,70,253166.0,73,76.0,0,-1,2,0,0,0,-2.0,16.0,-985.0
1776462354.630107,response,right,x,1,1776462354.426892,0.2032148838043213,,,,,,70,253167.0,73,76.0,0,0,2,0,0,0,9.0,2.0,-1010.0
1776462354.6817431,response,right,x,1,1776462354.426892,0.2548511028289795,,,,,,70,253167.0,73,76.0,0,0,2,0,0,0,9.0,2.0,-1010.0
1776462354.73181,response,right,x,1,1776462354.426892,0.3049180507659912,0,-0.014973671704350388,1.144723519819467,2.386256690924309,2.4476864421060656,70,253167.99999999997,73,76.0,0,4,2,0,0,0,21.0,14.0,-990.0
1776462354.7823539,response,right,x,1,1776462354.426892,0.35546183586120605,0,-0.014973671704350388,1.144723519819467,2.386256690924309,2.4476864421060656,70,253167.99999999997,73,76.0,0,4,2,0,0,0,21.0,14.0,-990.0
1776462354.8356311,response,right,x,1,1776462354.426892,0.4087390899658203,0,-0.014973671704350388,1.144723519819467,2.386256690924309,2.4476864421060656,70,253167.99999999997,73,76.0,0,4,2,0,0,0,21.0,14.0,-990.0
1776462354.8886242,response,right,x,1,1776462354.426892,0.4617321491241455,0,-0.014973671704350388,1.144723519819467,2.386256690924309,2.4476864421060656,70,253167.99999999997,73,76.0,0,4,2,0,0,0,21.0,14.0,-990.0
1776462354.9418502,response,right,x,1,1776462354.426892,0.5149581432342529,0,-0.014973671704350388,1.144723519819467,2.386256690924309,2.4476864421060656,70,253162.0,73,76.0,0,1,2,0,2,0,2.0,6.0,-1016.0
1776462354.994533,response,right,x,1,1776462354.426892,0.567641019821167,0,-0.014973671704350388,1.144723519819467,2.386256690924309,2.4476864421060656,70,253162.0,73,76.0,0,1,2,0,2,0,2.0,6.0,-1016.0
1776462355.0470872,response,right,x,1,1776462354.426892,0.6201951503753662,0,-0.014973671704350388,1.144723519819467,2.386256690924309,2.4476864421060656,70,253159.0,73,76.0,0,0,2,0,2,0,6.0,1.0,-1010.0
1776462355.0993679,response,right,x,1,1776462354.426892,0.6724758148193359,0,-0.014973671704350388,1.144723519819467,2.386256690924309,2.4476864421060656,70,253159.0,73,76.0,0,0,2,0,2,0,6.0,1.0,-1010.0
1776462355.151639,response,right,x,1,1776462354.426892,0.7247469425201416,0,-0.014973671704350388,1.144723519819467,2.386256690924309,2.4476864421060656,70,253164.0,73,76.5,0,0,2,0,2,0,0.0,-2.0,-1013.0
1776462355.2049139,response,right,x,1,1776462354.426892,0.7780218124389648,0,-0.014973671704350388,1.144723519819467,2.386256690924309,2.4476864421060656,70,253164.0,73,76.5,0,0,2,0,2,0,0.0,-2.0,-1013.0
1776462355.257652,response,right,x,1,1776462354.426892,0.8307600021362305,0,-0.014973671704350388,1.144723519819467,2.386256690924309,2.4476864421060656,70,253160.0,73,76.5,0,0,2,0,2,0,3.0,18.0,-995.0
1776462355.310921,response,right,x,1,1776462354.426892,0.8840289115905762,0,-0.014973671704350388,1.144723519819467,2.386256690924309,2.4476864421060656,70,253160.0,73,76.5,0,0,2,0,2,0,3.0,18.0,-995.0
1776462355.363734,response,right,x,1,1776462354.426892,0.9368419647216797,0,-0.014973671704350388,1.144723519819467,2.386256690924309,2.4476864421060656,70,253167.0,73,76.5,0,0,2,0,2,0,9.0,12.0,-1002.0
1776462355.415999,response,right,x,1,1776462354.426892,0.9891068935394287,0,-0.014973671704350388,1.144723519819467,2.386256690924309,2.4476864421060656,70,253167.0,73,76.5,0,0,2,0,2,0,9.0,12.0,-1002.0
1776462355.468384,response,right,x,1,1776462354.426892,1.041491985321045,0,-0.014973671704350388,1.144723519819467,2.386256690924309,2.4476864421060656,70,253156.0,73,76.5,0,0,3,0,2,0,16.0,1.0,-980.0
1776462355.521096,response,right,x,1,1776462354.426892,1.0942039489746094,0,-0.014973671704350388,1.144723519819467,2.386256690924309,2.4476864421060656,70,253156.0,73,76.5,0,0,3,0,2,0,16.0,1.0,-980.0
1776462355.57502,response,right,x,1,1776462354.426892,1.1481280326843262,,,,,,70,253161.0,73,76.5,0,0,3,0,2,0,-3.0,7.0,-1001.0
1776462355.62639,response,right,x,1,1776462354.426892,1.199497938156128,0,0.16285005322080637,1.1154775671804464,2.437208686323106,2.4964421569083255,70,253173.99999999997,73,76.5,0,0,3,0,2,0,17.0,-20.0,-968.0
1776462355.6782348,response,right,x,1,1776462354.426892,1.2513427734375,0,0.5946270339490365,0.715565751664482,2.4178407473808616,2.4925670767616364,70,253173.99999999997,73,76.5,0,0,3,0,2,0,17.0,-20.0,-968.0
1776462355.728218,response,right,x,1,1776462354.426892,1.301326036453247,,,,,,70,253167.99999999997,73,76.5,0,-1,3,0,2,0,4.0,9.0,-1000.0
1776462355.7802188,response,right,x,1,1776462354.426892,1.3533267974853516,,,,,,70,253167.99999999997,73,76.5,0,-1,3,0,2,0,4.0,9.0,-1000.0
1776462355.831381,response,right,x,1,1776462354.426892,1.4044890403747559,,,,,,70,253164.0,73,76.5,0,-5,3,0,2,0,-8.0,6.0,-1003.0
1776462355.8824089,response,right,x,1,1776462354.426892,1.4555168151855469,0,0.5390292337003804,0.8440248494087651,2.418809303745327,2.490128327977806,70,253164.0,73,76.5,0,-5,3,0,2,0,-8.0,6.0,-1003.0
1776462355.945655,response,right,x,1,1776462354.426892,1.5187630653381348,0,0.5390292337003804,0.8440248494087651,2.418809303745327,2.490128327977806,70,253164.0,73,76.5,0,-5,3,0,2,0,-8.0,6.0,-1003.0
1776462355.995272,response,right,x,1,1776462354.426892,1.5683798789978027,0,0.683870430398282,0.8710925508763437,2.3767264219123,2.4879707436643654,70,253165.0,73,76.5,0,-5,3,0,1,0,27.0,-9.0,-1026.0
1776462356.044399,response,right,x,1,1776462354.426892,1.617506980895996,0,0.683870430398282,0.8710925508763437,2.3767264219123,2.4879707436643654,70,253167.0,73,76.5,0,-3,3,0,0,0,3.0,18.0,-1014.0
1776462356.095598,response,right,x,1,1776462354.426892,1.668705940246582,,,,,,70,253167.0,73,76.5,0,-3,3,0,0,0,3.0,18.0,-1014.0
1776462356.14589,response,right,x,1,1776462354.426892,1.7189979553222656,,,,,,70,253160.0,73,76.5,0,-2,3,0,0,0,24.0,-5.0,-997.0
1776462356.1965141,response,right,x,1,1776462354.426892,1.7696220874786377,0,0.5186147592101426,0.9800441488238452,2.4229576585111348,2.506814440373199,70,253160.0,73,76.5,0,-2,3,0,0,0,24.0,-5.0,-997.0
1776462356.246805,response,right,x,1,1776462354.426892,1.8199129104614258,0,0.6255615382026392,0.6672944505225012,2.3967816874114165,2.4779867308483094,70,253165.0,73,76.5,0,-1,3,0,0,0,15.0,-3.0,-1010.0
1776462356.2968268,response,right,x,1,1776462354.426892,1.8699347972869873,,,,,,70,253165.0,73,76.5,0,-1,3,0,0,0,15.0,-3.0,-1010.0
1776462356.3482409,response,right,x,1,1776462354.426892,1.9213488101959229,0,0.379227948620063,0.7568762297882505,2.470300188726131,2.5041579444810416,70,253163.0,72,76.5,0,-1,3,0,0,0,-8.0,25.0,-957.0
1776462356.3979478,response,right,x,1,1776462354.426892,1.9710557460784912,,,,,,70,253163.0,72,76.5,0,-1,3,0,0,0,-8.0,25.0,-957.0
1776462356.450182,response,right,x,1,1776462354.426892,2.023289918899536,,,,,,70,253175.0,72,76.5,0,-1,3,0,0,0,22.0,1.0,-1016.0
1776462356.500299,response,right,x,1,1776462354.426892,2.073406934738159,0,-0.022605871111221684,0.745581992054463,2.5310523384325414,2.535336482935565,70,253175.0,72,76.5,0,-1,3,0,0,0,22.0,1.0,-1016.0
1776462356.552568,response,right,x,1,1776462354.426892,2.125675916671753,0,0.373458681516029,1.1453588351147985,2.4534291870663023,2.5409058270204103,70,253171.0,72,76.5,0,-1,3,0,0,0,6.0,9.0,-951.0
1776462356.603457,response,right,x,1,1776462354.426892,2.176564931869507,0,0.373458681516029,1.1453588351147985,2.4534291870663023,2.5409058270204103,70,253171.0,72,76.5,0,-1,3,0,0,0,6.0,9.0,-951.0
1776462356.654762,response,right,x,1,1776462354.426892,2.227869987487793,0,0.3440218760800973,0.9578676822503253,2.4971378268617292,2.5460003251304992,70,253164.0,72,76.5,0,-1,3,0,0,0,-14.0,27.0,-1017.0
1776462356.704961,response,right,x,1,1776462354.426892,2.278069019317627,0,0.3448663335357885,0.9596375721547494,2.498969738331616,2.548160458921095,70,253164.0,72,76.5,0,-1,3,0,0,0,-14.0,27.0,-1017.0
1776462356.755863,response,right,x,1,1776462354.426892,2.3289709091186523,0,0.12560778513938453,1.0287395716709304,2.5298065662407265,2.5689523542874224,70,253159.0,72,76.5,0,-1,3,0,0,0,31.0,6.0,-1010.0
1776462356.807811,response,right,x,1,1776462354.426892,2.3809189796447754,0,0.34303715385645717,0.9568607774683312,2.501061784594983,2.5495752889025813,70,253159.0,72,76.5,0,-1,3,0,0,0,31.0,6.0,-1010.0
1776462356.8590028,response,right,x,1,1776462354.426892,2.4321107864379883,0,0.39205949990619954,0.7157804532597587,2.538763305808194,2.5714655136209554,70,253167.99999999997,72,76.5,0,-1,3,0,0,0,6.0,16.0,-1003.0
1776462356.911158,response,right,x,1,1776462354.426892,2.4842660427093506,,,,,,70,253167.99999999997,72,76.5,0,-1,3,0,0,0,6.0,16.0,-1003.0
1776462356.9611561,response,right,x,1,1776462354.426892,2.534264087677002,,,,,,70,253167.99999999997,72,76.5,0,-1,3,0,0,0,6.0,16.0,-1003.0
1776462357.009859,response,right,x,1,1776462354.426892,2.5829670429229736,0,0.34006351818878144,0.9524759054782233,2.5013329396673947,2.548832857488061,70,253164.0,72,76.5,0,-1,3,0,0,0,20.0,3.0,-1011.0
1776462357.062253,response,right,x,1,1776462354.426892,2.6353609561920166,0,0.21347017855403966,1.2007474661606752,2.4825263062414455,2.5630848398777517,70,253162.0,72,76.5,0,-1,3,0,0,0,-5.0,30.0,-992.0
1776462357.114441,response,right,x,1,1776462354.426892,2.687548875808716,,,,,,70,253162.0,72,76.5,0,-1,3,0,0,0,-5.0,30.0,-992.0
1776462357.164811,response,right,x,1,1776462354.426892,2.7379188537597656,0,0.5258872141233519,0.9677792182414675,2.465847220281866,2.5479837968716623,70,253169.0,72,76.5,0,-1,3,0,0,0,-13.0,26.0,-978.0
1776462357.217418,response,right,x,1,1776462354.426892,2.7905259132385254,0,0.3436966030542353,0.9635275715823368,2.5311559100998022,2.5801220691054,70,253169.0,72,76.5,0,-1,3,0,0,0,-13.0,26.0,-978.0
1776462357.26882,response,right,x,1,1776462354.426892,2.841928005218506,0,0.3436966030542353,0.9635275715823368,2.5311559100998022,2.5801220691054,70,253160.0,72,76.5,0,-1,3,0,0,0,45.0,-9.0,-967.0
1776462357.320936,response,right,x,1,1776462354.426892,2.8940439224243164,0,0.3335400942322109,0.9546162037859625,2.534603453639401,2.580933225337064,70,253160.0,72,76.5,0,-1,3,0,0,0,45.0,-9.0,-967.0
1776462357.373176,response,right,x,1,1776462354.426892,2.946284055709839,0,0.3411246776596489,0.9632651220844886,2.532173125472664,2.5807418181595496,70,253160.0,72,76.5,0,-1,3,0,0,0,15.0,25.0,-988.0
1776462357.424427,response,right,x,1,1776462354.426892,2.997534990310669,,,,,,70,253160.0,72,76.5,0,-1,3,0,0,0,15.0,25.0,-988.0
1776462357.476436,response,right,x,1,1776462354.426892,3.049543857574463,,,,,,70,253165.0,72,76.5,0,-1,3,0,0,0,11.0,23.0,-983.0
1776462357.526641,response,right,x,1,1776462354.426892,3.0997488498687744,,,,,,70,253165.0,72,76.5,0,-1,3,0,0,0,11.0,23.0,-983.0
1776462357.577764,response,right,x,1,1776462354.426892,3.150871992111206,0,0.3380190402198652,0.965559943228864,2.5320420708165896,2.5805286264697416,70,253161.0,72,76.5,0,-1,3,0,0,0,29.0,-6.0,-1006.0
1776462357.629706,response,right,x,1,1776462354.426892,3.2028138637542725,0,0.3380190402198652,0.965559943228864,2.5320420708165896,2.5805286264697416,70,253161.0,72,76.5,0,-1,3,0,0,0,29.0,-6.0,-1006.0
1776462357.6811771,response,right,x,1,1776462354.426892,3.2542850971221924,,,,,,70,253158.0,72,76.5,0,-1,3,0,0,0,21.0,-12.0,-1015.0
1776462357.7326012,response,right,x,1,1776462354.426892,3.30570912361145,,,,,,70,253158.0,72,76.5,0,-1,3,0,0,0,21.0,-12.0,-1015.0
1776462357.784152,response,right,x,1,1776462354.426892,3.35725998878479,0,0.3375351365758207,0.9680710749794743,2.5308939044161822,2.5796957650216803,70,253164.0,72,76.5,0,-1,3,0,0,0,14.0,18.0,-1016.0
1776462357.836024,response,right,x,1,1776462354.426892,3.4091320037841797,0,0.3487628637423445,0.9774542962894328,2.525759310797514,2.577511857779406,70,253164.0,72,76.5,0,-1,3,0,0,0,14.0,18.0,-1016.0
1776462357.888659,response,right,x,1,1776462354.426892,3.4617669582366943,,,,,,70,253156.0,72,76.5,0,-1,3,0,0,0,-4.0,23.0,-1014.0
1776462357.9398699,response,right,x,1,1776462354.426892,3.5129778385162354,0,0.3459550386664205,0.9791220383233712,2.556993166741158,2.6079939538814365,70,253156.0,72,76.5,0,-1,3,0,0,0,-4.0,23.0,-1014.0
1776462357.990098,response,right,x,1,1776462354.426892,3.5632059574127197,0,0.20689589581774898,1.20859031338939,2.481012701381956,2.5629303747226952,70,253164.0,72,76.5,0,-1,3,0,0,0,12.0,0.0,-1001.0
1776462358.042537,response,right,x,1,1776462354.426892,3.615644931793213,0,0.20689589581774898,1.20859031338939,2.481012701381956,2.5629303747226952,70,253164.0,72,76.5,0,-1,3,0,0,0,12.0,0.0,-1001.0
1776462358.0956879,response,right,x,1,1776462354.426892,3.6687958240509033,,,,,,70,253152.0,72,76.5,0,-1,3,0,0,0,7.0,23.0,-984.0
1776462358.146003,response,right,x,1,1776462354.426892,3.7191109657287598,,,,,,70,253171.0,72,76.5,0,-1,3,0,0,0,-16.0,32.0,-1011.0
1776462358.1964002,response,right,x,1,1776462354.426892,3.769508123397827,0,0.5787057348673252,0.8155983640026246,2.5218160035008657,2.5963318234852064,70,253171.0,72,76.5,0,-1,3,0,0,0,-16.0,32.0,-1011.0
1776462358.2484841,response,right,x,1,1776462354.426892,3.821592092514038,,,,,,70,253171.0,72,76.5,0,-1,3,0,0,0,-16.0,32.0,-1011.0
1776462358.2989519,response,right,x,1,1776462354.426892,3.8720598220825195,,,,,,70,253162.0,71,76.5,0,0,3,0,0,0,29.0,6.0,-980.0
1776462358.3479412,response,right,x,1,1776462354.426892,3.921049118041992,0,0.21426517824395994,1.2239054606040236,2.5049351628968664,2.590341244063528,70,253162.0,71,76.5,0,0,3,0,0,0,29.0,6.0,-980.0
1776462358.400355,response,right,x,1,1776462354.426892,3.9734630584716797,0,0.21426517824395994,1.2239054606040236,2.5049351628968664,2.590341244063528,70,253154.0,71,76.5,0,0,3,0,0,0,10.0,10.0,-978.0
1776462358.452878,response,right,x,1,1776462354.426892,4.025985956192017,,,,,,70,253154.0,71,76.5,0,0,3,0,0,0,10.0,10.0,-978.0
1776462358.504556,response,right,x,1,1776462354.426892,4.077663898468018,,,,,,70,253160.0,71,76.5,0,0,3,0,0,0,8.0,33.0,-1002.0
1776462358.556032,response,right,x,1,1776462354.426892,4.1291399002075195,,,,,,70,253160.0,71,76.5,0,0,3,0,0,0,8.0,33.0,-1002.0
1776462358.606375,response,right,x,1,1776462354.426892,4.179482936859131,,,,,,70,253160.0,71,76.5,0,0,3,0,0,0,8.0,33.0,-1002.0
1776462358.658755,response,right,x,1,1776462354.426892,4.231863021850586,,,,,,70,253167.99999999997,71,76.5,0,0,3,0,0,0,4.0,4.0,-995.0
1776462358.711972,response,right,x,1,1776462354.426892,4.2850799560546875,0,0.5233737257260603,0.9782749518302585,2.4921763560601535,2.574481498412414,70,253156.0,71,76.5,0,-1,3,0,0,0,-9.0,14.0,-1035.0
1776462358.763175,response,right,x,1,1776462354.426892,4.336282968521118,0,0.5233737257260603,0.9782749518302585,2.4921763560601535,2.574481498412414,70,253156.0,71,76.5,0,-1,3,0,0,0,-9.0,14.0,-1035.0
1776462358.815383,response,right,x,1,1776462354.426892,4.388490915298462,0,0.34731908351547175,0.986480922786408,2.5525304641139366,2.6048819204872933,70,253163.0,71,76.5,0,-1,3,0,0,0,0.0,21.0,-1003.0
1776462358.8644469,response,right,x,1,1776462354.426892,4.437554836273193,0,0.34731908351547175,0.986480922786408,2.5525304641139366,2.6048819204872933,70,253163.0,71,76.5,0,-1,3,0,0,0,0.0,21.0,-1003.0
1776462358.914019,response,right,x,1,1776462354.426892,4.487127065658569,0,0.34731908351547175,0.986480922786408,2.5525304641139366,2.6048819204872933,70,253161.0,71,76.5,0,-1,3,0,0,0,23.0,8.0,-987.0
1776462358.963839,response,right,x,1,1776462354.426892,4.536947011947632,0,0.34731908351547175,0.986480922786408,2.5525304641139366,2.6048819204872933,70,253161.0,71,76.5,0,-1,3,0,0,0,23.0,8.0,-987.0
1776462359.013856,response,right,x,1,1776462354.426892,4.586963891983032,0,0.672131036172748,0.6771243854959734,2.514181726084024,2.603616341245312,70,253160.0,71,76.5,0,-1,3,0,0,0,20.0,7.0,-975.0
1776462359.065961,response,right,x,1,1776462354.426892,4.639068841934204,0,0.672131036172748,0.6771243854959734,2.514181726084024,2.603616341245312,70,253160.0,71,76.5,0,-1,3,0,0,0,20.0,7.0,-975.0
1776462359.117892,response,right,x,1,1776462354.426892,4.690999984741211,,,,,,70,253154.0,71,76.5,0,-1,3,0,0,0,6.0,12.0,-1014.0
1776462359.16925,response,right,x,1,1776462354.426892,4.742357969284058,,,,,,70,253167.0,71,76.5,0,-1,3,0,0,0,11.0,0.0,-983.0
1776462359.220934,response,right,x,1,1776462354.426892,4.794041872024536,,,,,,70,253167.0,71,76.5,0,-1,3,0,0,0,11.0,0.0,-983.0
1776462359.271391,response,right,x,1,1776462354.426892,4.844498872756958,,,,,,70,253152.0,71,76.5,0,-1,3,0,0,0,0.0,32.0,-979.0
1776462359.3235662,response,right,x,1,1776462354.426892,4.896674156188965,,,,,,70,253169.0,71,76.5,0,-1,2,0,0,0,7.0,26.0,-1028.0
1776462359.374203,response,right,x,1,1776462354.426892,4.947310924530029,,,,,,70,253169.0,71,76.5,0,-1,2,0,0,0,7.0,26.0,-1028.0
1776462359.426091,response,right,x,1,1776462354.426892,4.999198913574219,,,,,,70,253162.0,71,76.5,0,-1,2,0,0,0,38.0,-10.0,-987.0
1776462359.477012,response,right,x,1,1776462354.426892,5.050119876861572,,,,,,70,253162.0,71,76.5,0,-1,2,0,0,0,38.0,-10.0,-987.0
1776462359.528138,response,right,x,1,1776462354.426892,5.101245880126953,0,0.36561777678374285,1.0053951658971279,2.578397734367388,2.6355561985706024,70,253166.0,71,76.5,0,-1,2,0,0,0,-29.0,31.0,-1023.0
1776462359.5795698,response,right,x,1,1776462354.426892,5.152677774429321,0,0.1299318278692618,1.0668657411733273,2.5816947414892146,2.6267838964040857,70,253166.0,71,76.5,0,-1,2,0,0,0,-29.0,31.0,-1023.0
1776462359.6300218,response,right,x,1,1776462354.426892,5.203129768371582,,,,,,70,253165.0,71,76.5,0,-1,2,0,0,0,-6.0,16.0,-1008.0
1776462359.67951,response,right,x,1,1776462354.426892,5.252618074417114,0,0.37174089412874356,1.1692204713553969,2.512454003400201,2.6028116252582314,70,253165.0,71,76.5,0,-1,2,0,0,0,-6.0,16.0,-1008.0
1776462359.729611,response,right,x,1,1776462354.426892,5.302718877792358,0,0.6700410291708356,0.6741582186142829,2.5160920428988134,2.6048365765435424,70,253164.0,71,76.5,0,-1,2,0,0,0,0.0,35.0,-1028.0
1776462359.781722,response,right,x,1,1776462354.426892,5.354830026626587,0,0.5335290642780791,0.9951265230221441,2.5202785573619155,2.6062582831184,70,253164.0,71,76.5,0,-1,2,0,0,0,0.0,35.0,-1028.0
1776462359.833209,response,right,x,1,1776462354.426892,5.4063169956207275,0,0.5335290642780791,0.9951265230221441,2.5202785573619155,2.6062582831184,70,253167.99999999997,71,76.5,0,0,2,0,0,0,11.0,0.0,-1003.0
1776462359.884983,response,right,x,1,1776462354.426892,5.4580910205841064,0,0.3421610130164712,0.9901368158913288,2.55549953791961,2.607653884672892,70,253167.99999999997,71,76.5,0,0,2,0,0,0,11.0,0.0,-1003.0
1776462359.936982,response,right,x,1,1776462354.426892,5.510089874267578,0,0.7192970812416538,0.880064737064385,2.47066094913829,2.588433903661946,70,253165.0,71,76.5,0,0,2,0,0,0,7.0,0.0,-1000.0
1776462359.9884071,response,right,x,1,1776462354.426892,5.5615150928497314,0,0.5321996515931845,0.9947595648851747,2.520275271868287,2.605927671524098,70,253165.0,71,76.5,0,0,2,0,0,0,7.0,0.0,-1000.0
1776462360.0403771,response,right,x,1,1776462354.426892,5.613485097885132,,,,,,70,253154.0,71,76.5,0,0,2,0,0,0,1.0,28.0,-987.0
1776462360.0913181,response,right,x,1,1776462354.426892,5.66442608833313,0,0.5302801963275231,0.9892671165540452,2.520615063147587,2.605038631424488,70,253154.0,71,76.5,0,0,2,0,0,0,1.0,28.0,-987.0
1776462360.142014,response,right,x,1,1776462354.426892,5.7151219844818115,0,0.5302801963275231,0.9892671165540452,2.520615063147587,2.605038631424488,70,253154.0,71,76.5,0,0,2,0,0,0,1.0,28.0,-987.0
1776462360.194087,response,right,x,1,1776462354.426892,5.767194986343384,0,0.5292929334841582,0.9960430249876517,2.5216724466741094,2.606881856815346,70,253163.0,71,76.0,0,0,2,0,0,0,-10.0,28.0,-990.0
1776462360.2450528,response,right,x,1,1776462354.426892,5.818160772323608,0,0.33680572431641864,0.9923593730196718,2.556294947627149,2.6080697522866956,70,253163.0,71,76.0,0,0,2,0,0,0,13.0,20.0,-1032.0
1776462360.294966,response,right,x,1,1776462354.426892,5.8680739402771,0,0.33680572431641864,0.9923593730196718,2.556294947627149,2.6080697522866956,70,253163.0,71,76.0,0,0,2,0,0,0,13.0,20.0,-1032.0
1776462360.3471518,response,right,x,1,1776462354.426892,5.920259714126587,0,0.33680572431641864,0.9923593730196718,2.556294947627149,2.6080697522866956,70,253169.0,71,76.0,0,0,2,0,0,0,-2.0,20.0,-999.0
1776462360.397297,response,right,x,1,1776462354.426892,5.970404863357544,0,0.33680572431641864,0.9923593730196718,2.556294947627149,2.6080697522866956,70,253169.0,71,76.0,0,0,2,0,0,0,-2.0,20.0,-999.0
1776462360.448537,response,right,x,1,1776462354.426892,6.0216450691223145,0,0.33680572431641864,0.9923593730196718,2.556294947627149,2.6080697522866956,70,253166.0,71,76.0,0,0,2,0,0,0,3.0,25.0,-981.0
1776462360.5003679,response,right,x,1,1776462354.426892,6.0734758377075195,,,,,,70,253166.0,71,76.0,0,0,2,0,0,0,3.0,25.0,-981.0
1776462360.551887,response,right,x,1,1776462354.426892,6.124994993209839,,,,,,70,253162.0,71,76.0,0,-1,2,0,0,0,2.0,7.0,-982.0
1776462360.603072,response,right,x,1,1776462354.426892,6.176179885864258,,,,,,70,253162.0,71,76.0,0,-1,2,0,0,0,2.0,7.0,-982.0
1776462360.654986,response,right,x,1,1776462354.426892,6.228093862533569,0,0.10845789017984296,1.0754281589489247,2.5793007214487664,2.624992811405386,70,253169.99999999997,71,76.0,0,-1,2,0,0,0,3.0,27.0,-970.0
1776462360.705778,response,right,x,1,1776462354.426892,6.278885841369629,,,,,,70,253169.99999999997,71,76.0,0,-1,2,0,0,0,3.0,27.0,-970.0
1776462360.7562518,response,right,x,1,1776462354.426892,6.329359769821167,0,0.36435640443267614,1.1722508168908319,2.51423288259177,2.604149299634922,70,253165.0,71,76.0,0,-1,2,0,0,0,-8.0,27.0,-1022.0
1776462360.806603,response,right,x,1,1776462354.426892,6.379710912704468,,,,,,70,253165.0,71,76.0,0,-1,2,0,0,0,-8.0,27.0,-1022.0
1776462360.857481,response,right,x,1,1776462354.426892,6.430588960647583,0,0.33211044584763294,0.9898034147569361,2.5594259116632734,2.6101542191392944,70,253167.0,71,76.0,0,0,2,0,0,0,-3.0,18.0,-998.0
1776462360.908115,response,right,x,1,1776462354.426892,6.481222867965698,0,0.33211044584763294,0.9898034147569361,2.5594259116632734,2.6101542191392944,70,253167.0,71,76.0,0,0,2,0,0,0,-3.0,18.0,-998.0
1776462360.9591522,response,right,x,1,1776462354.426892,6.532260179519653,0,0.33211044584763294,0.9898034147569361,2.5594259116632734,2.6101542191392944,70,253169.99999999997,71,76.0,0,0,2,0,0,0,3.0,26.0,-986.0
1776462361.010657,response,right,x,1,1776462354.426892,6.583765029907227,0,0.33211044584763294,0.9898034147569361,2.5594259116632734,2.6101542191392944,70,253169.99999999997,71,76.0,0,0,2,0,0,0,3.0,26.0,-986.0
1776462361.0606878,response,right,x,1,1776462354.426892,6.633795738220215,0,0.33211044584763294,0.9898034147569361,2.5594259116632734,2.6101542191392944,70,253162.0,71,76.0,0,0,2,0,0,0,1.0,21.0,-986.0
1776462361.112237,response,right,x,1,1776462354.426892,6.685344934463501,0,0.11784516211200846,1.0748761484050773,2.5819324310812783,2.6278831627807446,70,253162.0,71,76.0,0,0,2,0,0,0,1.0,21.0,-986.0
1776462361.164118,response,right,x,1,1776462354.426892,6.7372260093688965,0,0.11784516211200846,1.0748761484050773,2.5819324310812783,2.6278831627807446,70,253162.0,71,76.0,0,0,2,0,0,0,1.0,21.0,-986.0
1776462361.2152588,response,right,x,1,1776462354.426892,6.788366794586182,0,0.567890749569673,0.8137287171301599,2.5267682364553146,2.5986030071429553,70,253166.0,71,76.5,0,0,2,0,0,0,-24.0,22.0,-977.0
1776462361.266092,response,right,x,1,1776462354.426892,6.839200019836426,0,0.7012074163439416,0.8702624459226196,2.448815909594243,2.5615294238977038,70,253166.0,70,76.5,0,0,2,0,0,0,27.0,8.0,-1007.0
1776462361.317344,response,right,x,1,1776462354.426892,6.890451908111572,0,0.33211044584763294,0.9898034147569361,2.5594259116632734,2.6101542191392944,70,253166.0,70,76.5,0,0,2,0,0,0,27.0,8.0,-1007.0
1776462361.367386,response,right,x,1,1776462354.426892,6.940494060516357,0,0.33211044584763294,0.9898034147569361,2.5594259116632734,2.6101542191392944,70,253167.0,70,76.5,0,0,2,0,0,0,0.0,-4.0,-1014.0
1776462361.418823,response,right,x,1,1776462354.426892,6.991930961608887,,,,,,70,253167.0,70,76.5,0,0,2,0,0,0,0.0,-4.0,-1014.0
1776462361.4706612,response,right,x,1,1776462354.426892,7.043769121170044,,,,,,70,253161.0,70,76.5,0,0,2,0,0,0,8.0,13.0,-1020.0
1776462361.5216022,response,right,x,1,1776462354.426892,7.094710111618042,0,0.33211044584763294,0.9898034147569361,2.5594259116632734,2.6101542191392944,70,253161.0,70,76.5,0,0,2,0,0,0,8.0,13.0,-1020.0
1776462361.5721312,response,right,x,1,1776462354.426892,7.1452391147613525,0,0.33211044584763294,0.9898034147569361,2.5594259116632734,2.6101542191392944,70,253164.0,70,76.5,0,0,2,0,0,0,-22.0,27.0,-1002.0
1776462361.623182,response,right,x,1,1776462354.426892,7.196290016174316,0,0.33211044584763294,0.9898034147569361,2.5594259116632734,2.6101542191392944,70,253164.0,70,76.5,0,0,2,0,0,0,-22.0,27.0,-1002.0
1776462361.673196,response,right,x,1,1776462354.426892,7.246304035186768,,,,,,70,253159.0,70,76.5,0,0,2,0,0,0,-18.0,35.0,-1021.0
1776462361.722739,response,right,x,1,1776462354.426892,7.295846939086914,,,,,,70,253159.0,70,76.5,0,0,2,0,0,0,-18.0,35.0,-1021.0
1776462361.773658,response,right,x,1,1776462354.426892,7.346765995025635,0,0.7023375521828857,0.8713272826542702,2.448483759429614,2.561634097936193,70,253159.0,70,76.5,0,0,2,0,0,0,-18.0,35.0,-1021.0
1776462361.824927,response,right,x,1,1776462354.426892,7.398035049438477,,,,,,70,253173.0,70,76.5,0,0,2,0,0,0,18.0,-2.0,-958.0
1776462361.8767622,response,right,x,1,1776462354.426892,7.4498701095581055,0,0.3350158072792056,0.9873888171033656,2.559623652692878,2.61035992349111,70,253169.0,70,76.5,0,-1,2,0,0,0,-4.0,21.0,-1029.0
1776462361.928262,response,right,x,1,1776462354.426892,7.501369953155518,,,,,,70,253169.0,70,76.5,0,-1,2,0,0,0,-4.0,21.0,-1029.0
