timestamp,elapsed,pos_x,pos_y,pos_z,marker_id,tello_height_cm,tello_baro_cm,tello_battery,tello_temp_c,tello_pitch,tello_roll,tello_yaw,tello_vgx,tello_vgy,tello_vgz,tello_agx,tello_agy,tello_agz
1777594526.168601,3.0994415283203125e-06,0.7049655014451941,1.2531284028626373,3.2033724855964323,3,150,252439.0,38,72.0,-1,0,0,0,0,0,6.0,0.0,-1013.0
1777594526.381414,0.2128159999847412,0.8635095312386829,1.4314210761365835,3.275139936808703,2,150,252427.0,38,72.0,-1,0,0,0,0,0,-4.0,8.0,-986.0
1777594526.431519,0.2629210948944092,0.9146520951643562,1.468765978352863,3.2660206226037136,2,150,252442.0,37,72.0,-1,0,0,0,0,0,-16.0,7.0,-1038.0
1777594526.48523,0.3166320323944092,0.8330430419335919,1.4725834661908208,3.2580154564504316,2,150,252442.0,37,72.0,-1,0,0,0,0,0,-16.0,7.0,-1038.0
1777594526.535223,0.3666250705718994,0.8460851511602203,1.5404807043554904,3.2216495116294532,2,140,252440.0,37,72.5,-1,0,0,0,0,0,-45.0,47.0,-989.0
1777594526.584517,0.41591906547546387,0.8661335598918254,1.423439275606314,3.2754470439690015,2,140,252440.0,37,72.5,-1,0,0,0,0,0,-45.0,47.0,-989.0
1777594526.633914,0.4653160572052002,0.8661335598918254,1.423439275606314,3.2754470439690015,2,140,252433.0,37,72.5,-1,0,0,0,0,0,-20.0,3.0,-1014.0
1777594526.691496,0.5228979587554932,0.88212218758364,1.4956948963261514,3.2389464050828165,2,140,252433.0,37,72.5,-1,0,0,0,0,0,-20.0,3.0,-1014.0
1777594526.743194,0.5745961666107178,0.8827584419682563,1.4938813636538533,3.2390154290671145,2,140,252436.0,37,72.5,-1,0,0,0,0,0,-5.0,1.0,-998.0
1777594526.793474,0.6248760223388672,0.8674668554228182,1.4195046633860482,3.2756006449837947,2,140,252436.0,37,72.5,-1,0,0,0,0,0,-5.0,1.0,-998.0
1777594526.8444211,0.6758232116699219,0.883397708009182,1.4920765958665005,3.239084582472392,2,140,252434.0,37,72.5,-1,0,0,0,0,0,-28.0,36.0,-1014.0
1777594526.893412,0.7248141765594482,0.883397708009182,1.4920765958665005,3.239084582472392,2,140,252434.0,37,72.5,-1,0,0,0,0,0,-28.0,36.0,-1014.0
1777594526.941229,0.7726311683654785,0.8375675769344998,1.4566338731227546,3.246235804461925,2,140,252438.0,37,72.5,-1,0,0,0,0,0,-29.0,30.0,-999.0
1777594526.99154,0.8229420185089111,0.9167168718052254,1.447652953611469,3.254993097413593,2,140,252438.0,37,72.5,-1,0,0,0,0,0,-29.0,30.0,-999.0
1777594527.041719,0.8731210231781006,0.8381440455492986,1.454772565037882,3.246322274149673,2,140,252438.0,37,72.5,-1,0,0,0,0,0,1.0,10.0,-1005.0
1777594527.0918322,0.923234224319458,0.875298115351283,1.414338080737989,3.275300706454791,2,140,252438.0,37,72.5,-1,0,0,0,0,0,1.0,10.0,-1005.0
1777594527.142175,0.9735770225524902,0.8814194167662001,1.4804802977777278,3.227203219376576,2,140,252439.0,37,72.5,-1,0,0,0,0,0,-6.0,15.0,-1005.0
1777594527.1892118,1.0206139087677002,0.8404979618692794,1.4521374909965807,3.245937373097672,2,140,252439.0,37,72.5,-1,0,0,0,0,0,-6.0,15.0,-1005.0
1777594527.2367182,1.0681202411651611,0.894981916371429,1.5467730322340563,3.1911010401555493,2,140,252438.0,37,72.5,-1,0,0,0,0,0,8.0,-14.0,-963.0
1777594527.284321,1.1157231330871582,0.9248969829375626,1.4375541003539425,3.2426786413232658,2,140,252438.0,37,72.5,-1,0,0,0,0,0,8.0,-14.0,-963.0
1777594527.332384,1.1637861728668213,0.8879274506112815,1.479320629479981,3.2267248422478265,2,140,252452.0,37,72.5,-1,0,0,0,0,0,-34.0,13.0,-975.0
1777594527.378433,1.2098350524902344,0.8852666010138781,1.4730480577534406,3.2147934093242894,2,140,252452.0,37,72.5,-1,0,0,0,0,0,-34.0,13.0,-975.0
1777594527.4248052,1.2562072277069092,0.842896194395824,1.442388328978243,3.234437867416192,2,140,252444.0,37,72.5,-1,0,0,0,0,0,-27.0,10.0,-1014.0
1777594527.472845,1.3042471408843994,0.9273640788715385,1.436306119227432,3.24207034856271,2,140,252444.0,37,72.5,-1,0,0,0,0,0,-27.0,10.0,-1014.0
1777594527.521527,1.3529291152954102,0.9273640788715385,1.436306119227432,3.24207034856271,2,140,252456.0,37,72.5,-1,0,0,0,0,0,-4.0,-15.0,-1005.0
1777594527.57275,1.4041521549224854,0.8898641525832909,1.4726652184957718,3.2144461101398987,2,140,252456.0,37,72.5,-1,0,0,0,0,0,-4.0,-15.0,-1005.0
1777594527.623915,1.4553170204162598,0.922900527754649,1.4371498282819224,3.241818101144599,2,140,252459.0,37,72.5,-1,0,0,0,0,0,-7.0,-7.0,-1012.0
1777594527.6748748,1.5062768459320068,0.928398438492905,1.4386584828479894,3.241369818422382,2,140,252459.0,37,72.5,-1,0,0,0,0,0,-7.0,-7.0,-1012.0
1777594527.725588,1.556990146636963,0.8856956617899848,1.474751929297959,3.2140610651566024,2,140,252456.0,37,72.5,-1,0,0,0,0,0,-40.0,48.0,-1015.0
1777594527.775292,1.606693983078003,0.8902964381817693,1.476613228008126,3.2137291193572857,2,140,252456.0,37,72.5,-1,0,0,0,0,0,-40.0,48.0,-1015.0
1777594527.826398,1.6577999591827393,0.8523681322669039,1.511070820568737,3.185965227890936,2,140,252437.0,37,72.5,-1,0,0,0,0,0,-4.0,-8.0,-1024.0
1777594527.8776472,1.7090492248535156,0.8867832987494392,1.4792425269772456,3.213417097559896,2,140,252437.0,37,72.5,-1,0,0,0,0,0,-27.0,20.0,-997.0
1777594527.926539,1.7579410076141357,0.8441618816047082,1.450554615033881,3.2330755915615983,2,140,252437.0,37,72.5,-1,0,0,0,0,0,-27.0,20.0,-997.0
1777594527.977021,1.8084230422973633,0.8750605237171925,1.4095308719875952,3.2497580629469716,2,140,252432.00000000003,37,72.5,-1,0,0,0,0,0,-33.0,48.0,-1004.0
1777594528.025766,1.8571679592132568,0.8967529894093933,1.5563183144760533,3.188981154751065,2,140,252432.00000000003,37,72.5,-1,0,0,0,0,0,-33.0,48.0,-1004.0
1777594528.076755,1.9081571102142334,0.8884311997879122,1.4865630866117558,3.2135266872283883,2,140,252432.00000000003,37,72.5,-1,0,0,0,0,0,-33.0,48.0,-1004.0
1777594528.125907,1.9573090076446533,0.8828240694441428,1.4926079549613105,3.225031916444233,2,140,252435.0,37,72.5,-1,0,0,0,0,0,-23.0,1.0,-981.0
1777594528.176281,2.007683038711548,0.8878336531293316,1.4883729805802144,3.2134645866577256,2,140,252435.0,37,72.5,-1,0,0,0,0,0,-15.0,23.0,-1017.0
1777594528.227042,2.058444023132324,0.8872396466716792,1.4901929716270295,3.2134021781941327,2,140,252435.0,37,72.5,-1,0,0,0,0,0,-15.0,23.0,-1017.0
1777594528.277021,2.1084229946136475,0.8866484639061178,1.4920215148824227,3.213339915727087,2,140,252448.0,36,72.5,-1,0,0,0,0,0,-28.0,13.0,-985.0
1777594528.3268769,2.1582789421081543,0.8866484639061178,1.4920215148824227,3.213339915727087,2,140,252448.0,36,72.5,-1,0,0,0,0,0,-28.0,13.0,-985.0
1777594528.376797,2.2081990242004395,0.8819631786945954,1.4936477908026573,3.2129164110346573,2,140,252448.0,36,72.5,-1,0,0,0,0,0,-28.0,13.0,-985.0
1777594528.426722,2.2581241130828857,0.8819631786945954,1.4936477908026573,3.2129164110346573,2,140,252446.0,36,72.5,-1,0,0,0,0,0,-2.0,2.0,-1028.0
1777594528.4776971,2.3090991973876953,0.8797820697869742,1.489047174797403,3.201889700653732,2,140,252446.0,36,72.5,-1,0,0,0,0,0,-2.0,2.0,-1028.0
1777594528.52849,2.3598921298980713,0.9165893024116007,1.4548897638806797,3.228795350689788,2,140,252442.99999999997,36,72.5,-1,0,0,0,0,0,-24.0,11.0,-946.0
1777594528.579353,2.410755157470703,0.9147308256739631,1.4557507796432758,3.2293274955050295,2,140,252442.99999999997,36,72.5,-1,0,0,0,0,0,-24.0,11.0,-946.0
1777594528.629835,2.4612369537353516,0.8496456650597408,1.5308997292988158,3.185580219050147,2,140,252451.00000000003,36,72.5,-1,0,0,0,0,0,-20.0,1.0,-1008.0
1777594528.680823,2.5122251510620117,0.8825001382992291,1.498995456682822,3.2136538033904904,2,140,252451.00000000003,36,72.5,-1,0,0,0,0,0,-20.0,1.0,-1008.0
1777594528.7308302,2.562232255935669,0.9239420143396817,1.527711057580388,3.1928488947340083,2,150,252458.0,36,72.5,-1,0,0,0,0,0,-9.0,11.0,-1037.0
1777594528.781613,2.6130151748657227,,,,,150,252458.0,36,72.5,-1,0,0,0,0,0,-9.0,11.0,-1037.0
1777594528.830891,2.662292957305908,0.722692192216183,1.2520261652747742,3.159615959192477,3,150,252442.0,36,72.5,-1,-1,0,0,0,0,-28.0,24.0,-996.0
1777594528.881081,2.7124831676483154,0.9502672842098904,1.2619683336100476,3.1726415498598493,3,150,252442.0,36,72.5,-1,-1,0,0,0,0,-28.0,24.0,-996.0
1777594528.9314501,2.762852191925049,0.7179824157988695,1.2491606530756618,3.159189636368744,3,150,252444.0,36,72.5,-1,-1,0,0,0,0,-11.0,12.0,-1000.0
1777594528.982593,2.813995122909546,,,,,150,252444.0,36,72.5,-1,-1,0,0,0,0,-11.0,12.0,-1000.0
1777594529.0326889,2.864090919494629,0.7133176785350743,1.2463665513516724,3.158765671098892,3,150,252428.00000000003,36,72.5,-1,0,0,0,0,0,-18.0,12.0,-978.0
1777594529.083301,2.914703130722046,0.544956152564221,1.301290669780213,3.1217058316678434,3,150,252428.00000000003,36,72.5,-1,0,0,0,0,0,-18.0,12.0,-978.0
1777594529.133187,2.9645891189575195,0.5482451075608448,1.0094553348776327,3.076041465707263,3,150,252441.0,36,72.5,-1,0,0,0,0,0,-14.0,-2.0,-968.0
1777594529.184992,3.0163941383361816,0.7124364430887293,1.233928855030759,3.1368786503876533,3,150,252441.0,36,72.5,-1,0,0,0,0,0,-14.0,-2.0,-968.0
1777594529.235988,3.067389965057373,0.8688960186028319,1.4923535043074763,3.2046044677193826,2,150,252439.0,36,72.5,-1,0,0,0,0,0,-31.0,38.0,-1005.0
1777594529.2862332,3.1176352500915527,0.9099847352409709,1.519622090078955,3.1850899997681736,2,150,252439.0,36,72.5,-1,0,0,0,0,0,-31.0,38.0,-1005.0
1777594529.3379142,3.169316291809082,0.867063960076798,1.4918813674851719,3.2052089118079032,2,150,252444.0,36,72.5,-1,0,0,0,0,0,-6.0,-7.0,-1002.0
1777594529.388802,3.2202041149139404,0.8759417082196423,1.5488874074747208,3.1588503188518144,2,150,252444.0,36,72.5,-1,0,0,0,0,0,-6.0,-7.0,-1002.0
1777594529.439848,3.271250009536743,0.914481499495034,1.5797515381017262,3.1499832248528334,2,140,252442.0,36,72.5,-1,0,0,0,0,0,-36.0,13.0,-971.0
1777594529.491363,3.3227651119232178,0.8765676275412524,1.5471429593332289,3.1589187854988596,2,140,252442.0,36,72.5,-1,0,0,0,0,0,-36.0,13.0,-971.0
1777594529.541395,3.3727970123291016,0.8755232914365338,1.5449580954483961,3.159625117043589,2,140,252440.0,36,72.0,-1,0,0,0,0,0,-8.0,1.0,-991.0
1777594529.5917299,3.4231319427490234,0.8338808931825459,1.5188160522203016,3.1783550284158215,2,140,252440.0,36,72.0,-1,0,0,0,0,0,-8.0,1.0,-991.0
1777594529.641536,3.472938060760498,0.8709997384526716,1.4805589646980195,3.1945485439528687,2,140,252433.0,36,72.0,-1,0,0,0,0,0,15.0,16.0,-1061.0
1777594529.6906612,3.5220632553100586,0.8709997384526716,1.4805589646980195,3.1945485439528687,2,140,252433.0,36,72.0,-1,0,0,0,0,0,15.0,16.0,-1061.0
1777594529.7392051,3.5706071853637695,0.8383637895732984,1.5134377590322088,3.1671930457945274,2,140,252437.0,36,72.0,-1,0,0,0,0,0,-3.0,3.0,-1013.0
1777594529.789912,3.62131404876709,0.8709657345301802,1.479411967159928,3.195300575620423,2,140,252437.0,36,72.0,-1,0,0,0,0,0,-3.0,3.0,-1013.0
1777594529.840204,3.6716060638427734,0.8334934224728425,1.5123475245760178,3.1673434683217856,2,140,252438.0,36,72.0,-1,0,0,0,0,0,-20.0,11.0,-1015.0
1777594529.89055,3.721951961517334,0.8744945090004499,1.5427708626117864,3.1603434098837244,2,140,252438.0,36,72.0,-1,0,0,0,0,0,-20.0,11.0,-1015.0
1777594529.941514,3.772916078567505,0.8372152831021689,1.5112244832371555,3.1678609857510294,2,140,252425.0,36,72.0,-1,0,0,0,0,0,-30.0,6.0,-983.0
1777594529.991928,3.8233301639556885,0.8372152831021689,1.5112244832371555,3.1678609857510294,2,140,252425.0,36,72.0,-1,0,0,0,0,0,-30.0,6.0,-983.0
1777594530.0422559,3.8736579418182373,0.8203252045006126,1.4433034614026736,3.20223467127409,2,140,252435.0,36,72.0,-1,0,0,0,0,0,-12.0,1.0,-1009.0
1777594530.0926359,3.9240379333496094,0.7887530251778471,1.4787072454665293,3.1735695772850177,2,140,252435.0,36,72.0,-1,0,0,0,0,0,-12.0,1.0,-1009.0
1777594530.143018,3.9744200706481934,0.8323497700474527,1.510128236399093,3.168019322004298,2,140,252434.0,36,72.0,-1,0,0,0,0,0,-29.0,5.0,-1007.0
1777594530.1929631,4.024365186691284,0.8642921534850032,1.4704061307604777,3.1848815596420703,2,140,252434.0,36,72.0,-1,0,0,0,0,0,-29.0,5.0,-1007.0
1777594530.243551,4.074953079223633,0.8642921534850032,1.4704061307604777,3.1848815596420703,2,140,252438.0,36,72.0,-1,0,0,0,0,0,-12.0,35.0,-1041.0
1777594530.29356,4.124962091445923,0.8354737206229854,1.510791171869974,3.1684521260398677,2,140,252438.0,36,72.0,-1,0,0,0,0,0,-12.0,35.0,-1041.0
1777594530.343883,4.17528510093689,0.8981624875391547,1.4366194898148703,3.2124347442939616,2,140,252435.0,35,72.0,-1,0,0,0,0,0,-22.0,10.0,-1019.0
1777594530.393429,4.2248311042785645,0.86361539062098,1.4722585382655904,3.1848000369383143,2,140,252435.0,35,72.0,-1,0,0,0,0,0,-22.0,10.0,-1019.0
1777594530.444578,4.275979995727539,0.8348684744487864,1.5125829436675877,3.1683628673765107,2,140,252436.0,35,72.0,-1,0,0,0,0,0,-18.0,27.0,-1023.0
1777594530.4952378,4.326639890670776,0.8348684744487864,1.5125829436675877,3.1683628673765107,2,140,252436.0,35,72.0,-1,0,0,0,0,0,-18.0,27.0,-1023.0
1777594530.5436301,4.375032186508179,0.8711563603527689,1.5384491055480423,3.150043535512024,2,140,252437.0,35,72.0,-1,0,0,0,0,0,-10.0,1.0,-1033.0
1777594530.594647,4.426048994064331,0.8325048945663434,1.5139488584966272,3.1688685034044823,2,140,252437.0,35,72.0,-1,0,0,0,0,0,-10.0,1.0,-1033.0
1777594530.643569,4.474971055984497,0.860442214574674,1.4754868795837663,3.185273416012444,2,140,252436.0,35,72.0,-1,0,0,0,0,0,-29.0,10.0,-985.0
1777594530.693562,4.524964094161987,0.8947593484838323,1.4399188974242043,3.2129835531734785,2,140,252436.0,35,72.0,-1,0,0,0,0,0,-29.0,10.0,-985.0
1777594530.7446022,4.576004266738892,0.8318972942064168,1.5157604777168912,3.16877724840978,2,140,252436.0,35,72.0,-1,0,0,0,0,0,-39.0,29.0,-990.0
1777594530.794135,4.625537157058716,0.8764979595229627,1.6004057485682632,3.1159002660270554,2,140,252436.0,35,72.0,-1,0,0,0,0,0,-39.0,29.0,-990.0
1777594530.84465,4.676052093505859,0.8579266285249623,1.476862764253824,3.1858314523147264,2,140,252437.0,35,72.0,-1,0,0,0,0,0,-26.0,30.0,-1018.0
1777594530.895709,4.727111101150513,0.8617124029997153,1.4842200112722446,3.1968453632568408,2,140,252437.0,35,72.0,-1,0,0,0,0,0,-26.0,30.0,-1018.0
1777594530.946361,4.77776312828064,0.8564523465056361,1.4842923147670297,3.1969913337476665,2,150,252442.0,35,72.0,-1,0,0,0,0,0,0.0,-22.0,-950.0
1777594530.997191,4.828593015670776,0.8572457267859693,1.4787566869358333,3.1857453285329247,2,150,252442.0,35,72.0,-1,0,0,0,0,0,0.0,-22.0,-950.0
1777594531.047217,4.878618955612183,0.683788189774882,1.2165748818718782,3.1238246654781006,3,140,252442.99999999997,35,72.0,-1,0,0,0,0,0,-47.0,35.0,-999.0
1777594531.097943,4.92934513092041,0.8454626014791452,1.2401628456794764,3.149300974248515,3,140,252442.99999999997,35,72.0,-1,0,0,0,0,0,-47.0,35.0,-999.0
1777594531.14876,4.980162143707275,0.7264464152168729,1.4393956467030042,3.135868853831506,3,150,252440.0,35,72.0,-1,0,0,0,0,0,-45.0,30.0,-979.0
1777594531.1990342,5.030436277389526,,,,,150,252444.99999999997,35,72.0,-1,0,0,0,0,0,-7.0,-20.0,-958.0
1777594531.250609,5.082010984420776,,,,,150,252444.99999999997,35,72.0,-1,0,0,0,0,0,-7.0,-20.0,-958.0
1777594531.301291,5.13269305229187,0.5249672370107394,1.282640290041738,3.0837811178959824,3,150,252440.0,35,72.0,-1,0,0,0,0,0,-46.0,21.0,-1004.0
1777594531.353506,5.184908151626587,0.8367976609532138,1.2765932086432359,3.136031550279151,3,150,252440.0,35,72.0,-1,0,0,0,0,0,-46.0,21.0,-1004.0
1777594531.404512,5.235913991928101,0.6736093815966658,1.2409281361978923,3.1083925654572337,3,150,252438.0,35,72.0,-1,0,0,0,0,0,2.0,-16.0,-927.0
1777594531.4557881,5.287190198898315,0.8304917868321756,1.2925076866622929,3.1350411983663635,3,150,252438.0,35,72.0,-1,0,0,0,0,0,2.0,-16.0,-927.0
1777594531.506046,5.3374481201171875,0.8268827861285779,1.3002914029506323,3.1344556751962602,3,150,252438.0,35,72.0,-1,0,0,0,0,0,2.0,-16.0,-927.0
1777594531.5576699,5.389071941375732,0.6901704011507567,1.4638429083491364,3.1138187929562813,3,150,252441.0,35,72.0,-1,0,0,0,0,0,-12.0,-14.0,-973.0
1777594531.6085079,5.439909934997559,1.182494149312229,1.6665394937962543,3.11155305073846,3,150,252441.0,35,72.0,-1,0,0,0,0,0,-12.0,-14.0,-973.0
1777594531.65931,5.4907121658325195,0.814926081028498,1.3335842529202582,3.1213669099099812,3,150,252438.0,35,72.0,-1,0,0,0,0,0,-13.0,7.0,-1003.0
1777594531.7086961,5.540098190307617,0.6898002656616962,1.1469562991504063,3.090879297609171,3,150,252438.0,35,72.0,-1,0,0,0,0,0,-13.0,7.0,-1003.0
1777594531.75949,5.59089207649231,0.6550753230298593,1.2730715978103815,3.1021992422189864,3,150,252452.0,35,72.0,0,0,0,0,0,0,-36.0,24.0,-976.0
1777594531.80966,5.641062021255493,0.6473321478830811,1.2795754233347743,3.0999806330337885,3,150,252452.0,35,72.0,0,0,0,0,0,0,-36.0,24.0,-976.0
1777594531.858179,5.6895811557769775,,,,,150,252448.99999999997,35,72.0,0,0,0,0,0,0,-14.0,-22.0,-1010.0
1777594531.907917,5.739319086074829,0.6478157074281998,1.2839369126633549,3.09968570850028,3,150,252448.99999999997,35,72.0,0,0,0,0,0,0,-14.0,-22.0,-1010.0
1777594531.958213,5.789615154266357,0.6453913132768603,1.2874570841751756,3.0988336271587134,3,150,252444.99999999997,35,72.0,0,0,0,0,0,0,-14.0,10.0,-992.0
1777594532.009084,5.8404860496521,0.544552308385915,1.2388598007996854,3.069275421646987,3,150,252444.99999999997,35,72.0,0,0,0,0,0,0,-14.0,10.0,-992.0
1777594532.059027,5.8904290199279785,0.7738297108323045,1.3791920768795356,3.113216874117028,3,150,252448.99999999997,35,72.0,0,0,0,0,0,0,-12.0,7.0,-998.0
1777594532.109392,5.940793991088867,0.7687494467228111,1.3837375733639268,3.112090202026158,3,150,252444.0,35,72.0,0,0,0,0,0,0,-4.0,13.0,-971.0
1777594532.159039,5.990441083908081,0.6407213667681504,1.294823139836896,3.085409844608838,3,150,252444.0,35,72.0,0,0,0,0,0,0,-4.0,13.0,-971.0
1777594532.208048,6.039450168609619,0.8272608790415812,1.1857718645010435,3.1009053099707007,3,150,252444.0,35,72.0,0,0,0,0,0,0,8.0,5.0,-994.0
1777594532.259145,6.09054708480835,0.6357214228955983,1.301040153306392,3.0953704555203925,3,150,252444.0,35,72.0,0,0,0,0,0,0,8.0,5.0,-994.0
1777594532.3106072,6.142009258270264,0.7637377228549895,1.388079890987312,3.1109527179302168,3,150,252450.0,34,72.0,0,0,0,0,0,0,0.0,-3.0,-1023.0
1777594532.36043,6.191832065582275,0.7637377228549895,1.388079890987312,3.1109527179302168,3,150,252450.0,34,72.0,0,0,0,0,0,0,0.0,-3.0,-1023.0
1777594532.411115,6.242516994476318,0.7637377228549895,1.388079890987312,3.1109527179302168,3,150,252444.0,34,72.0,-1,0,0,0,0,0,5.0,16.0,-989.0
1777594532.460663,6.292065143585205,1.1831011139433651,1.6125138134325478,3.111329027462095,3,150,252444.0,34,72.0,-1,0,0,0,0,0,5.0,16.0,-989.0
1777594532.5113668,6.342768907546997,,,,,150,252452.0,34,72.0,-1,0,0,0,0,0,-6.0,0.0,-987.0
1777594532.561423,6.392825126647949,0.7689722984967282,1.3802232306200932,3.112417420973552,3,150,252452.0,34,72.0,-1,0,0,0,0,0,-6.0,0.0,-987.0
1777594532.6117508,6.443152904510498,0.7690960401468461,1.3741690485223366,3.1130879676606376,3,150,252452.0,34,72.0,-1,0,0,0,0,0,-6.0,0.0,-987.0
1777594532.661626,6.493028163909912,0.6385186798284415,1.282292352935663,3.0860893474884254,3,150,252444.99999999997,34,72.0,0,0,0,0,0,0,-24.0,8.0,-974.0
1777594532.7125592,6.5439612865448,0.7787420536052064,1.3605341383820178,3.115494847617107,3,150,252444.99999999997,34,72.0,0,0,0,0,0,0,-24.0,8.0,-974.0
1777594532.763374,6.594776153564453,0.7737650071642821,1.3594903422126898,3.115052241244527,3,150,252442.99999999997,34,72.0,-1,0,0,0,0,0,-24.0,7.0,-999.0
1777594532.8133152,6.644717216491699,0.778491607038061,1.354239301318998,3.116075631534011,3,150,252442.99999999997,34,72.0,-1,0,0,0,0,0,-24.0,7.0,-999.0
1777594532.86405,6.695451974868774,1.1891269510224676,1.6355961218753303,3.101567118362424,3,150,252444.0,34,72.0,-1,0,0,0,0,0,-20.0,15.0,-1011.0
1777594532.914853,6.746255159378052,0.88799660612049,1.5892274408586093,3.1125597888381336,3,150,252444.0,34,72.0,-1,0,0,0,0,0,-20.0,15.0,-1011.0
1777594532.964867,6.796269178390503,0.6433441823289074,1.2757983759068001,3.0897274569185478,3,150,252450.0,34,72.0,0,0,0,0,0,0,-27.0,-16.0,-989.0
1777594533.0159621,6.847364187240601,0.7820240369099842,1.3385238839222855,3.117765524644084,3,150,252450.0,34,72.0,0,0,0,0,0,0,-27.0,-16.0,-989.0
1777594533.0670772,6.898479223251343,0.8067149573722308,1.1472963962513845,3.100879000648753,3,150,252446.99999999997,34,72.0,0,0,0,0,0,0,-12.0,11.0,-1027.0
1777594533.118269,6.949671030044556,0.9049539261257075,1.588636326171843,3.115198008799159,3,150,252446.99999999997,34,72.0,0,0,0,0,0,0,-12.0,11.0,-1027.0
1777594533.169546,7.000947952270508,0.50043731065297,1.3031633775373104,3.063122922068155,3,150,252442.99999999997,34,72.0,-1,0,0,0,0,0,-14.0,15.0,-1013.0
1777594533.220883,7.0522849559783936,0.792735129132394,1.325581596144369,3.109453731037778,3,150,252442.99999999997,34,72.0,-1,0,0,0,0,0,-14.0,15.0,-1013.0
1777594533.2717912,7.103193283081055,0.5024565446771481,1.3007559698097677,3.064164513374809,3,150,252442.99999999997,34,72.0,-1,0,0,0,0,0,-26.0,29.0,-982.0
1777594533.3237572,7.15515923500061,0.7901693389215305,1.3088775676825823,3.108888959210385,3,150,252442.99999999997,34,72.0,-1,0,0,0,0,0,-26.0,29.0,-982.0
1777594533.374398,7.2058000564575195,1.2181857214016676,1.4896226881380057,3.1083368594987433,3,150,252444.99999999997,34,72.0,0,0,0,0,0,0,8.0,-7.0,-1007.0
1777594533.424874,7.2562761306762695,0.8016609898467922,1.1318757753817397,3.1008887621435948,3,150,252444.99999999997,34,72.0,0,0,0,0,0,0,8.0,-7.0,-1007.0
1777594533.4748611,7.306263208389282,0.8016522719711918,1.1268172890264596,3.10089005865458,3,150,252436.0,34,72.0,0,0,0,0,0,0,-12.0,7.0,-994.0
1777594533.525343,7.356745004653931,0.7977433640134373,1.2928667913640217,3.1222519283450922,3,150,252436.0,34,72.0,0,0,0,0,0,0,-12.0,7.0,-994.0
1777594533.575943,7.4073450565338135,0.7977433640134373,1.2928667913640217,3.1222519283450922,3,150,252442.0,34,71.5,0,0,0,0,0,0,7.0,9.0,-1016.0
1777594533.625603,7.457005023956299,0.6903388389092682,1.435609856775828,3.095707569437928,3,150,252442.0,34,71.5,0,0,0,0,0,0,7.0,9.0,-1016.0
1777594533.675103,7.506505012512207,0.8048168153755546,1.288706993659619,3.1127403628728643,3,150,252428.00000000003,34,71.5,0,0,0,0,0,0,-29.0,4.0,-961.0
1777594533.724868,7.556270122528076,0.9553901805915428,1.6139350419284564,3.1195660601276973,3,150,252428.00000000003,34,71.5,0,0,0,0,0,0,-29.0,4.0,-961.0
1777594533.7746959,7.606097936630249,0.802101070551053,1.2729664331902262,3.123683375131877,3,150,252433.0,34,71.5,0,0,0,0,0,0,-7.0,-16.0,-992.0
1777594533.8248682,7.656270265579224,0.8049887360880443,1.2591849337887782,3.1127120996997784,3,150,252433.0,34,71.5,0,0,0,0,0,0,-7.0,-16.0,-992.0
1777594533.875521,7.706923007965088,0.6624049939900635,1.2251170590345792,3.0982473904051417,3,150,252436.0,34,71.5,0,0,0,0,0,0,9.0,0.0,-977.0
1777594533.924885,7.756287097930908,0.8096300657043124,1.2519595693366692,3.125076800881508,3,150,252436.0,34,71.5,0,0,0,0,0,0,9.0,0.0,-977.0
1777594533.9754932,7.8068952560424805,0.810871222239911,1.2347928824299361,3.1257038540003563,3,150,252434.0,34,71.5,0,0,0,0,0,0,-18.0,21.0,-1005.0
1777594534.025264,7.856666088104248,0.5440567658428597,1.4070596080907936,3.0856172252935536,3,150,252434.0,34,71.5,0,0,0,0,0,0,-18.0,21.0,-1005.0
1777594534.076652,7.9080541133880615,,,,,150,252434.0,34,71.5,0,0,0,0,0,0,-22.0,12.0,-964.0
1777594534.125793,7.957195043563843,,,,,150,252434.0,34,71.5,0,0,0,0,0,0,-22.0,12.0,-964.0
1777594534.1754591,8.006861209869385,0.8389908668081926,1.3978183875153842,3.211778416259194,2,150,252432.00000000003,34,71.5,-1,0,0,0,0,0,-12.0,4.0,-1009.0
1777594534.225173,8.056575059890747,0.8945568548897848,1.5002035076467988,3.1693526003362162,2,150,252432.00000000003,34,71.5,-1,0,0,0,0,0,-12.0,4.0,-1009.0
1777594534.275858,8.10725998878479,0.8368272828208396,1.5658129216243295,3.1264308104907865,2,150,252426.00000000003,34,71.5,-1,0,0,0,0,0,-10.0,7.0,-1003.0
1777594534.3264902,8.157892227172852,0.8262636743293832,1.5033322322484763,3.160508728688523,2,150,252426.00000000003,34,71.5,-1,0,0,0,0,0,-10.0,7.0,-1003.0
1777594534.376338,8.207740068435669,0.8589252060992273,1.4615453516354173,3.1776074181845533,2,150,252431.0,33,71.5,-1,0,0,0,0,0,-11.0,-3.0,-985.0
1777594534.427437,8.258839130401611,0.8659344684242198,1.5233911190077132,3.1427496634021774,2,150,252431.0,33,71.5,-1,0,0,0,0,0,-11.0,-3.0,-985.0
1777594534.478415,8.30981707572937,0.8673568722732441,1.5199786788854284,3.14291900091392,2,140,252430.00000000003,33,71.5,-1,0,0,0,0,0,-11.0,3.0,-993.0
1777594534.527884,8.359286069869995,0.8128941845859853,1.4202060181019602,3.183603749155564,2,140,252430.00000000003,33,71.5,-1,0,0,0,0,0,-11.0,3.0,-993.0
1777594534.579243,8.410645008087158,0.8267261764801432,1.4904592108575878,3.1611586478756375,2,140,252432.00000000003,33,72.5,-1,0,0,0,0,0,-20.0,14.0,-1029.0
1777594534.6292322,8.460634231567383,0.8650694042116659,1.4510780256558573,3.177485642348679,2,140,252432.00000000003,33,72.5,-1,0,0,0,0,0,-20.0,14.0,-1029.0
1777594534.680466,8.511868000030518,0.8626184638656201,1.447177314580077,3.177537468178512,2,140,252426.00000000003,33,72.5,-1,0,0,0,0,0,-18.0,15.0,-1006.0
1777594534.7308989,8.56230092048645,0.8004223564019717,1.5206054808192095,3.132367900136083,2,140,252426.00000000003,33,72.5,-1,0,0,0,0,0,-18.0,15.0,-1006.0
1777594534.781572,8.612974166870117,0.8741677533780283,1.5126413806465662,3.1419186837430355,2,140,252430.00000000003,33,72.5,-1,0,0,0,0,0,4.0,16.0,-1030.0
1777594534.832623,8.664025068283081,0.8199698183933696,1.411911966919492,3.182942019342694,2,140,252430.00000000003,33,72.5,-1,0,0,0,0,0,4.0,16.0,-1030.0
1777594534.883622,8.7150239944458,0.8679164554803963,1.4390826977114148,3.164848945690044,2,140,252423.99999999997,33,72.5,-1,0,0,0,0,0,-22.0,12.0,-983.0
1777594534.9339688,8.765370845794678,0.8579535563390541,1.3704926837087723,3.210700201065939,2,140,252423.99999999997,33,72.5,-1,0,0,0,0,0,-22.0,12.0,-983.0
1777594534.984501,8.815902948379517,0.8710809612820196,1.4361536204140375,3.164345850685773,2,140,252421.99999999997,33,72.5,-1,0,0,0,0,0,-7.0,10.0,-1002.0
1777594535.0347369,8.866138935089111,0.8262707582456155,1.4056780700522813,3.182162785943005,2,140,252421.99999999997,33,72.5,-1,0,0,0,0,0,-7.0,10.0,-1002.0
1777594535.08517,8.916572093963623,0.8453655739413546,1.4724593666541894,3.147828679330005,2,140,252417.99999999997,33,72.5,0,0,0,0,0,0,-5.0,-7.0,-938.0
1777594535.1363049,8.96770691871643,0.8768258295839071,1.4309680036442467,3.1632335745412368,2,140,252417.99999999997,33,72.5,0,0,0,0,0,0,-5.0,-7.0,-938.0
1777594535.1881778,9.019579887390137,0.8489287163227894,1.4680573374407722,3.1474734219212803,2,140,252421.0,33,72.5,0,0,0,0,0,0,-8.0,-6.0,-938.0
1777594535.239361,9.070763111114502,0.8731671863954652,1.3528493200753058,3.1980376743717898,2,140,252421.0,33,72.5,0,0,0,0,0,0,-8.0,-6.0,-938.0
1777594535.289242,9.120644092559814,0.8840779608342271,1.4194302168459219,3.163214543499398,2,140,252421.0,33,72.5,0,0,0,0,0,1,-29.0,10.0,-909.0
1777594535.340278,9.171679973602295,0.811597081113413,1.4249152032876125,3.1530912084762863,2,140,252421.0,33,72.5,0,0,0,0,0,1,-29.0,10.0,-909.0
1777594535.3922932,9.223695278167725,0.9344980150182246,1.4377549206791032,3.142888321268409,2,140,252413.0,33,72.5,0,0,0,0,0,2,-21.0,8.0,-882.0
1777594535.4423208,9.273722887039185,0.8540467012751664,1.3629711390693446,3.1709961119311214,2,130,252409.0,33,72.5,-1,0,0,0,0,3,-7.0,24.0,-917.0
1777594535.49237,9.323771953582764,0.852781564863502,1.3579203925487335,3.1708614493134233,2,130,252409.0,33,72.5,-1,0,0,0,0,3,-7.0,24.0,-917.0
1777594535.543282,9.37468409538269,0.9064212421650905,1.3720134410449694,3.1417944062048573,2,130,252409.0,33,72.5,-1,0,0,0,0,3,-7.0,24.0,-917.0
1777594535.5915399,9.42294192314148,0.867802141159363,1.323480730508864,3.1498741906718353,2,120,252407.00000000003,33,72.5,-1,0,0,0,0,5,-23.0,2.0,-878.0
1777594535.641262,9.47266411781311,0.8877842471641363,1.3909410397700908,3.1158330233088822,2,120,252407.00000000003,33,72.5,-1,0,0,0,0,5,-23.0,2.0,-878.0
1777594535.691705,9.523107051849365,0.891181857088382,1.3792560556451456,3.10605240939677,2,120,252403.00000000003,33,72.5,-1,0,0,0,0,6,-8.0,5.0,-892.0
1777594535.741534,9.572936058044434,0.8739177217539953,1.2153884856160064,3.174561008257158,2,120,252403.00000000003,33,72.5,-1,0,0,0,0,6,-8.0,5.0,-892.0
1777594535.792707,9.624109029769897,0.9348601793868062,1.2341140746873824,3.1452263481925895,2,110,252396.99999999997,33,72.5,-1,0,0,0,0,7,-26.0,12.0,-867.0
1777594535.843103,9.67450499534607,0.9419041975093834,1.2278973007199134,3.145607939377498,2,110,252396.99999999997,33,72.5,-1,0,0,0,0,7,-26.0,12.0,-867.0
1777594535.895288,9.72669005393982,0.9087909746607483,1.1732145978806274,3.1552117896077325,2,100,252391.0,33,72.5,-1,0,0,0,0,8,-30.0,24.0,-915.0
1777594535.946374,9.777776002883911,0.9107810573699809,1.0537640730955347,3.1683219107983787,2,100,252391.0,33,72.5,-1,0,0,0,0,8,-30.0,24.0,-915.0
1777594535.99589,9.82729196548462,0.8774931931295331,1.10786771811989,3.1421183495563447,2,90,252379.0,33,72.5,-1,0,0,0,0,8,-6.0,2.0,-975.0
1777594536.0446742,9.876076221466064,0.9454207448383214,1.038446614449394,3.1486257328787013,2,90,252379.0,33,72.5,-1,0,0,0,0,8,-6.0,2.0,-975.0
1777594536.091978,9.923380136489868,0.9492670291546688,0.9105991623406428,3.172441190029183,2,90,252365.0,33,72.5,0,0,0,0,0,8,-21.0,23.0,-1012.0
1777594536.1393511,9.970753192901611,0.9680715793734206,0.9114229946230771,3.1614796273561327,2,90,252365.0,33,72.5,0,0,0,0,0,8,-21.0,23.0,-1012.0
1777594536.1869938,10.018395900726318,0.9127412059904371,0.8535293314463899,3.170322033231248,2,80,252363.0,33,72.5,-1,0,0,0,0,8,-19.0,23.0,-1046.0
1777594536.238092,10.069494009017944,0.8837847470050223,0.6698808625988569,3.190503791176227,2,70,252354.0,33,72.5,-1,0,0,0,0,7,6.0,8.0,-1083.0
1777594536.288985,10.120387077331543,0.7843873394632991,0.6294000517756455,3.164132887760372,2,70,252354.0,33,72.5,-1,0,0,0,0,7,6.0,8.0,-1083.0
1777594536.339869,10.171271085739136,0.97801602850871,0.7046147516033421,3.1630779557015627,2,60,252350.0,32,72.5,0,0,0,0,0,7,-34.0,5.0,-1032.0
1777594536.391229,10.222630977630615,1.165400951593219,0.44957327150177256,3.1735593754306097,2,60,252350.0,32,72.5,0,0,0,0,0,7,-34.0,5.0,-1032.0
1777594536.441855,10.27325701713562,1.0317288980677857,0.7633955771168471,3.141923347358358,2,50,252348.0,32,72.5,0,0,0,0,0,6,-19.0,30.0,-1045.0
1777594536.492352,10.323754072189331,0.7862562745433788,0.43443283025430374,3.154134873864049,2,50,252348.0,32,72.5,0,0,0,0,0,6,-19.0,30.0,-1045.0
1777594536.5431418,10.374543905258179,1.1459089554067434,0.694857154948161,3.1431089371596355,2,50,252341.0,32,72.0,-1,0,0,0,0,6,-10.0,30.0,-1079.0
1777594536.593798,10.42519998550415,0.6670358465684367,0.34850497045255974,3.134480825713343,2,50,252341.0,32,72.0,-1,0,0,0,0,6,-10.0,30.0,-1079.0
1777594536.6435452,10.474947214126587,0.6921110272411863,0.3156383653627915,3.1421922707604724,2,50,252341.0,32,72.0,-1,0,0,0,0,6,-10.0,30.0,-1079.0
1777594536.69237,10.52377200126648,0.7374263011141762,0.018820013606518082,3.109012298803193,2,40,252335.0,32,72.0,0,0,0,0,0,5,-13.0,5.0,-1045.0
1777594536.7430599,10.574461936950684,0.5847540947446298,0.29677238674960366,3.1163364235630286,2,40,252335.0,32,72.0,0,0,0,0,0,5,-13.0,5.0,-1045.0
1777594536.793907,10.625308990478516,0.7811391635966556,0.1876476187385372,3.1429531562616813,2,30,252335.0,32,72.0,-1,0,0,0,0,5,4.0,13.0,-1061.0
1777594536.8443232,10.675725221633911,0.790445686560039,0.11906722072683684,3.1346209457256915,2,30,252335.0,32,72.0,-1,0,0,0,0,5,4.0,13.0,-1061.0
1777594536.893078,10.724480152130127,0.607411858096391,0.3226429416510289,3.1259538074967734,2,30,252326.00000000003,32,72.0,-1,0,0,0,0,4,-9.0,-2.0,-1016.0
1777594536.942453,10.773854970932007,0.5042134389831148,0.31530733754225204,3.103643314563855,2,30,252326.00000000003,32,72.0,-1,0,0,0,0,4,-9.0,-2.0,-1016.0
1777594536.992704,10.824105978012085,0.7060584646836336,0.1297816013845267,3.1256384403620654,2,20,252327.0,32,72.0,0,0,0,0,0,4,-6.0,10.0,-1049.0
1777594537.0427,10.874102115631104,0.7184073618576586,0.07574797545828671,3.1189885210361092,2,20,252327.0,32,72.0,0,0,0,0,0,4,-6.0,10.0,-1049.0
1777594537.093496,10.924898147583008,0.5285366850973543,0.33728094791208296,3.115728984494123,2,20,252319.99999999997,32,72.0,0,0,0,0,0,4,-13.0,15.0,-1037.0
1777594537.143469,10.974871158599854,0.6165472129357054,0.2069879905106211,3.1310631360185264,2,20,252319.99999999997,32,72.0,0,0,0,0,0,4,-13.0,15.0,-1037.0
1777594537.193523,11.024924993515015,0.7391634187972174,-0.035719842868351837,3.1138807246262634,2,10,252310.0,32,72.0,0,0,0,0,0,4,-11.0,26.0,-1001.0
1777594537.242657,11.074059009552002,0.7852064186166237,0.1250723902981688,3.1475508885671357,2,10,252310.0,32,72.0,0,0,0,0,0,4,-11.0,26.0,-1001.0
1777594537.29298,11.124382019042969,0.5556938823591935,0.18878079194107522,3.1180267319637482,2,10,252279.0,32,72.0,0,0,0,0,0,4,-21.0,-2.0,-994.0
1777594537.342456,11.173858165740967,0.5960350673728736,0.045072488111815245,3.114341921581637,2,10,252279.0,32,72.0,0,0,0,0,0,4,-21.0,-2.0,-994.0
1777594537.39264,11.224042177200317,0.601895282070003,0.11596022484414714,3.1269823163423256,2,0,252219.99999999997,32,72.0,0,0,0,0,0,4,-10.0,-4.0,-1041.0
1777594537.441615,11.273017168045044,0.6937904993908618,-0.09266699903368286,3.1033779074126286,2,0,252219.99999999997,32,72.0,0,0,0,0,0,4,-10.0,-4.0,-1041.0
1777594537.4917078,11.323109865188599,0.7261889770251242,0.04091853672346002,3.1478849075048827,2,0,252146.99999999997,32,72.0,0,0,0,0,0,3,-27.0,12.0,-1057.0
1777594537.541087,11.372488975524902,0.6373586355295543,0.023471486667725472,3.1309747738154696,2,0,252146.99999999997,32,72.0,0,0,0,0,0,3,-27.0,12.0,-1057.0
1777594537.591776,11.42317795753479,,,,,0,252006.0,32,72.0,-1,0,0,0,0,2,-5.0,1.0,-1042.0
1777594537.641079,11.47248101234436,,,,,0,252006.0,32,72.0,-1,0,0,0,0,2,-5.0,1.0,-1042.0
1777594537.6901,11.521502017974854,,,,,0,251841.0,32,72.0,0,0,0,0,0,1,-25.0,-1.0,-1066.0
1777594537.740031,11.571433067321777,,,,,0,251841.0,32,72.0,0,0,0,0,0,1,-25.0,-1.0,-1066.0
1777594537.7898712,11.621273279190063,,,,,0,251960.0,32,72.0,0,-1,0,0,0,0,-28.0,31.0,-1075.0
1777594537.8390799,11.67048192024231,,,,,0,251960.0,32,72.0,0,-1,0,0,0,0,-28.0,31.0,-1075.0
1777594537.889248,11.72064995765686,,,,,0,251896.0,32,72.0,0,0,0,0,0,0,-30.0,267.0,-1786.0
1777594537.9390268,11.770428895950317,,,,,0,251896.0,32,72.0,0,0,0,0,0,0,-30.0,267.0,-1786.0
1777594537.988704,11.820106029510498,,,,,0,251948.99999999997,32,72.0,0,0,0,0,0,0,-15.0,34.0,-846.0
1777594538.037559,11.868961095809937,,,,,0,251948.99999999997,32,72.0,0,0,0,0,0,0,-15.0,34.0,-846.0
1777594538.0873652,11.918767213821411,,,,,0,252019.99999999997,32,72.0,0,0,1,0,0,0,33.0,81.0,-1273.0
1777594538.1367412,11.968143224716187,,,,,0,252019.99999999997,32,72.0,0,0,1,0,0,0,33.0,81.0,-1273.0
1777594538.187575,12.018977165222168,,,,,0,252073.99999999997,32,72.0,0,0,1,0,0,0,35.0,48.0,-1010.0
1777594538.2366679,12.06806993484497,,,,,0,252073.99999999997,32,72.0,0,0,1,0,0,0,35.0,48.0,-1010.0
1777594538.287165,12.118566989898682,,,,,0,252113.0,32,72.0,0,0,1,0,0,0,10.0,-17.0,-1012.0
1777594538.337666,12.169068098068237,,,,,0,252113.0,32,72.0,0,0,1,0,0,0,10.0,-17.0,-1012.0
1777594538.387672,12.219074010848999,,,,,0,252125.0,31,72.0,0,0,1,0,0,0,12.0,1.0,-1002.0
1777594538.43852,12.269922018051147,,,,,0,252125.0,31,72.0,0,0,1,0,0,0,12.0,1.0,-1002.0
1777594538.488516,12.319918155670166,,,,,0,252150.0,31,72.0,0,0,1,0,0,0,-13.0,-3.0,-992.0
1777594538.5372548,12.368656873703003,,,,,0,252150.0,31,72.0,0,0,1,0,0,0,-13.0,-3.0,-992.0
1777594538.586574,12.417976140975952,,,,,10,252164.0,31,72.5,0,0,1,0,0,0,-12.0,4.0,-1007.0
1777594538.636158,12.467560052871704,,,,,10,252164.0,31,72.5,0,0,1,0,0,0,-12.0,4.0,-1007.0
1777594538.6864269,12.517828941345215,,,,,10,252167.99999999997,31,72.5,0,0,1,0,1,0,13.0,-15.0,-999.0
1777594538.736228,12.567630052566528,,,,,10,252167.99999999997,31,72.5,0,0,1,0,1,0,13.0,-15.0,-999.0
1777594538.786141,12.61754298210144,,,,,10,252167.99999999997,31,72.5,0,0,1,0,1,0,13.0,-15.0,-999.0
1777594538.8361979,12.66759991645813,,,,,10,252169.99999999997,31,72.5,0,0,1,0,1,0,7.0,14.0,-1000.0
1777594538.88557,12.71697211265564,,,,,10,252169.99999999997,31,72.5,0,0,1,0,1,0,7.0,14.0,-1000.0
1777594538.935519,12.766921043395996,,,,,10,252185.0,31,72.5,0,0,1,0,1,0,-11.0,5.0,-1001.0
1777594538.986793,12.818195104598999,,,,,10,252185.0,31,72.5,0,0,1,0,1,0,-11.0,5.0,-1001.0
1777594539.0368152,12.86821722984314,,,,,10,252194.0,31,72.5,0,0,1,0,1,0,-2.0,13.0,-1001.0
1777594539.086248,12.917649984359741,,,,,10,252194.0,31,72.5,0,0,1,0,1,0,-2.0,13.0,-1001.0
1777594539.134506,12.96590805053711,,,,,0,252225.0,31,72.5,0,0,1,0,1,-1,-1.0,-3.0,-999.0
1777594539.184798,13.016200065612793,,,,,0,252225.0,31,72.5,0,0,1,0,1,-1,-1.0,-3.0,-999.0
1777594539.234992,13.066394090652466,,,,,0,252230.00000000003,31,72.5,0,0,1,0,0,0,-5.0,-7.0,-1005.0
1777594539.284396,13.115797996520996,,,,,0,252230.00000000003,31,72.5,0,0,1,0,0,0,-5.0,-7.0,-1005.0
1777594539.333786,13.165188074111938,,,,,0,252248.0,31,72.5,0,0,1,0,0,0,-4.0,6.0,-1002.0
1777594539.383928,13.215330123901367,,,,,0,252248.0,31,72.5,0,0,1,0,0,0,-4.0,6.0,-1002.0
1777594539.4333298,13.264731884002686,,,,,0,252254.0,31,72.5,0,0,1,0,0,0,-3.0,1.0,-1002.0
1777594539.483215,13.314617156982422,,,,,0,252254.0,31,72.5,0,0,1,0,0,0,-3.0,1.0,-1002.0
1777594539.533403,13.364804983139038,,,,,0,252258.0,31,72.5,0,0,1,0,0,0,-2.0,0.0,-1004.0
1777594539.584616,13.416018009185791,,,,,0,252258.0,31,72.5,0,0,1,0,0,0,-2.0,0.0,-1004.0
1777594539.633198,13.464600086212158,,,,,0,252262.0,31,72.0,0,0,1,0,0,0,3.0,5.0,-1001.0
1777594539.683213,13.514615058898926,,,,,0,252262.0,31,72.0,0,0,1,0,0,0,3.0,5.0,-1001.0
1777594539.732023,13.563425064086914,,,,,0,252263.0,31,72.0,0,0,1,0,0,0,-1.0,3.0,-1001.0
1777594539.782327,13.613729000091553,,,,,0,252263.0,31,72.0,0,0,1,0,0,0,-1.0,3.0,-1001.0
1777594539.832026,13.66342806816101,,,,,0,252260.0,31,72.0,0,0,1,0,0,0,-4.0,8.0,-1004.0
1777594539.882087,13.713489055633545,,,,,0,252263.0,31,72.0,0,0,1,0,0,0,-1.0,-1.0,-1001.0
1777594539.9321961,13.763598203659058,,,,,0,252263.0,31,72.0,0,0,1,0,0,0,-1.0,-1.0,-1001.0
1777594539.982002,13.813404083251953,,,,,0,252264.0,31,72.0,0,0,1,0,0,0,-6.0,-1.0,-1000.0
1777594540.0322392,13.863641262054443,,,,,0,252264.0,31,72.0,0,0,1,0,0,0,-6.0,-1.0,-1000.0
1777594540.083072,13.91447401046753,,,,,0,252273.0,31,72.0,0,0,1,0,0,0,-1.0,2.0,-1002.0
1777594540.132907,13.964308977127075,,,,,0,252273.0,31,72.0,0,0,1,0,0,0,-1.0,2.0,-1002.0
1777594540.182889,14.014291048049927,,,,,0,252264.0,31,72.0,0,0,1,0,0,0,-4.0,0.0,-1002.0
1777594540.2337532,14.065155267715454,,,,,0,252264.0,31,72.0,0,0,1,0,0,0,-4.0,0.0,-1002.0
1777594540.283885,14.115287065505981,,,,,0,252267.99999999997,31,72.0,0,0,1,0,0,0,-3.0,2.0,-1003.0
1777594540.334445,14.165847063064575,,,,,0,252267.99999999997,31,72.0,0,0,1,0,0,0,-3.0,2.0,-1003.0
1777594540.385057,14.216459035873413,,,,,0,252267.0,30,72.0,0,0,1,0,0,0,-3.0,0.0,-1002.0
1777594540.434916,14.266318082809448,,,,,0,252267.0,30,72.0,0,0,1,0,0,0,-3.0,0.0,-1002.0
1777594540.486175,14.317577123641968,,,,,0,252266.0,30,72.0,0,0,1,0,0,0,-2.0,1.0,-1001.0
1777594540.535754,14.367156028747559,,,,,0,252266.0,30,72.0,0,0,1,0,0,0,-2.0,1.0,-1001.0
1777594540.586664,14.418066024780273,,,,,0,252264.0,30,71.5,0,0,1,0,0,0,-2.0,0.0,-1004.0
1777594540.635957,14.467359066009521,,,,,0,252264.0,30,71.5,0,0,1,0,0,0,-2.0,0.0,-1004.0
1777594540.684761,14.516163110733032,,,,,0,252271.0,30,71.5,0,0,1,0,0,0,-3.0,0.0,-1003.0
1777594540.734105,14.565507173538208,,,,,0,252271.0,30,71.5,0,0,1,0,0,0,-3.0,0.0,-1003.0
1777594540.784312,14.615714073181152,,,,,0,252273.99999999997,30,71.5,0,0,1,0,0,0,-3.0,1.0,-1001.0
1777594540.834535,14.665936946868896,,,,,0,252273.99999999997,30,71.5,0,0,1,0,0,0,-3.0,1.0,-1001.0
1777594540.8850281,14.716430187225342,,,,,0,252265.0,30,71.5,0,0,1,0,0,0,-3.0,0.0,-1003.0
1777594540.935157,14.76655912399292,,,,,0,252265.0,30,71.5,0,0,1,0,0,0,-3.0,0.0,-1003.0
1777594540.9852002,14.816602230072021,,,,,0,252262.0,30,71.5,0,0,1,0,0,0,-1.0,0.0,-1002.0
1777594541.0351932,14.866595268249512,,,,,0,252262.0,30,71.5,0,0,1,0,0,0,-1.0,0.0,-1002.0
1777594541.085849,14.917251110076904,,,,,0,252275.0,30,71.5,0,0,1,0,0,0,-3.0,0.0,-1002.0
1777594541.135482,14.966884136199951,,,,,0,252275.0,30,71.5,0,0,1,0,0,0,-3.0,0.0,-1002.0
1777594541.185205,15.01660704612732,,,,,0,252267.0,30,71.5,0,0,1,0,0,0,-2.0,0.0,-1002.0
1777594541.235219,15.06662106513977,,,,,0,252267.0,30,71.5,0,0,1,0,0,0,-2.0,0.0,-1002.0
1777594541.285367,15.116769075393677,,,,,0,252267.0,30,71.5,0,0,1,0,0,0,-2.0,0.0,-1002.0
1777594541.335103,15.166505098342896,,,,,0,252267.99999999997,30,71.5,0,0,1,0,0,0,-3.0,0.0,-1003.0
1777594541.3847208,15.21612286567688,,,,,0,252267.99999999997,30,71.5,0,0,1,0,0,0,-3.0,0.0,-1003.0
1777594541.434742,15.266144037246704,,,,,0,252267.99999999997,30,71.5,0,0,1,0,0,0,-3.0,0.0,-1003.0
1777594541.485389,15.31679105758667,,,,,0,252267.99999999997,30,71.5,0,0,1,0,0,0,-3.0,0.0,-1003.0
1777594541.534542,15.365944147109985,,,,,0,252275.0,30,71.5,0,0,1,0,0,0,-3.0,1.0,-1005.0
1777594541.584665,15.416067123413086,,,,,0,252275.0,30,71.5,0,0,1,0,0,0,-3.0,1.0,-1005.0
1777594541.646548,15.477950096130371,,,,,0,252269.99999999997,30,72.0,0,0,1,0,0,0,-2.0,0.0,-1000.0
1777594541.6952388,15.526640892028809,,,,,0,252269.99999999997,30,72.0,0,0,1,0,0,0,-2.0,0.0,-1000.0
1777594541.745188,15.576590061187744,,,,,0,252281.0,30,72.0,0,0,1,0,0,0,-3.0,1.0,-1002.0
1777594541.794605,15.626007080078125,,,,,0,252281.0,30,72.0,0,0,1,0,0,0,-3.0,1.0,-1002.0
1777594541.8435352,15.67493724822998,,,,,0,252269.0,30,72.0,0,0,1,0,0,0,-2.0,-1.0,-1001.0
1777594541.893458,15.724859952926636,,,,,0,252269.0,30,72.0,0,0,1,0,0,0,-2.0,-1.0,-1001.0
1777594541.943539,15.774940967559814,,,,,0,252276.00000000003,30,72.0,0,0,1,0,0,0,-2.0,0.0,-1000.0
1777594541.993593,15.824995040893555,,,,,0,252276.00000000003,30,72.0,0,0,1,0,0,0,-2.0,0.0,-1000.0
1777594542.0434601,15.87486219406128,,,,,0,252267.99999999997,30,72.0,0,0,1,0,0,0,-2.0,1.0,-1003.0
1777594542.093796,15.925198078155518,,,,,0,252267.99999999997,30,72.0,0,0,1,0,0,0,-2.0,1.0,-1003.0
1777594542.143785,15.975187063217163,,,,,0,252276.00000000003,30,72.0,0,0,1,0,0,0,-3.0,0.0,-1002.0
1777594542.19279,16.024192094802856,,,,,0,252276.00000000003,30,72.0,0,0,1,0,0,0,-3.0,0.0,-1002.0
1777594542.24286,16.074262142181396,,,,,0,252273.0,30,72.0,0,0,1,0,0,0,-3.0,0.0,-1003.0
1777594542.291929,16.12333106994629,,,,,0,252273.0,30,72.0,0,0,1,0,0,0,-3.0,0.0,-1003.0
1777594542.342101,16.173503160476685,,,,,0,252273.99999999997,30,72.0,0,0,1,0,0,0,-4.0,0.0,-1001.0
1777594542.391265,16.22266697883606,,,,,0,252273.99999999997,30,72.0,0,0,1,0,0,0,-4.0,0.0,-1001.0
1777594542.441581,16.272983074188232,,,,,0,252271.99999999997,29,72.0,0,0,1,0,0,0,0.0,0.0,-1004.0
1777594542.490674,16.322076082229614,,,,,0,252271.99999999997,29,72.0,0,0,1,0,0,0,0.0,0.0,-1004.0
1777594542.5403678,16.371769905090332,,,,,0,252273.99999999997,29,72.0,0,0,1,0,0,0,-2.0,0.0,-1003.0
1777594542.58971,16.421112060546875,,,,,0,252273.99999999997,29,72.0,0,0,1,0,0,0,-2.0,0.0,-1003.0
1777594542.638981,16.470383167266846,,,,,0,252267.99999999997,29,72.5,0,0,1,0,0,0,-2.0,0.0,-1003.0
1777594542.6874619,16.518863916397095,,,,,0,252267.99999999997,29,72.5,0,0,1,0,0,0,-2.0,0.0,-1003.0
1777594542.737272,16.568674087524414,,,,,0,252271.0,29,72.5,0,0,1,0,0,0,-3.0,1.0,-1003.0
1777594542.787026,16.618427991867065,,,,,0,252271.0,29,72.5,0,0,1,0,0,0,-3.0,1.0,-1003.0
1777594542.8374348,16.66883683204651,,,,,0,252271.0,29,72.5,0,0,1,0,0,0,-3.0,0.0,-1004.0
1777594542.888,16.719402074813843,,,,,0,252271.0,29,72.5,0,0,1,0,0,0,-3.0,0.0,-1004.0
1777594542.938226,16.769628047943115,,,,,0,252279.0,29,72.5,0,0,1,0,0,0,-2.0,0.0,-1002.0
1777594542.987859,16.819261074066162,,,,,0,252279.0,29,72.5,0,0,1,0,0,0,-2.0,0.0,-1002.0
1777594543.038023,16.869425058364868,,,,,0,252266.0,29,72.5,0,0,1,0,0,0,-4.0,0.0,-1004.0
1777594543.0862489,16.917650938034058,,,,,0,252266.0,29,72.5,0,0,1,0,0,0,-4.0,0.0,-1004.0
1777594543.1362329,16.967634916305542,,,,,0,252271.0,29,72.5,0,0,1,0,0,0,-2.0,1.0,-1003.0
1777594543.18542,17.01682209968567,,,,,0,252273.0,29,72.5,0,0,1,0,0,0,-3.0,1.0,-1001.0
1777594543.235615,17.067017078399658,,,,,0,252273.0,29,72.5,0,0,1,0,0,0,-3.0,1.0,-1001.0
1777594543.285833,17.11723494529724,,,,,0,252264.0,29,72.5,0,0,1,0,0,0,-1.0,0.0,-1003.0
1777594543.335209,17.166610956192017,,,,,0,252264.0,29,72.5,0,0,1,0,0,0,-1.0,0.0,-1003.0
1777594543.3852959,17.216697931289673,,,,,0,252261.0,29,72.5,0,0,1,0,0,0,-3.0,0.0,-999.0
1777594543.435211,17.266613006591797,,,,,0,252261.0,29,72.5,0,0,1,0,0,0,-3.0,0.0,-999.0
1777594543.484359,17.31576108932495,,,,,0,252277.0,29,72.5,0,0,1,0,0,0,-1.0,0.0,-1000.0
1777594543.534252,17.36565399169922,,,,,0,252277.0,29,72.5,0,0,1,0,0,0,-1.0,0.0,-1000.0
1777594543.5844522,17.41585421562195,,,,,0,252271.0,29,72.5,0,0,1,0,0,0,-3.0,0.0,-1003.0
1777594543.6339982,17.465400218963623,,,,,0,252271.0,29,72.5,0,0,1,0,0,0,-3.0,0.0,-1003.0
1777594543.68322,17.51462197303772,,,,,0,252271.0,29,72.5,0,0,1,0,0,0,-3.0,0.0,-1003.0
1777594543.73338,17.56478214263916,,,,,0,252269.0,29,72.5,0,0,1,0,0,0,-1.0,1.0,-1004.0
1777594543.7831721,17.614574193954468,,,,,0,252269.0,29,72.5,0,0,1,0,0,0,-1.0,1.0,-1004.0
1777594543.8333151,17.664717197418213,,,,,0,252277.0,29,72.5,0,0,1,0,0,0,-2.0,1.0,-1002.0
1777594543.883204,17.714606046676636,,,,,0,252277.0,29,72.5,0,0,1,0,0,0,-2.0,1.0,-1002.0
1777594543.932179,17.763581037521362,,,,,0,252267.99999999997,29,72.5,0,0,1,0,0,0,-1.0,0.0,-1004.0
1777594543.9820359,17.813437938690186,,,,,0,252267.99999999997,29,72.5,0,0,1,0,0,0,-1.0,0.0,-1004.0
1777594544.0320482,17.863450288772583,,,,,0,252273.99999999997,29,72.5,0,0,1,0,0,0,-3.0,0.0,-1004.0
1777594544.082783,17.914185047149658,,,,,0,252273.99999999997,29,72.5,0,0,1,0,0,0,-3.0,0.0,-1004.0
1777594544.132618,17.964020013809204,,,,,0,252271.0,29,72.5,0,0,1,0,0,0,-3.0,0.0,-1005.0
1777594544.18104,18.012442111968994,,,,,0,252271.0,29,72.5,0,0,1,0,0,0,-3.0,0.0,-1005.0
1777594544.230859,18.06226110458374,,,,,0,252265.0,29,72.5,0,0,1,0,0,0,-3.0,-1.0,-1003.0
1777594544.2805681,18.11197018623352,,,,,0,252265.0,29,72.5,0,0,1,0,0,0,-3.0,-1.0,-1003.0
1777594544.330086,18.16148805618286,,,,,0,252271.0,28,72.5,0,0,1,0,0,0,-3.0,0.0,-1002.0
1777594544.380129,18.211531162261963,,,,,0,252271.0,28,72.5,0,0,1,0,0,0,-3.0,0.0,-1002.0
1777594544.430635,18.2620370388031,,,,,0,252267.0,28,72.5,0,0,1,0,0,0,-3.0,2.0,-1002.0
1777594544.480837,18.312239170074463,,,,,0,252267.0,28,72.5,0,0,1,0,0,0,-3.0,2.0,-1002.0
1777594544.5309188,18.36232089996338,,,,,0,252262.0,28,72.5,0,0,1,0,0,0,-2.0,0.0,-1003.0
1777594544.581656,18.413058042526245,,,,,0,252262.0,28,72.5,0,0,1,0,0,0,-2.0,0.0,-1003.0
1777594544.630687,18.46208906173706,,,,,0,252267.99999999997,28,72.0,0,0,1,0,0,0,-3.0,0.0,-1004.0
1777594544.6815438,18.512945890426636,,,,,0,252267.99999999997,28,72.0,0,0,1,0,0,0,-3.0,0.0,-1004.0
1777594544.732209,18.563611030578613,,,,,0,252267.99999999997,28,72.0,0,0,1,0,0,0,-4.0,0.0,-1000.0
1777594544.7826402,18.614042282104492,,,,,0,252267.99999999997,28,72.0,0,0,1,0,0,0,-4.0,0.0,-1000.0
1777594544.833353,18.66475510597229,,,,,0,252265.0,28,72.0,0,0,1,0,0,0,-1.0,0.0,-1001.0
1777594544.882993,18.71439504623413,,,,,0,252265.0,28,72.0,0,0,1,0,0,0,-1.0,0.0,-1001.0
1777594544.932642,18.764044046401978,,,,,0,252267.99999999997,28,72.0,0,0,1,0,0,0,-2.0,1.0,-1001.0
1777594544.983746,18.81514811515808,,,,,0,252267.99999999997,28,72.0,0,0,1,0,0,0,-2.0,1.0,-1001.0
1777594545.033845,18.865247011184692,,,,,0,252266.0,28,72.0,0,0,1,0,0,0,-2.0,0.0,-1001.0
1777594545.083908,18.91531014442444,,,,,0,252266.0,28,72.0,0,0,1,0,0,0,-2.0,0.0,-1001.0
1777594545.133213,18.96461510658264,,,,,0,252269.0,28,72.0,0,0,1,0,0,0,-3.0,0.0,-1000.0
1777594545.1836421,19.01504421234131,,,,,0,252269.0,28,72.0,0,0,1,0,0,0,-3.0,0.0,-1000.0
1777594545.233003,19.06440496444702,,,,,0,252263.0,28,72.0,0,0,1,0,0,0,-2.0,1.0,-1002.0
1777594545.282423,19.11382508277893,,,,,0,252263.0,28,72.0,0,0,1,0,0,0,-2.0,1.0,-1002.0
1777594545.332599,19.164000988006592,,,,,0,252264.0,28,72.0,0,0,1,0,0,0,-3.0,0.0,-1003.0
1777594545.382996,19.21439814567566,,,,,0,252264.0,28,72.0,0,0,1,0,0,0,-3.0,0.0,-1003.0
1777594545.433186,19.264588117599487,,,,,0,252264.0,28,72.0,0,0,1,0,0,0,-3.0,0.0,-1001.0
1777594545.4826722,19.314074277877808,,,,,0,252264.0,28,72.0,0,0,1,0,0,0,-3.0,0.0,-1001.0
1777594545.5327091,19.364111185073853,,,,,0,252273.0,28,72.0,0,0,1,0,0,0,-1.0,0.0,-1000.0
1777594545.5835881,19.414990186691284,,,,,0,252273.0,28,72.0,0,0,1,0,0,0,-1.0,0.0,-1000.0
1777594545.63283,19.464231967926025,,,,,0,252269.0,28,72.0,0,0,1,0,0,0,-3.0,1.0,-1003.0
1777594545.683747,19.515149116516113,,,,,0,252269.0,28,72.0,0,0,1,0,0,0,-3.0,1.0,-1003.0
1777594545.733705,19.565107107162476,,,,,0,252273.0,28,72.0,0,0,1,0,0,0,-2.0,0.0,-1000.0
1777594545.7834089,19.614810943603516,,,,,0,252273.0,28,72.0,0,0,1,0,0,0,-2.0,0.0,-1000.0
1777594545.8336,19.66500210762024,,,,,0,252265.0,28,72.0,0,0,1,0,0,0,-2.0,0.0,-999.0
1777594545.883212,19.714614152908325,,,,,0,252265.0,28,72.0,0,0,1,0,0,0,-2.0,0.0,-999.0
1777594545.933015,19.76441717147827,,,,,0,252275.0,28,72.0,0,0,1,0,0,0,-2.0,0.0,-1002.0
1777594545.9826958,19.81409788131714,,,,,0,252275.0,28,72.0,0,0,1,0,0,0,-2.0,0.0,-1002.0
1777594546.032971,19.864372968673706,,,,,0,252275.0,28,72.0,0,0,1,0,0,0,-2.0,0.0,-1002.0
1777594546.082668,19.91407012939453,,,,,0,252266.0,28,72.0,0,0,1,0,0,0,-3.0,0.0,-1000.0
1777594546.132444,19.96384596824646,,,,,0,252266.0,28,72.0,0,0,1,0,0,0,-3.0,0.0,-1000.0
1777594546.182529,20.013931035995483,,,,,0,252267.99999999997,28,72.0,0,0,1,0,0,0,-2.0,-1.0,-1000.0
1777594546.232428,20.063830137252808,,,,,0,252271.0,28,72.0,0,0,1,0,0,0,-2.0,0.0,-1001.0
1777594546.281664,20.11306595802307,,,,,0,252271.0,28,72.0,0,0,1,0,0,0,-2.0,0.0,-1001.0
1777594546.3308852,20.16228723526001,,,,,0,252266.0,27,72.0,0,0,1,0,0,0,-4.0,1.0,-1001.0
1777594546.381235,20.212636947631836,,,,,0,252266.0,27,72.0,0,0,1,0,0,0,-4.0,1.0,-1001.0
1777594546.432127,20.263529062271118,,,,,0,252271.99999999997,27,72.0,0,0,1,0,0,0,-3.0,0.0,-1002.0
1777594546.4826748,20.314076900482178,,,,,0,252271.99999999997,27,72.0,0,0,1,0,0,0,-3.0,0.0,-1002.0
1777594546.5336452,20.365047216415405,,,,,0,252269.0,27,72.0,0,0,1,0,0,0,-4.0,1.0,-999.0
1777594546.576899,20.40830111503601,,,,,0,252269.0,27,72.0,0,0,1,0,0,0,-4.0,1.0,-999.0
1777594546.626234,20.45763611793518,,,,,0,252269.0,27,72.0,0,0,1,0,0,0,-4.0,1.0,-999.0
1777594546.6757681,20.5071702003479,,,,,0,252266.0,27,73.0,0,0,1,0,0,0,-3.0,1.0,-1000.0
1777594546.724885,20.556287050247192,,,,,0,252266.0,27,73.0,0,0,1,0,0,0,-3.0,0.0,-1001.0
1777594546.775077,20.606479167938232,,,,,0,252266.0,27,73.0,0,0,1,0,0,0,-3.0,0.0,-1001.0
1777594546.8245702,20.655972242355347,,,,,0,252267.0,27,73.0,0,0,1,0,0,0,-2.0,0.0,-1001.0
1777594546.874893,20.706295013427734,,,,,0,252267.0,27,73.0,0,0,1,0,0,0,-2.0,0.0,-1001.0
1777594546.924405,20.755807161331177,,,,,0,252269.99999999997,27,73.0,0,0,1,0,0,0,-2.0,0.0,-1001.0
1777594546.974328,20.80573010444641,,,,,0,252269.99999999997,27,73.0,0,0,1,0,0,0,-2.0,0.0,-1001.0
1777594547.022581,20.853983163833618,,,,,0,252271.0,27,73.0,0,0,1,0,0,0,-2.0,0.0,-1001.0
1777594547.071787,20.903189182281494,,,,,0,252271.0,27,73.0,0,0,1,0,0,0,-2.0,0.0,-1001.0
1777594547.120959,20.95236110687256,,,,,0,252271.0,27,73.0,0,0,1,0,0,0,-3.0,0.0,-1003.0
1777594547.169943,21.00134515762329,,,,,0,252271.0,27,73.0,0,0,1,0,0,0,-3.0,0.0,-1003.0
1777594547.2193222,21.050724267959595,,,,,0,252269.0,27,73.0,0,0,1,0,0,0,-3.0,0.0,-1002.0
1777594547.2689228,21.100324869155884,,,,,0,252269.0,27,73.0,0,0,1,0,0,0,-3.0,0.0,-1002.0
1777594547.31859,21.149991989135742,,,,,0,252265.0,27,73.0,0,0,1,0,0,0,-2.0,1.0,-1002.0
1777594547.367021,21.198423147201538,,,,,0,252265.0,27,73.0,0,0,1,0,0,0,-2.0,1.0,-1002.0
1777594547.417717,21.24911904335022,,,,,0,252273.99999999997,27,73.0,0,0,1,0,0,0,-2.0,-1.0,-998.0
1777594547.467339,21.298741102218628,,,,,0,252273.99999999997,27,73.0,0,0,1,0,0,0,-2.0,-1.0,-998.0
1777594547.5165498,21.347951889038086,,,,,0,252269.99999999997,27,73.0,0,0,1,0,0,0,-2.0,0.0,-1001.0
1777594547.566545,21.397947072982788,,,,,0,252269.99999999997,27,73.0,0,0,1,0,0,0,-2.0,0.0,-1001.0
1777594547.617575,21.44897699356079,,,,,0,252271.0,27,72.5,0,0,1,0,0,0,-3.0,-1.0,-1001.0
1777594547.667351,21.4987530708313,,,,,0,252271.0,27,72.5,0,0,1,0,0,0,-3.0,-1.0,-1001.0
1777594547.7176661,21.549068212509155,,,,,0,252262.0,27,72.5,0,0,1,0,0,0,-3.0,0.0,-1000.0
1777594547.766856,21.598258018493652,,,,,0,252262.0,27,72.5,0,0,1,0,0,0,-3.0,0.0,-1000.0
1777594547.817052,21.648453950881958,,,,,0,252262.0,27,72.5,0,0,1,0,0,0,-3.0,0.0,-1000.0
1777594547.866551,21.69795298576355,,,,,0,252265.0,27,72.5,0,0,1,0,0,0,-2.0,0.0,-996.0
1777594547.9169059,21.748307943344116,,,,,0,252265.0,27,72.5,0,0,1,0,0,0,-2.0,0.0,-996.0
1777594547.9666932,21.798095226287842,,,,,0,252263.0,27,72.5,0,0,1,0,0,0,-1.0,0.0,-997.0
1777594548.0162508,21.847652912139893,,,,,0,252263.0,27,72.5,0,0,1,0,0,0,-1.0,0.0,-997.0
1777594548.066211,21.897613048553467,,,,,0,252273.0,27,72.5,0,0,1,0,0,0,-2.0,0.0,-1000.0
1777594548.116256,21.9476580619812,,,,,0,252273.0,27,72.5,0,0,1,0,0,0,-2.0,0.0,-1000.0
1777594548.165596,21.996998071670532,,,,,0,252267.99999999997,27,72.5,0,0,1,0,0,0,-4.0,0.0,-1002.0
1777594548.215598,22.04700016975403,,,,,0,252267.99999999997,27,72.5,0,0,1,0,0,0,-4.0,0.0,-1002.0
1777594548.264226,22.095628023147583,,,,,0,252269.0,27,72.5,0,0,1,0,0,0,-3.0,0.0,-1004.0
1777594548.3133209,22.144722938537598,,,,,0,252269.0,27,72.5,0,0,1,0,0,0,-3.0,0.0,-1004.0
1777594548.3633049,22.194706916809082,,,,,0,252262.0,26,72.5,0,0,1,0,0,0,-4.0,-1.0,-1001.0
1777594548.413955,22.245357036590576,,,,,0,252262.0,26,72.5,0,0,1,0,0,0,-4.0,-1.0,-1001.0
