timestamp,phase,command,axis,repeat,t_send,t_since_cmd,marker_id,n_markers,pos_x,pos_y,pos_z,marker_dist,tello_height_cm,tello_baro_cm,tello_battery,tello_temp_c,tello_pitch,tello_roll,tello_yaw,tello_vgx,tello_vgy,tello_vgz,tello_agx,tello_agy,tello_agz
1777585378.96084,init_hover,none,-,0,,,0,5,-0.3396819695542267,1.3881864537525392,3.252614766528528,3.5944426717960525,130,255001.00000000003,66,71.0,0,0,-85,0,0,-1,1.0,16.0,-1024.0
1777585379.156248,init_hover,none,-,0,,,0,5,-0.29766830735612837,1.3861242678532355,3.2599949915826874,3.5979457648419952,130,255001.00000000003,66,70.5,0,0,-85,0,0,0,11.0,33.0,-957.0
1777585379.207256,init_hover,none,-,0,,,0,5,-0.33961222493337206,1.3974475893555471,3.2489147982833186,3.5920273033343535,130,255001.00000000003,66,70.5,0,0,-85,0,0,0,13.0,19.0,-989.0
1777585379.2583601,init_hover,none,-,0,,,0,5,-0.34059419656920426,1.3932451620434458,3.2442331305151813,3.588997647502766,130,255001.00000000003,66,70.5,0,0,-85,0,0,0,13.0,19.0,-989.0
1777585379.3078558,init_hover,none,-,0,,,0,5,-0.2958847502001772,1.3978517775918535,3.2466811537300737,3.5927606619493195,130,254996.0,66,70.5,0,-1,-85,0,0,0,9.0,6.0,-967.0
1777585379.358387,init_hover,none,-,0,,,0,5,-0.15628756103096045,1.491044676305064,3.243970272071333,3.591082530112672,130,254996.0,66,70.5,0,-1,-85,0,0,0,9.0,6.0,-967.0
1777585379.40898,init_hover,none,-,0,,,0,5,-0.32458730938389047,1.4296810542059262,3.2396669471987467,3.5898219294754043,130,255000.0,66,70.5,0,-1,-85,0,0,0,13.0,-2.0,-1007.0
1777585379.4707682,init_hover,none,-,0,,,0,5,-0.2818122145063721,1.3975815692885163,3.2590783278481954,3.5951586697191544,130,255000.0,66,70.5,0,-1,-85,0,0,0,13.0,-2.0,-1007.0
1777585379.522762,init_hover,none,-,0,,,0,5,-0.32889597441585966,1.3961416195027325,3.256215714343922,3.597090019417684,130,254994.0,66,70.5,0,0,-85,0,0,0,9.0,14.0,-1028.0
1777585379.573337,init_hover,none,-,0,,,0,5,-0.3253410037549182,1.398873115077059,3.2510795607173026,3.59289581099017,130,254994.0,66,70.5,0,0,-85,0,0,0,9.0,14.0,-1028.0
1777585379.624512,init_hover,none,-,0,,,0,5,-0.3048410467436024,1.4071583234013878,3.2571345580025497,3.5957904599958157,130,254992.0,66,70.5,0,0,-85,0,0,0,15.0,-3.0,-949.0
1777585379.6756501,init_hover,none,-,0,,,0,5,-0.31368287348509155,1.3829851016848131,3.2618694575106697,3.596752621663042,130,254992.0,66,70.5,0,0,-85,0,0,0,15.0,-3.0,-949.0
1777585379.725763,init_hover,none,-,0,,,0,5,-0.32644492512451634,1.4048661555583108,3.233600399196047,3.584472788330804,130,255000.0,66,70.5,0,0,-85,0,0,0,23.0,3.0,-983.0
1777585379.775931,init_hover,none,-,0,,,0,5,-0.28586025239032964,1.4260333737649207,3.251566291483954,3.5904697733936812,130,255004.0,66,70.5,0,0,-85,0,0,0,8.0,22.0,-1000.0
1777585379.826439,init_hover,none,-,0,,,0,5,-0.320749982338989,1.4054491790438437,3.2419076785870766,3.5855848425732817,130,255004.0,66,70.5,0,0,-85,0,0,0,8.0,22.0,-1000.0
1777585379.878093,init_hover,none,-,0,,,0,5,-0.3276628603914517,1.4021133548752618,3.234718871658858,3.5872528260370813,130,254998.99999999997,66,70.5,0,0,-85,0,0,0,-2.0,16.0,-964.0
1777585379.929004,init_hover,none,-,0,,,0,5,-0.3434001339775016,1.433954357251203,3.2206546388424826,3.5741672811064076,130,254998.99999999997,66,70.5,0,0,-85,0,0,0,-2.0,16.0,-964.0
1777585379.979558,init_hover,none,-,0,,,0,5,-0.29593694977689705,1.4272522342115934,3.237289326144105,3.581133412261644,130,254998.99999999997,66,70.5,0,0,-85,0,0,0,-2.0,16.0,-964.0
1777585380.030167,init_hover,none,-,0,,,0,5,-0.2799550200380189,1.4288351075378456,3.2541544239504474,3.589717342730354,130,255003.00000000003,66,70.5,0,0,-85,0,0,0,-11.0,12.0,-1049.0
1777585380.08017,init_hover,none,-,0,,,0,5,-0.2799550200380189,1.4288351075378456,3.2541544239504474,3.589717342730354,130,255003.00000000003,66,70.5,0,0,-85,0,0,0,-11.0,12.0,-1049.0
1777585380.1308138,init_hover,none,-,0,,,0,5,-0.3086554768866027,1.3948171785287808,3.2412540089205617,3.5821784769325355,130,255011.0,66,70.5,0,0,-85,0,0,0,18.0,7.0,-1015.0
1777585380.181304,init_hover,none,-,0,,,0,5,-0.32548311313902634,1.396351650100471,3.2282900898796414,3.5741720549524154,130,255011.0,66,70.5,0,0,-85,0,0,0,18.0,7.0,-1015.0
1777585380.230114,init_hover,none,-,0,,,0,5,-0.2840756983988097,1.3876663428039666,3.226579579358836,3.5761421231306785,130,255003.00000000003,66,70.5,0,0,-85,0,0,0,22.0,-11.0,-1010.0
1777585380.2781289,init_hover,none,-,0,,,0,5,-0.32531387685192925,1.4416182273284601,3.2360679488186563,3.5841479540578547,130,255001.00000000003,66,70.5,0,0,-85,0,0,0,22.0,-6.0,-972.0
1777585380.325386,init_hover,none,-,0,,,0,5,-0.35953111663838433,1.4051469627226423,3.224318977168994,3.5756478175631763,130,255001.00000000003,66,70.5,0,0,-85,0,0,0,22.0,-6.0,-972.0
1777585380.3719811,init_hover,none,-,0,,,0,5,-0.31995450660607583,1.4014474724856563,3.229238915369944,3.576124490694544,130,255004.0,66,70.5,0,0,-85,0,0,0,-14.0,10.0,-999.0
1777585380.419639,init_hover,none,-,0,,,0,5,-0.31905020231416903,1.3930257986283148,3.217701400553549,3.5724625954513742,130,255004.0,66,70.5,0,0,-85,0,0,0,-14.0,10.0,-999.0
1777585380.4678662,init_hover,none,-,0,,,0,5,-0.3086705301554535,1.4005310033568628,3.231947304061511,3.574455372017863,130,255004.0,66,70.5,0,0,-85,0,0,0,-14.0,10.0,-999.0
1777585380.5154188,init_hover,none,-,0,,,0,5,-0.2983857988263629,1.4144618526054473,3.2303998135362564,3.572341591885899,130,255005.00000000003,66,70.5,0,0,-85,0,0,0,1.0,6.0,-1025.0
1777585380.56432,init_hover,none,-,0,,,0,5,-0.3507188549577914,1.4166362519857194,3.2177282554737663,3.5690547070679264,130,255005.00000000003,66,70.5,0,0,-85,0,0,0,1.0,6.0,-1025.0
1777585380.613149,init_hover,none,-,0,,,0,5,-0.3610980320524276,1.383427211905266,3.227883859893834,3.572506997626762,130,255012.0,66,70.5,0,0,-85,0,0,0,16.0,1.0,-993.0
1777585380.663083,init_hover,none,-,0,,,0,5,-0.356518083765466,1.4022637158567626,3.2154030230543196,3.5694720797760433,130,255012.0,66,70.5,0,0,-85,0,0,0,16.0,1.0,-993.0
1777585380.714085,init_hover,none,-,0,,,0,5,-0.36461481656398537,1.3999778321106515,3.203167890884774,3.565969121698104,130,255003.00000000003,66,70.5,0,0,-85,0,0,0,7.0,5.0,-989.0
1777585380.7651641,init_hover,none,-,0,,,0,5,-0.3554561271962511,1.4131517708557848,3.2138579012956674,3.5673077397893467,130,255003.00000000003,66,70.5,0,0,-85,0,0,0,7.0,5.0,-989.0
1777585380.816373,init_hover,none,-,0,,,0,5,-0.32569089441970644,1.3979657022199303,3.2265810194804065,3.573975561691347,130,255001.00000000003,66,70.5,0,0,-85,0,0,0,11.0,11.0,-966.0
1777585380.868463,init_hover,none,-,0,,,0,5,-0.32346420501382606,1.4072718975706793,3.2179454197544426,3.5693368953437754,130,255001.00000000003,66,70.5,0,0,-85,0,0,0,11.0,11.0,-966.0
1777585380.91971,init_hover,none,-,0,,,0,5,-0.31118597423079525,1.3981102662272913,3.222933436456957,3.569160209770095,130,255005.00000000003,66,70.5,0,-1,-85,0,0,0,13.0,-11.0,-1025.0
1777585380.971544,init_hover,none,-,0,,,0,5,-0.34164111343620235,1.4390240849463565,3.2121112512371304,3.5655318931351836,130,255005.00000000003,66,70.5,0,-1,-85,0,0,0,13.0,-11.0,-1025.0
1777585381.022485,init_hover,none,-,0,,,0,5,-0.36167245113126995,1.4402531722115604,3.206274356104675,3.568481481604895,130,255001.00000000003,66,70.5,0,0,-85,0,0,0,-7.0,5.0,-991.0
1777585381.0738041,init_hover,none,-,0,,,0,5,-0.17939493948212515,1.4519879055205058,3.2113121889829035,3.564598768903031,130,255001.00000000003,66,70.5,0,0,-85,0,0,0,-7.0,5.0,-991.0
1777585381.124982,init_hover,none,-,0,,,0,5,-0.3476919130168525,1.4063925738201104,3.2093803492050137,3.564307055869894,130,255011.0,66,70.5,0,0,-85,0,0,0,-5.0,14.0,-1009.0
1777585381.175681,init_hover,none,-,0,,,0,5,-0.35381351773087205,1.3961295320480387,3.214849482657265,3.5668532532614776,130,255011.0,66,70.5,0,0,-85,0,0,0,-5.0,14.0,-1009.0
1777585381.2257862,init_hover,none,-,0,,,0,5,-0.3206629217351617,1.4311020358354722,3.2099690919122312,3.5697336843433023,130,254994.99999999997,66,70.5,0,0,-85,0,0,0,-5.0,28.0,-996.0
1777585381.27685,init_hover,none,-,0,,,0,5,-0.3208884864578688,1.4089343158423742,3.2188475860371173,3.5674486921800925,130,254994.99999999997,66,70.5,0,0,-85,0,0,0,-5.0,28.0,-996.0
1777585381.326985,init_hover,none,-,0,,,0,5,-0.33740922432579795,1.4277452608150667,3.203818841526517,3.5630567396458313,130,255001.00000000003,66,70.5,0,0,-85,0,0,0,0.0,11.0,-1002.0
1777585381.377334,init_hover,none,-,0,,,0,5,-0.3032928524239806,1.4414984907144672,3.21487992718669,3.565736957052285,130,255001.00000000003,66,70.5,0,0,-85,0,0,0,0.0,11.0,-1002.0
1777585381.428194,init_hover,none,-,0,,,0,5,-0.33159691068376845,1.413336079113158,3.2161204331472164,3.571163948657712,130,255002.0,66,70.5,0,0,-85,0,0,0,15.0,3.0,-972.0
1777585381.4785228,init_hover,none,-,0,,,0,5,-0.31660460901859305,1.4258481002779797,3.2106749372276764,3.5688590852648554,130,255002.0,66,70.5,0,0,-85,0,0,0,15.0,3.0,-972.0
1777585381.52995,init_hover,none,-,0,,,0,5,-0.35170226252320214,1.409629546732618,3.2055843670730613,3.5646450216732135,130,254998.99999999997,66,70.5,0,0,-85,0,0,0,-4.0,15.0,-992.0
1777585381.580361,init_hover,none,-,0,,,0,5,-0.3363424843633614,1.4043134658983452,3.2119925483669567,3.567042068371785,130,254998.99999999997,66,70.5,0,0,-85,0,0,0,-4.0,15.0,-992.0
1777585381.631097,init_hover,none,-,0,,,0,5,-0.3662698294685213,1.4067892025882296,3.195237809808737,3.5597674423547305,130,255011.0,66,70.5,0,0,-85,0,0,0,-4.0,22.0,-1016.0
1777585381.6813161,init_hover,none,-,0,,,0,5,-0.35216865206889214,1.4068808722025004,3.1997844463973264,3.562735631600885,130,255011.0,66,70.5,0,0,-85,0,0,0,-4.0,22.0,-1016.0
1777585381.732548,init_hover,none,-,0,,,0,5,-0.3494828734302276,1.4153818644886609,3.1964836699555152,3.56005113773431,130,255005.00000000003,66,70.5,0,0,-85,0,0,0,18.0,15.0,-993.0
1777585381.783682,init_hover,none,-,0,,,0,5,-0.38153654867664355,1.4125383190341432,3.1926420251561276,3.555921557177517,130,255005.00000000003,66,70.5,0,0,-85,0,0,0,18.0,15.0,-993.0
1777585381.835086,init_hover,none,-,0,,,0,5,-0.33581529122730724,1.4090507484158692,3.2067160706599114,3.566176363639662,130,254996.0,66,70.5,0,0,-85,0,0,0,8.0,0.0,-993.0
1777585381.886482,init_hover,none,-,0,,,0,5,-0.35874998653820644,1.4355012655603006,3.2039107670420344,3.564651010896174,130,254996.0,66,70.5,0,0,-85,0,0,0,8.0,0.0,-993.0
1777585381.938529,init_hover,none,-,0,,,0,5,-0.28024306616709704,1.3905467010447945,3.2273075310575763,3.5686950824811996,130,255005.00000000003,66,70.5,0,0,-85,0,0,0,13.0,4.0,-977.0
1777585381.98955,init_hover,none,-,0,,,0,5,-0.3023740532827303,1.4213736772115613,3.2273881321378757,3.5712010530636307,130,255005.00000000003,66,70.5,0,0,-85,0,0,0,13.0,4.0,-977.0
1777585382.040271,init_hover,none,-,0,,,0,5,-0.2855839733213948,1.4512090966658904,3.212043684979677,3.5664673924978585,130,255004.0,66,70.5,0,0,-85,0,0,0,11.0,14.0,-992.0
1777585382.090382,init_hover,none,-,0,,,0,5,-0.3540899819042647,1.4092114703516456,3.1956190879210085,3.55807104290528,130,255004.0,66,70.5,0,0,-85,0,0,0,11.0,14.0,-992.0
1777585382.140816,init_hover,none,-,0,,,0,5,-0.31640714625430677,1.4091126214757383,3.2170045003843506,3.5621822432592523,130,255015.0,66,70.5,0,0,-85,0,0,0,12.0,13.0,-1014.0
1777585382.190551,init_hover,none,-,0,,,0,5,-0.34904237416036665,1.4326761923743714,3.205226849335802,3.5637315760153983,130,255015.0,66,70.5,0,0,-85,0,0,0,12.0,13.0,-1014.0
1777585382.239748,init_hover,none,-,0,,,0,5,-0.29051485200853994,1.443665943056206,3.2128490352841603,3.5642875577157973,130,254998.99999999997,66,70.5,0,0,-85,0,0,0,-11.0,10.0,-1000.0
1777585382.287584,init_hover,none,-,0,,,0,5,-0.35329182541218146,1.4170311683048307,3.201916743296619,3.5586626088133797,130,254998.99999999997,66,70.5,0,0,-85,0,0,0,-11.0,10.0,-1000.0
1777585382.335005,init_hover,none,-,0,,,0,5,-0.34190777487842255,1.453042006331478,3.193007585506169,3.5580756701218212,130,255003.00000000003,66,70.5,0,0,-85,0,0,0,7.0,7.0,-989.0
1777585382.382281,init_hover,none,-,0,,,0,5,-0.3489907922315041,1.4079085615158324,3.197320004899635,3.559636054530574,130,255003.00000000003,66,70.5,0,0,-85,0,0,0,7.0,7.0,-989.0
1777585382.4330099,init_hover,none,-,0,,,0,5,-0.3372731445255021,1.4096851059302866,3.2021107360780645,3.5600029682541914,130,255002.0,66,70.5,0,0,-85,0,0,0,9.0,0.0,-990.0
1777585382.482513,init_hover,none,-,0,,,0,5,-0.3575171230591084,1.4244295116001362,3.1940737507036743,3.5559595231378864,130,255002.0,66,70.5,0,0,-85,0,0,0,9.0,0.0,-990.0
1777585382.532564,init_hover,none,-,0,,,0,5,-0.3024882306534056,1.4367495315288257,3.2005168099584287,3.555452418259675,130,255005.00000000003,66,70.5,0,0,-85,0,0,0,9.0,5.0,-1017.0
1777585382.580828,init_hover,none,-,0,,,0,5,-0.34874484818020157,1.4269566398573803,3.204365312874496,3.5605051198669386,130,255005.00000000003,66,70.5,0,0,-85,0,0,0,9.0,5.0,-1017.0
1777585382.630122,init_hover,none,-,0,,,0,5,-0.334209938588324,1.4225160833913573,3.202103666499832,3.558883803412263,130,255005.00000000003,66,70.5,0,0,-85,0,0,0,0.0,10.0,-999.0
1777585382.679913,init_hover,none,-,0,,,0,5,-0.3106714641833575,1.4454009175733773,3.1999273681520872,3.55950526499893,130,255005.00000000003,66,70.5,0,0,-85,0,0,0,0.0,10.0,-999.0
1777585382.731678,init_hover,none,-,0,,,0,5,-0.3320890575323775,1.4360191200370844,3.2087766522452608,3.5644544180653908,130,255005.00000000003,66,70.5,0,0,-85,0,0,0,-6.0,19.0,-986.0
1777585382.782799,init_hover,none,-,0,,,0,5,-0.3489884400544608,1.4133936664223294,3.207498491193863,3.5594433868792636,130,255005.00000000003,66,70.5,0,0,-85,0,0,0,-6.0,19.0,-986.0
1777585382.835318,init_hover,none,-,0,,,0,5,-0.32826331225957167,1.449029530333329,3.2054949019194376,3.563219467963168,130,255004.0,66,70.5,0,0,-85,0,0,0,7.0,14.0,-1027.0
1777585382.8862998,init_hover,none,-,0,,,0,5,-0.32882647167032186,1.4240116789869117,3.2198413104491714,3.5679992857082867,130,255004.0,66,70.5,0,0,-85,0,0,0,7.0,14.0,-1027.0
1777585382.937918,init_hover,none,-,0,,,0,5,-0.3192991541292692,1.4141086922566208,3.207214931407682,3.5586848656028196,130,255012.0,66,70.5,0,0,-85,0,0,0,6.0,-9.0,-983.0
1777585382.988888,init_hover,none,-,0,,,0,5,-0.3568230727713423,1.4218218723423932,3.196794846808169,3.5606420300277764,130,255012.0,66,70.5,0,0,-85,0,0,0,6.0,-9.0,-983.0
1777585383.039416,init_hover,none,-,0,,,0,5,-0.28929766590207806,1.412706384820042,3.224338906300833,3.566557261679089,130,254998.0,66,71.0,0,0,-85,0,0,0,-8.0,29.0,-1018.0
1777585383.0900302,init_hover,none,-,0,,,0,5,-0.34333085925602236,1.414657671839811,3.1898452839250133,3.55044937825106,130,254998.0,66,71.0,0,0,-85,0,0,0,-8.0,29.0,-1018.0
1777585383.139394,init_hover,none,-,0,,,0,5,-0.34237692200527997,1.4109069050902177,3.1967816896817727,3.5555523773493976,130,255000.0,66,71.0,0,0,-85,0,0,0,29.0,-17.0,-996.0
1777585383.1898959,init_hover,none,-,0,,,0,5,-0.3462689823294169,1.4170229877580143,3.1942371901054916,3.5559127574128637,130,255000.0,66,71.0,0,0,-85,0,0,0,29.0,-17.0,-996.0
1777585383.239713,init_hover,none,-,0,,,0,5,-0.3395806922351476,1.379603640214801,3.193057596757384,3.5527802158943493,130,255004.0,66,71.0,0,0,-85,0,0,0,4.0,22.0,-966.0
1777585383.2903318,init_hover,none,-,0,,,0,5,-0.3230610277235677,1.395955655324395,3.211264098616213,3.558271969060101,130,255004.0,66,71.0,0,0,-85,0,0,0,4.0,22.0,-966.0
1777585383.3402822,init_hover,none,-,0,,,0,5,-0.26629615503049464,1.405448491515818,3.213855084122717,3.564348420711139,130,255005.00000000003,66,71.0,0,0,-85,0,0,0,2.0,10.0,-1004.0
1777585383.390539,init_hover,none,-,0,,,0,5,-0.3344429200574733,1.4040533125511239,3.21377803366951,3.562423869267673,130,255005.00000000003,66,71.0,0,0,-85,0,0,0,2.0,10.0,-1004.0
1777585383.4409049,init_hover,none,-,0,,,0,5,-0.3557649179198805,1.4193521223102858,3.2028149739500194,3.5583857563025645,130,255014.0,66,71.0,0,0,-85,0,0,0,-23.0,27.0,-1009.0
1777585383.490556,init_hover,none,-,0,,,0,5,-0.2899363112933915,1.4386341235473499,3.2185628125350934,3.566344528499266,130,255014.0,66,71.0,0,0,-85,0,0,0,-23.0,27.0,-1009.0
1777585383.540668,init_hover,none,-,0,,,0,5,-0.28761896258390013,1.3915351603569632,3.2157347816222384,3.563405255199185,130,255001.00000000003,66,71.0,0,0,-85,0,0,0,5.0,26.0,-997.0
1777585383.590872,init_hover,none,-,0,,,0,5,-0.3340382794903832,1.389509641103665,3.213767493971404,3.561418038109507,130,255001.00000000003,66,71.0,0,0,-85,0,0,0,5.0,26.0,-997.0
1777585383.640627,init_hover,none,-,0,,,0,5,-0.3310373636017972,1.413061924542236,3.2083932400495243,3.5611971657864396,130,254994.0,66,71.0,0,0,-85,0,0,0,0.0,-1.0,-1024.0
1777585383.691744,init_hover,none,-,0,,,0,5,-0.27819917329762944,1.3799065904957186,3.2178810582822353,3.5637396805368367,130,254994.0,66,71.0,0,0,-85,0,0,0,0.0,-1.0,-1024.0
1777585383.74184,init_hover,none,-,0,,,0,5,-0.31206652288695974,1.4473714728423268,3.2031124165231897,3.558579108070949,130,254994.0,66,71.0,0,0,-85,0,0,0,-16.0,17.0,-998.0
1777585383.793183,init_hover,none,-,0,,,0,5,-0.34280500603352826,1.3955280320824706,3.209352458587769,3.559673542839618,130,254994.0,66,71.0,0,0,-85,0,0,0,-16.0,17.0,-998.0
1777585383.843866,init_hover,none,-,0,,,0,5,-0.3250705025258426,1.4202666165039524,3.200155097180461,3.555846958577633,130,254998.0,66,71.0,0,0,-85,0,0,0,2.0,13.0,-977.0
1777585383.89435,init_hover,none,-,0,,,0,5,-0.3183629420711142,1.4112082147168965,3.1902671110504675,3.5554283189115714,130,254998.0,66,71.0,0,0,-85,0,0,0,2.0,13.0,-977.0
1777585383.945041,init_hover,none,-,0,,,0,5,-0.31285186114207797,1.4211549398623806,3.2055206789218658,3.559856031458504,130,254996.0,66,71.0,0,0,-85,0,0,0,15.0,6.0,-969.0
1777585384.015748,recenter,right,-,1,,,0,,-0.3290430544198558,1.4122051188169336,3.2036515657533995,3.557872179250579,130,254996.0,66,71.0,0,0,-85,0,0,0,15.0,6.0,-969.0
1777585384.066525,recenter,right,-,1,,,0,,-0.32360758043373095,1.4464444662910316,3.2124880341114874,3.5597830421645114,130,254994.0,66,70.5,0,0,-85,0,0,0,14.0,15.0,-947.0
1777585384.11583,recenter,right,-,1,,,0,,-0.3187508805326753,1.4430085389997436,3.2181699745098524,3.5648757176656956,130,254994.0,66,70.5,0,0,-85,0,0,0,14.0,15.0,-947.0
1777585384.1665971,recenter,right,-,1,,,0,,-0.3239817820153499,1.4551094227530328,3.2120342343509822,3.5638679153465596,130,255003.00000000003,66,70.5,0,0,-85,0,0,0,10.0,3.0,-1003.0
1777585384.215565,recenter,right,-,1,,,0,,-0.30284108536319126,1.4352921115416903,3.213584116272914,3.561343324581528,130,255003.00000000003,66,70.5,0,0,-85,0,0,0,10.0,3.0,-1003.0
1777585384.2640011,recenter,right,-,1,,,0,,-0.32161862998109186,1.4340655673890113,3.201028720691539,3.557716610498962,130,255014.0,66,70.5,0,0,-85,0,0,0,7.0,16.0,-1035.0
1777585384.311029,recenter,right,-,1,,,0,,-0.35163287508490576,1.4034195018745783,3.1895458146948523,3.5532315733024165,130,255007.00000000003,66,70.5,0,0,-85,0,0,0,9.0,25.0,-988.0
1777585384.3604128,recenter,right,-,1,,,0,,-0.33055071703609756,1.4035996416024363,3.2084655008020597,3.5580154023049837,130,255007.00000000003,66,70.5,0,0,-85,0,0,0,9.0,25.0,-988.0
1777585384.4096022,recenter,right,-,1,,,0,,-0.3115335768346665,1.441848557016634,3.2058471796602785,3.560280797057435,130,255008.0,66,70.5,0,0,-85,0,0,0,0.0,0.0,-995.0
1777585384.459766,recenter,right,-,1,,,0,,-0.3117189803116074,1.4260462084451802,3.2157678047789426,3.5625006212054204,130,255008.0,66,70.5,0,0,-85,0,0,0,0.0,0.0,-995.0
1777585384.507722,recenter,right,-,1,,,0,,-0.33616541236629116,1.4062474870939226,3.2042212305791073,3.5567985430860802,130,255000.0,66,70.5,0,0,-85,0,0,0,0.0,16.0,-1033.0
1777585384.5079522,pre_hover,right,x,1,,,0,5,-0.33616541236629116,1.4062474870939226,3.2042212305791073,3.5567985430860802,130,255000.0,66,70.5,0,0,-85,0,0,0,0.0,16.0,-1033.0
1777585384.554386,pre_hover,right,x,1,,,0,5,-0.2914156922345562,1.4344954220586361,3.2182117695748285,3.563292865666827,130,255000.0,66,70.5,0,0,-85,0,0,0,0.0,16.0,-1033.0
1777585384.6020439,pre_hover,right,x,1,,,0,5,-0.33644610763728466,1.4484890439629492,3.193601958365338,3.55362036174231,130,255009.0,66,70.5,0,0,-85,0,0,0,14.0,-24.0,-972.0
1777585384.650826,pre_hover,right,x,1,,,0,5,-0.2812072714527325,1.4576237305248039,3.213994130661741,3.564648408038636,130,255009.0,66,70.5,0,0,-85,0,0,0,14.0,-24.0,-972.0
1777585384.702595,pre_hover,right,x,1,,,0,5,-0.19780491090729557,1.5083354222151168,3.207524928162865,3.560680151925316,130,255007.00000000003,66,70.5,0,0,-85,0,0,0,4.0,9.0,-968.0
1777585384.753452,pre_hover,right,x,1,,,0,5,-0.31353030395732995,1.3900632942181952,3.206756863873,3.5577391707757813,130,255007.00000000003,66,70.5,0,0,-85,0,0,0,4.0,9.0,-968.0
1777585384.8044071,pre_hover,right,x,1,,,0,5,-0.30958094164308414,1.3950086314320944,3.208335850153162,3.556434763545842,130,255005.00000000003,66,70.5,0,0,-85,0,0,0,11.0,16.0,-1040.0
1777585384.856405,pre_hover,right,x,1,,,0,5,-0.3057969438288889,1.3811197331228546,3.2183763851645497,3.5628573737983777,130,255005.00000000003,66,70.5,0,0,-85,0,0,0,11.0,16.0,-1040.0
1777585384.908057,pre_hover,right,x,1,,,0,5,-0.29371474366930816,1.4520806335005285,3.206273969247476,3.558094958539944,130,255010.0,66,70.5,0,0,-85,0,0,0,-14.0,6.0,-990.0
1777585384.958862,pre_hover,right,x,1,,,0,5,-0.32708557876059335,1.4202242299117969,3.2251476028105017,3.5684805832102184,130,255010.0,66,70.5,0,0,-85,0,0,0,-14.0,6.0,-990.0
1777585385.0098581,pre_hover,right,x,1,,,0,5,-0.32161413120845445,1.4481443635649693,3.1947861704559815,3.557550108672956,130,255006.0,66,70.5,0,0,-85,0,0,0,-6.0,0.0,-1023.0
1777585385.0603352,pre_hover,right,x,1,,,0,5,-0.28355127621413734,1.427293567912303,3.2267902893363036,3.5659161162924597,130,255006.0,66,70.5,0,0,-85,0,0,0,-6.0,0.0,-1023.0
1777585385.111145,pre_hover,right,x,1,,,0,5,-0.31968003885238966,1.4135802143365208,3.2171614192019082,3.564086239972383,130,255005.00000000003,66,70.5,0,0,-85,0,0,0,15.0,0.0,-1006.0
1777585385.161542,pre_hover,right,x,1,,,0,5,-0.3339313081288426,1.4170808794911016,3.222397551042209,3.5660273418153805,130,255005.00000000003,66,70.5,0,0,-85,0,0,0,15.0,0.0,-1006.0
1777585385.212447,pre_hover,right,x,1,,,0,5,-0.31171565454084393,1.4067982897555722,3.2175792534268175,3.5608511314065865,130,255005.00000000003,66,70.5,0,0,-85,0,0,0,15.0,0.0,-1006.0
1777585385.264044,pre_hover,right,x,1,,,0,5,-0.33622709098187503,1.426369909994181,3.2165575278974905,3.5652412096154746,130,255004.0,66,70.5,0,0,-85,0,0,0,8.0,9.0,-1020.0
1777585385.314592,pre_hover,right,x,1,,,0,5,-0.3282010047782611,1.4264001362227836,3.22462013230517,3.568006154813679,130,255004.0,66,70.5,0,0,-85,0,0,0,8.0,9.0,-1020.0
1777585385.365682,pre_hover,right,x,1,,,0,5,-0.3101143323475803,1.4173743227857665,3.221888035677562,3.5652962261084715,130,255008.0,66,70.5,0,0,-85,0,0,0,15.0,10.0,-998.0
1777585385.4163141,pre_hover,right,x,1,,,0,5,-0.3227432536290059,1.419622913431499,3.205307467156669,3.556445639421247,130,255008.0,66,70.5,0,0,-85,0,0,0,15.0,10.0,-998.0
1777585385.467958,pre_hover,right,x,1,,,0,5,-0.2962013896315708,1.4314081436338446,3.218922137146715,3.5634464625185465,130,255004.0,66,70.5,0,0,-85,0,0,0,24.0,5.0,-974.0
1777585385.5191412,pre_hover,right,x,1,,,0,5,-0.31868262717891144,1.422418636089037,3.1981305581024504,3.5537759428080107,130,255010.0,66,70.5,0,0,-85,0,0,0,5.0,17.0,-981.0
1777585385.5704918,pre_hover,right,x,1,,,0,5,-0.29620564609791883,1.4467705697917443,3.2161588938923122,3.56250450754476,130,255010.0,66,70.5,0,0,-85,0,0,0,5.0,17.0,-981.0
1777585385.621891,pre_hover,right,x,1,,,0,5,-0.2809528126447294,1.3892674314017626,3.2314953792987793,3.5648503142294787,130,255005.00000000003,66,70.5,0,0,-85,0,0,0,20.0,0.0,-992.0
1777585385.6738088,pre_hover,right,x,1,,,0,5,-0.2986770938465407,1.4294412950782776,3.2230817451485856,3.566215584097874,130,255005.00000000003,66,70.5,0,0,-85,0,0,0,20.0,0.0,-992.0
1777585385.7239318,pre_hover,right,x,1,,,0,5,-0.29329199208196466,1.429804141243509,3.22706900536098,3.563320401430192,130,255005.00000000003,66,70.5,0,0,-85,0,0,0,20.0,0.0,-992.0
1777585385.774675,pre_hover,right,x,1,,,0,5,-0.2852539661953758,1.3855682467662556,3.2270165866238263,3.565953157712059,130,255002.0,66,70.5,0,0,-85,0,0,0,21.0,-4.0,-999.0
1777585385.8203719,pre_hover,right,x,1,,,0,5,-0.28533288462411033,1.4290860219127868,3.2221139583767253,3.5601402627384773,130,255002.0,66,70.5,0,0,-85,0,0,0,21.0,-4.0,-999.0
1777585385.869884,pre_hover,right,x,1,,,0,5,-0.2889641033400242,1.4014578076686095,3.2315763880416086,3.569362836712277,130,255013.0,66,70.5,0,0,-85,0,0,0,17.0,7.0,-984.0
1777585385.920884,pre_hover,right,x,1,,,0,5,-0.2267421082751306,1.365545425693448,3.226205223093162,3.5644620982701354,130,255013.0,66,70.5,0,0,-85,0,0,0,17.0,7.0,-984.0
1777585385.970855,pre_hover,right,x,1,,,0,5,-0.2910133952983636,1.3979294556281503,3.228875382130599,3.5659380780317975,130,255009.0,66,70.5,0,0,-85,0,0,0,6.0,15.0,-1021.0
1777585386.021285,pre_hover,right,x,1,,,0,5,-0.27255681160094103,1.4027085994978155,3.233332682712035,3.568287370786315,130,255009.0,66,70.5,0,0,-85,0,0,0,6.0,15.0,-1021.0
1777585386.071766,pre_hover,right,x,1,,,0,5,-0.27438074472626406,1.3622922435257698,3.2326151960441054,3.5690681829478033,130,255008.0,66,71.5,0,0,-85,0,0,0,0.0,3.0,-997.0
1777585386.121699,pre_hover,right,x,1,,,0,6,-0.26675030684083084,1.396802084000233,3.2397219818934095,3.6313356576059994,130,255008.0,66,71.5,0,0,-85,0,0,0,0.0,3.0,-997.0
1777585386.172241,pre_hover,right,x,1,,,0,6,-0.26890708313107786,1.4040145601554992,3.2354644374269235,3.6297206094544623,130,255009.0,66,71.5,0,0,-85,0,0,0,20.0,0.0,-985.0
1777585386.220855,pre_hover,right,x,1,,,0,6,-0.21721365939071893,1.4382745658084735,3.2423434453909605,3.6334109967808863,130,255009.0,66,71.5,0,0,-85,0,0,0,20.0,0.0,-985.0
1777585386.269094,pre_hover,right,x,1,,,0,6,-0.26010616238246276,1.4292526701718304,3.2390315278334927,3.630895800965114,130,255003.00000000003,66,71.5,0,0,-85,0,0,0,24.0,3.0,-991.0
1777585386.31649,pre_hover,right,x,1,,,0,6,-0.2635795839545768,1.4338488435649521,3.231800064118601,3.6293598346980773,130,255003.00000000003,66,71.5,0,0,-85,0,0,0,24.0,3.0,-991.0
1777585386.36495,pre_hover,right,x,1,,,0,6,-0.2532017874124009,1.4044251025712526,3.247516305956483,3.6342754269106816,130,255009.0,66,71.5,0,0,-85,0,0,0,6.0,15.0,-975.0
1777585386.4126909,pre_hover,right,x,1,,,0,6,-0.2946745200835108,1.4170800709530373,3.2376832288527124,3.6327971707932813,130,255009.0,66,71.5,0,0,-85,0,0,0,6.0,15.0,-975.0
1777585386.463912,pre_hover,right,x,1,,,0,6,-0.2854764881001222,1.3930606606949463,3.244205532072155,3.6367742940696957,130,255012.0,66,71.5,0,-2,-85,0,0,0,2.0,-3.0,-1022.0
1777585386.5129411,pre_hover,right,x,1,,,0,6,-0.24721057547129266,1.3986172453878378,3.2614330400091993,3.6405427367776313,130,255012.0,66,71.5,0,-2,-85,0,0,0,2.0,-3.0,-1022.0
1777585386.563078,pre_hover,right,x,1,,,0,6,-0.13492702006787974,1.449434890901946,3.262388275203949,3.6392224207757167,130,255000.0,66,71.5,0,-1,-85,0,0,0,13.0,21.0,-971.0
1777585386.612013,pre_hover,right,x,1,,,0,6,-0.24324784673504324,1.4085563650263244,3.237683277028653,3.6323378283533008,130,255000.0,66,71.5,0,-1,-85,0,0,0,13.0,21.0,-971.0
1777585386.661572,pre_hover,right,x,1,,,0,6,-0.26181092102452647,1.410464537156714,3.249614783242388,3.634407504323861,130,255004.0,66,71.5,0,-1,-85,0,0,0,-7.0,16.0,-1029.0
1777585386.7118132,pre_hover,right,x,1,,,0,6,-0.19749007102955127,1.3761609801004542,3.261962705103092,3.639280411202872,130,255004.0,66,71.5,0,-1,-85,0,0,0,-7.0,16.0,-1029.0
1777585386.763124,pre_hover,right,x,1,,,0,6,-0.2051572387726453,1.389351237371785,3.253478197691062,3.6363265241725897,130,255004.0,66,71.5,0,0,-85,0,0,0,2.0,16.0,-1019.0
1777585386.81383,pre_hover,right,x,1,,,0,6,-0.29194895068440196,1.4195844126862216,3.2382617186881983,3.6327809911118316,130,255004.0,66,71.5,0,0,-85,0,0,0,2.0,16.0,-1019.0
1777585386.864722,pre_hover,right,x,1,,,0,6,-0.12425501223352438,1.5007200226354909,3.234212317751054,3.6296471410727578,130,255002.0,66,71.5,0,0,-85,0,0,0,14.0,5.0,-978.0
1777585386.915864,pre_hover,right,x,1,,,0,6,-0.2531235247195245,1.3841346207319924,3.2501438434302115,3.6342788040185603,130,255002.0,66,71.5,0,0,-85,0,0,0,14.0,5.0,-978.0
1777585386.967309,pre_hover,right,x,1,,,0,6,-0.2549529690795371,1.38067595197382,3.2665171498091645,3.641751293876974,130,254988.0,66,71.5,0,0,-85,0,0,0,15.0,7.0,-974.0
1777585387.018128,pre_hover,right,x,1,,,0,6,-0.25713794316006994,1.3969522947476987,3.2599666848713413,3.638875902084282,130,254988.0,66,71.5,0,0,-85,0,0,0,15.0,7.0,-974.0
1777585387.070126,pre_hover,right,x,1,,,0,6,-0.23926451706669888,1.3700237981255372,3.2622592105134265,3.6386362795592113,130,255003.00000000003,66,71.5,0,0,-85,0,0,0,8.0,7.0,-992.0
1777585387.1222022,pre_hover,right,x,1,,,0,6,-0.20704669383889307,1.3958992815363729,3.2614134362006433,3.642329344886162,130,255003.00000000003,66,71.5,0,0,-85,0,0,0,8.0,7.0,-992.0
1777585387.173065,pre_hover,right,x,1,,,0,6,-0.27618399295316465,1.4110406400979563,3.2516079546963765,3.6412132544254234,130,255007.00000000003,66,71.5,0,0,-85,0,0,0,8.0,27.0,-1015.0
1777585387.223713,pre_hover,right,x,1,,,0,6,-0.25428355288432336,1.4207268386455152,3.24741346645828,3.6345764589992036,130,255007.00000000003,66,71.5,0,0,-85,0,0,0,8.0,27.0,-1015.0
1777585387.2749372,pre_hover,right,x,1,,,0,6,-0.15391180738346563,1.4516895627838664,3.266770911983024,3.6442691979432698,130,255001.00000000003,66,71.5,0,0,-85,0,0,0,10.0,9.0,-1003.0
1777585387.326167,pre_hover,right,x,1,,,0,6,-0.22141342982376105,1.3758749208594678,3.2810391869256867,3.6511191007950696,130,255001.00000000003,66,71.5,0,0,-85,0,0,0,10.0,9.0,-1003.0
1777585387.3770251,pre_hover,right,x,1,,,0,6,-0.2543507728387685,1.3721526212004926,3.2775929304942344,3.649178666179895,130,255005.00000000003,66,71.5,0,0,-85,0,0,0,1.0,29.0,-1001.0
1777585387.427521,pre_hover,right,x,1,,,0,6,-0.07473908295751225,1.4464077454669662,3.273472593884297,3.647394453155061,130,255005.00000000003,66,71.5,0,0,-85,0,0,0,1.0,29.0,-1001.0
1777585387.476675,pre_hover,right,x,1,,,0,6,-0.23868632118166716,1.4046997799188452,3.2691705271337073,3.6461488797603487,130,255005.00000000003,66,71.5,0,0,-85,0,0,0,17.0,10.0,-984.0
1777585387.526809,response,right,x,1,1777585387.526596,0.0002129077911376953,0,6,-0.08485919420047669,1.4603287236282503,3.265542074368809,3.6479363412229087,130,255005.00000000003,66,71.5,0,0,-85,0,0,0,17.0,10.0,-984.0
1777585387.580721,response,right,x,1,1777585387.526596,0.05412483215332031,0,6,-0.2544774041853533,1.3988508190173004,3.268821053080515,3.6477138132393137,130,254996.99999999997,66,71.5,0,0,-85,0,0,0,10.0,7.0,-1000.0
1777585387.6318588,response,right,x,1,1777585387.526596,0.10526275634765625,0,6,-0.2598121757568493,1.4025590183497565,3.2601943690857076,3.642011678686966,130,254996.99999999997,66,71.5,0,0,-85,0,0,0,10.0,7.0,-1000.0
1777585387.6813838,response,right,x,1,1777585387.526596,0.15478777885437012,0,6,-0.23289701362681994,1.3861902347002268,3.264886512883397,3.6451470057691466,130,255000.0,66,71.5,0,-1,-85,0,0,0,11.0,11.0,-998.0
1777585387.74415,response,right,x,1,1777585387.526596,0.21755385398864746,0,6,-0.22762524112521615,1.3859168572936205,3.267214375971705,3.6489353145522596,130,255000.0,66,71.5,0,-1,-85,0,0,0,11.0,11.0,-998.0
1777585387.794532,response,right,x,1,1777585387.526596,0.26793599128723145,0,6,-0.20239513289792926,1.4248165238711612,3.258800726262873,3.646219818077123,130,255012.0,66,71.5,0,1,-85,0,0,0,-4.0,18.0,-1010.0
1777585387.8442292,response,right,x,1,1777585387.526596,0.31763315200805664,0,6,-0.22506342877865557,1.3600566245109793,3.2916970560859666,3.659246348956639,130,255012.0,66,71.5,0,1,-85,0,0,0,-4.0,18.0,-1010.0
1777585387.8941371,response,right,x,1,1777585387.526596,0.3675410747528076,0,6,-0.21936783425842996,1.4042290596911329,3.2772362369897134,3.6504800589025272,130,255005.00000000003,66,71.5,0,4,-85,0,0,0,0.0,25.0,-975.0
1777585387.944334,response,right,x,1,1777585387.526596,0.4177379608154297,0,6,-0.24698180584442392,1.4249699553810857,3.2572342619351584,3.642306567096272,130,255005.00000000003,66,71.5,0,4,-85,0,0,0,0.0,25.0,-975.0
1777585387.9955258,response,right,x,1,1777585387.526596,0.4689297676086426,0,6,-0.19554580594612514,1.428107007089753,3.273536137239696,3.6443257603382104,130,254996.0,66,71.5,0,3,-85,1,0,0,21.0,0.0,-1008.0
1777585388.046345,response,right,x,1,1777585387.526596,0.5197489261627197,2,6,-0.16669298217128595,1.378044266169254,3.2761702684618985,3.6412475163755116,130,254996.0,66,71.5,0,3,-85,1,0,0,21.0,0.0,-1008.0
1777585388.096097,response,right,x,1,1777585387.526596,0.5695009231567383,2,6,-0.20709105985304527,1.4144176479476867,3.268459219345343,3.63812170010887,130,255000.0,66,71.0,0,1,-85,2,0,0,0.0,4.0,-1001.0
1777585388.145972,response,right,x,1,1777585387.526596,0.6193759441375732,2,6,-0.19719747427725884,1.389324921914253,3.2673514093396387,3.6361793794118196,130,255000.0,66,71.0,0,1,-85,2,0,0,0.0,4.0,-1001.0
1777585388.1970701,response,right,x,1,1777585387.526596,0.6704740524291992,2,6,-0.21424401850286554,1.4042371650401706,3.2783519952047775,3.6338817850443967,130,255003.00000000003,66,71.0,0,0,-85,2,0,0,14.0,6.0,-1001.0
1777585388.247474,response,right,x,1,1777585387.526596,0.7208778858184814,2,6,-0.03579138659821131,1.426107865138959,3.288108337769326,3.6374595974572874,130,255003.00000000003,66,71.0,0,0,-85,2,0,0,14.0,6.0,-1001.0
1777585388.298505,response,right,x,1,1777585387.526596,0.7719089984893799,2,6,-0.10821700056635508,1.3737324723201536,3.265227759229343,3.623518552776297,130,255000.0,66,71.0,0,0,-85,2,0,0,12.0,-18.0,-973.0
1777585388.350118,response,right,x,1,1777585387.526596,0.8235218524932861,2,6,-0.03754568914157301,1.4497219466194675,3.276303917955663,3.624694975623461,130,255000.0,66,71.0,0,0,-85,2,0,0,12.0,-18.0,-973.0
1777585388.4019032,response,right,x,1,1777585387.526596,0.8753070831298828,2,6,-0.020909561562228392,1.4652006929115347,3.2656034758822563,3.617870498093449,130,255003.00000000003,66,71.0,0,0,-85,2,0,0,8.0,10.0,-981.0
1777585388.452319,response,right,x,1,1777585387.526596,0.9257228374481201,2,6,-0.09675502431620818,1.367842944608404,3.285742158934318,3.6230587473953886,130,255003.00000000003,66,71.0,0,0,-85,2,0,0,8.0,10.0,-981.0
1777585388.503315,response,right,x,1,1777585387.526596,0.9767189025878906,2,6,-0.12498808693831194,1.421838138611172,3.260849132896111,3.6095980208012564,130,255001.00000000003,66,71.0,0,0,-85,2,0,0,8.0,-10.0,-981.0
1777585388.553238,response,right,x,1,1777585387.526596,1.026641845703125,2,6,-0.12460782185940913,1.3884695254956165,3.2786911478756267,3.6130504232596437,130,255001.00000000003,66,71.0,0,0,-85,2,0,0,8.0,-10.0,-981.0
1777585388.604872,response,right,x,1,1777585387.526596,1.0782759189605713,2,6,0.039011344899215976,1.4560311514816797,3.2879121813604812,3.6106500047109065,130,255003.00000000003,66,71.0,0,0,-85,2,0,0,4.0,-3.0,-999.0
1777585388.655502,response,right,x,1,1777585387.526596,1.128906011581421,2,6,0.07735435872446438,1.4996754645483943,3.2842584525500618,3.6071804656472657,130,255004.0,66,71.0,0,0,-85,2,0,0,2.0,-5.0,-989.0
1777585388.706819,response,right,x,1,1777585387.526596,1.180222988128662,2,6,-0.08475199946840209,1.392830357517665,3.292058678874295,3.6068014213811566,130,255004.0,66,71.0,0,0,-85,2,0,0,2.0,-5.0,-989.0
1777585388.757189,response,right,x,1,1777585387.526596,1.230592966079712,2,6,-0.033148779408605146,1.3878137906777634,3.2804781818515365,3.6046258672156513,130,255003.00000000003,66,71.0,0,0,-85,2,0,0,6.0,4.0,-1008.0
1777585388.806436,response,right,x,1,1777585387.526596,1.2798399925231934,2,6,-0.04497646839393882,1.4088462186542647,3.2780171048852487,3.5945016473796887,130,255003.00000000003,66,71.0,0,0,-85,2,0,0,6.0,4.0,-1008.0
1777585388.856896,response,right,x,1,1777585387.526596,1.3302998542785645,2,6,0.07100360175313111,1.4260104760280843,3.28588102044458,3.5937202938970483,130,255003.00000000003,66,71.0,0,0,-85,2,0,0,10.0,-9.0,-978.0
1777585388.907016,response,right,x,1,1777585387.526596,1.3804199695587158,2,6,0.042717558614699475,1.3755988309615237,3.2940842547118656,3.5938487234364676,130,255003.00000000003,66,71.0,0,0,-85,2,0,0,10.0,-9.0,-978.0
1777585388.957022,response,right,x,1,1777585387.526596,1.4304258823394775,2,6,0.11369715495067446,1.425819913669373,3.3027542376998533,3.5969133844567067,130,255005.00000000003,66,71.0,0,-1,-85,2,0,0,5.0,7.0,-1005.0
1777585389.008128,response,right,x,1,1777585387.526596,1.4815318584442139,2,6,0.12068202778248456,1.477247119005132,3.2862800600080027,3.5843111634793305,130,255005.00000000003,66,71.0,0,-1,-85,2,0,0,5.0,7.0,-1005.0
1777585389.058537,response,right,x,1,1777585387.526596,1.5319409370422363,2,6,0.1497018409450005,1.4918640202242006,3.265732339426868,3.575192163487376,130,255002.0,66,71.5,0,-5,-85,2,0,0,-7.0,6.0,-1034.0
1777585389.1087308,response,right,x,1,1777585387.526596,1.58213472366333,2,6,0.16634038136546372,1.4740494886916493,3.2944375646277977,3.5838903076868083,130,255002.0,66,71.5,0,-5,-85,2,0,0,-7.0,6.0,-1034.0
1777585389.158944,response,right,x,1,1777585387.526596,1.632347822189331,2,6,0.04711830008254191,1.4018587008072179,3.2941342146924497,3.5815026211761687,130,255000.0,66,71.5,0,-4,-85,1,0,0,0.0,15.0,-1020.0
1777585389.209207,response,right,x,1,1777585387.526596,1.6826109886169434,2,6,0.182151270276828,1.4087887354451718,3.2977109070582302,3.5780349824181736,130,255000.0,66,71.5,0,-4,-85,1,0,0,0.0,15.0,-1020.0
1777585389.259733,response,right,x,1,1777585387.526596,1.7331368923187256,2,6,0.16174550847996486,1.3886937948688116,3.2849590415415717,3.5711183864152964,130,255005.00000000003,66,71.5,0,-2,-85,0,0,0,13.0,-11.0,-976.0
1777585389.3095129,response,right,x,1,1777585387.526596,1.782916784286499,2,6,0.1887877483072507,1.464663417173155,3.285651873496238,3.5734023731571036,130,255005.00000000003,66,71.5,0,-2,-85,0,0,0,13.0,-11.0,-976.0
1777585389.360661,response,right,x,1,1777585387.526596,1.8340649604797363,2,6,0.1307352858655693,1.4664860716766137,3.2851089318013322,3.5711403904248424,130,255004.0,66,71.5,0,-1,-85,0,0,0,19.0,-18.0,-1004.0
1777585389.4111612,response,right,x,1,1777585387.526596,1.8845651149749756,2,6,0.16258035002819526,1.4181451954244193,3.282997265469372,3.5684290942155097,130,255004.0,66,71.5,0,-1,-85,0,0,0,19.0,-18.0,-1004.0
1777585389.462247,response,right,x,1,1777585387.526596,1.9356508255004883,2,6,0.21875304807991172,1.4195721289471375,3.295416110442181,3.572508313460391,130,254998.99999999997,66,71.5,0,0,-85,0,0,0,0.0,-1.0,-998.0
1777585389.513416,response,right,x,1,1777585387.526596,1.9868199825286865,2,6,0.20477297820770918,1.4373300819959454,3.301412895944109,3.5762980089377194,130,254998.99999999997,66,71.5,0,0,-85,0,0,0,0.0,-1.0,-998.0
1777585389.5645561,response,right,x,1,1777585387.526596,2.0379600524902344,2,6,0.2014782064468188,1.4043300467854003,3.3067240629560777,3.573549519049395,130,255004.0,66,71.5,0,0,-85,0,0,0,-4.0,18.0,-1043.0
1777585389.615603,response,right,x,1,1777585387.526596,2.0890069007873535,2,6,0.1974852782189274,1.4010795791198623,3.2938693623455237,3.569418510240563,130,255004.0,66,71.5,0,0,-85,0,0,0,-4.0,18.0,-1043.0
1777585389.667615,response,right,x,1,1777585387.526596,2.141018867492676,2,6,0.18446107098836065,1.39916671720563,3.2986593841177823,3.571998527442885,130,254996.99999999997,66,71.5,0,-1,-85,0,0,0,-4.0,11.0,-1024.0
1777585389.718521,response,right,x,1,1777585387.526596,2.191925048828125,2,6,0.16315678718549104,1.4400058015700332,3.2890671028277216,3.5679656972389986,130,254996.99999999997,66,71.5,0,-1,-85,0,0,0,-4.0,11.0,-1024.0
1777585389.769717,response,right,x,1,1777585387.526596,2.2431209087371826,2,6,0.23941700433713484,1.4305303373385159,3.311876372570185,3.5822933258855634,130,255003.00000000003,66,71.5,0,-1,-85,0,0,0,7.0,26.0,-1021.0
1777585389.820126,response,right,x,1,1777585387.526596,2.293529987335205,2,6,0.1972802004919891,1.4256834058889531,3.301122285905744,3.5776055066799137,130,255003.00000000003,66,71.5,0,-1,-85,0,0,0,7.0,26.0,-1021.0
1777585389.871458,response,right,x,1,1777585387.526596,2.3448619842529297,2,6,0.05457843787193387,1.357728423092725,3.2986705209519283,3.575477452937836,130,255009.0,66,71.5,0,-1,-85,0,0,0,14.0,-9.0,-1031.0
1777585389.922369,response,right,x,1,1777585387.526596,2.395772933959961,2,6,0.19587471111750657,1.4277743989288065,3.3007607361173066,3.5754793393050925,130,255009.0,66,71.5,0,-1,-85,0,0,0,14.0,-9.0,-1031.0
1777585389.973001,response,right,x,1,1777585387.526596,2.4464049339294434,2,6,0.20926954881118143,1.4214109866726432,3.303348848077203,3.5787862552512166,130,255003.00000000003,66,71.5,0,-1,-85,0,0,0,7.0,4.0,-1013.0
1777585390.023154,response,right,x,1,1777585387.526596,2.4965579509735107,2,6,0.20168236034696557,1.4383478582949256,3.306033045166784,3.5827383176743495,130,255003.00000000003,66,71.5,0,-1,-85,0,0,0,7.0,4.0,-1013.0
1777585390.075514,response,right,x,1,1777585387.526596,2.5489180088043213,2,6,0.189647243003532,1.4148919976629335,3.299079811176391,3.5778933658227583,130,254994.99999999997,66,71.5,0,0,-85,0,0,0,-6.0,7.0,-1025.0
1777585390.126416,response,right,x,1,1777585387.526596,2.5998198986053467,2,6,0.2041696337516311,1.4346737394620703,3.3037584879844633,3.5813011092978155,130,254994.99999999997,66,71.5,0,0,-85,0,0,0,-6.0,7.0,-1025.0
1777585390.177004,response,right,x,1,1777585387.526596,2.6504080295562744,2,6,0.16446996571416272,1.4394779239137248,3.3004138311142555,3.582459633115704,130,255001.00000000003,66,71.5,0,0,-85,0,0,0,5.0,12.0,-989.0
1777585390.225996,response,right,x,1,1777585387.526596,2.699399948120117,2,6,0.1789024214207609,1.4189295202415562,3.3182283864708704,3.5885776371932465,130,255001.00000000003,66,71.5,0,0,-85,0,0,0,5.0,12.0,-989.0
1777585390.2748191,response,right,x,1,1777585387.526596,2.748223066329956,2,6,0.19759994711206905,1.4487910752434283,3.303174900111359,3.5821289373004355,130,255004.0,66,71.5,0,0,-85,0,0,0,-5.0,0.0,-1004.0
1777585390.321526,response,right,x,1,1777585387.526596,2.7949299812316895,2,6,0.19779059187997222,1.4504244589292,3.303055857095219,3.587522180787826,130,255004.0,66,71.5,0,0,-85,0,0,0,-5.0,0.0,-1004.0
1777585390.3693068,response,right,x,1,1777585387.526596,2.8427107334136963,2,6,0.1951316352394228,1.4094851528823016,3.310342054159648,3.5909909766827184,130,255013.0,66,71.5,0,0,-85,0,0,0,2.0,19.0,-1013.0
1777585390.4170089,response,right,x,1,1777585387.526596,2.8904128074645996,2,6,0.19644992686953652,1.4528810585893877,3.309016225874912,3.587556756066743,130,255013.0,66,71.5,0,0,-85,0,0,0,2.0,19.0,-1013.0
1777585390.466356,response,right,x,1,1777585387.526596,2.9397599697113037,2,6,0.20654775580627655,1.456540895996177,3.322000700364674,3.595045617348177,130,255013.0,66,71.5,0,0,-85,0,0,0,2.0,19.0,-1013.0
1777585390.51584,response,right,x,1,1777585387.526596,2.989243984222412,2,6,0.23512992577713043,1.3987707194455254,3.331185941344604,3.5956239991191445,130,255010.0,66,71.5,0,0,-85,0,0,0,-2.0,35.0,-963.0
1777585390.567533,response,right,x,1,1777585387.526596,3.0409369468688965,2,6,0.20668993434277536,1.4301150102411226,3.317600618665188,3.59468940464137,130,255010.0,66,71.5,0,0,-85,0,0,0,-2.0,35.0,-963.0
1777585390.6166458,response,right,x,1,1777585387.526596,3.0900497436523438,2,6,0.18436047421236829,1.4419373744584,3.315903042397017,3.591636794517232,130,255006.0,66,71.5,0,0,-85,0,0,0,20.0,18.0,-1004.0
1777585390.665598,response,right,x,1,1777585387.526596,3.1390018463134766,2,6,0.23064969331310176,1.4484653107993966,3.316698841368687,3.594090988246103,130,255006.0,66,71.5,0,0,-85,0,0,0,20.0,18.0,-1004.0
1777585390.716295,response,right,x,1,1777585387.526596,3.1896989345550537,2,6,0.1693385110131238,1.5026661354358133,3.3244135621034276,3.598304967666501,130,255005.00000000003,66,71.5,0,0,-85,0,0,0,16.0,0.0,-968.0
1777585390.769809,response,right,x,1,1777585387.526596,3.243212938308716,2,6,0.23323936758772978,1.4680102391052918,3.324749367732435,3.60072122793156,130,255005.00000000003,66,71.5,0,0,-85,0,0,0,16.0,0.0,-968.0
1777585390.821387,response,right,x,1,1777585387.526596,3.2947909832000732,2,6,0.22172634830265103,1.431008180356055,3.3471395563022326,3.611594601832856,130,255009.0,66,71.5,0,0,-85,0,0,0,12.0,3.0,-1007.0
1777585390.8722749,response,right,x,1,1777585387.526596,3.3456788063049316,2,6,0.16151648111111125,1.5007524457049155,3.3152346766492236,3.6032824510996875,130,255009.0,66,71.5,0,0,-85,0,0,0,12.0,3.0,-1007.0
1777585390.923645,response,right,x,1,1777585387.526596,3.3970489501953125,2,6,0.16776914954148048,1.4787258983905927,3.325950929692375,3.6054905277210962,130,255004.0,66,71.5,0,0,-85,0,0,0,23.0,-1.0,-996.0
1777585390.9744499,response,right,x,1,1777585387.526596,3.4478538036346436,2,6,0.21092386831771848,1.4717958200850092,3.331169726772156,3.610310661049476,130,255004.0,66,71.5,0,0,-85,0,0,0,23.0,-1.0,-996.0
1777585391.023946,response,right,x,1,1777585387.526596,3.497349977493286,2,6,0.24115046341757398,1.4542654391929872,3.3401923140982284,3.6139405721246916,130,255010.0,66,71.5,0,0,-85,0,0,0,19.0,-24.0,-1001.0
1777585391.072951,response,right,x,1,1777585387.526596,3.5463550090789795,2,6,0.17897530594448816,1.4675583789192852,3.3281202588318095,3.612307641208503,130,255010.0,66,71.5,0,0,-85,0,0,0,19.0,-24.0,-1001.0
1777585391.1208901,response,right,x,1,1777585387.526596,3.5942940711975098,2,6,0.179891220391043,1.4788284084455945,3.3453041172830202,3.618259132005203,130,255010.0,66,71.5,0,0,-85,0,0,0,5.0,19.0,-1019.0
1777585391.168828,response,right,x,1,1777585387.526596,3.6422319412231445,2,6,0.14393469651484328,1.44324336148225,3.3292392768263657,3.6129594702029983,130,255010.0,66,71.5,0,0,-85,0,0,0,5.0,19.0,-1019.0
1777585391.218037,response,right,x,1,1777585387.526596,3.6914408206939697,2,6,0.20016634497034416,1.4384781250461267,3.3331312317357273,3.6150293213632394,130,254996.0,66,71.5,0,0,-85,0,0,0,3.0,16.0,-990.0
1777585391.2671628,response,right,x,1,1777585387.526596,3.7405667304992676,2,6,0.16516370812235112,1.4758383654836884,3.3247440790817064,3.612652206499648,130,254996.0,66,71.5,0,0,-85,0,0,0,3.0,16.0,-990.0
1777585391.316745,response,right,x,1,1777585387.526596,3.790148973464966,2,6,0.1885964281397922,1.4840106219284894,3.3448425513539983,3.6243126959443988,130,255006.0,66,71.5,0,0,-85,0,0,0,6.0,17.0,-1005.0
1777585391.368381,response,right,x,1,1777585387.526596,3.841784954071045,2,6,0.18774917601351096,1.5022794281892196,3.339055686024345,3.6205529768360307,130,255006.0,66,71.5,0,0,-85,0,0,0,6.0,17.0,-1005.0
1777585391.419428,response,right,x,1,1777585387.526596,3.892832040786743,2,6,0.19965998674252192,1.4664128140072197,3.336000494464477,3.622459450534716,130,255009.0,66,71.5,0,0,-85,0,0,0,9.0,11.0,-991.0
1777585391.4704971,response,right,x,1,1777585387.526596,3.9439010620117188,2,6,0.19950186401094547,1.4791455773756985,3.3361317617916204,3.6237396825078623,130,255009.0,66,71.5,0,0,-85,0,0,0,9.0,11.0,-991.0
1777585391.520968,response,right,x,1,1777585387.526596,3.9943718910217285,2,6,0.22368391293159898,1.4578557789216438,3.3553030131627057,3.6328328407258574,130,255017.99999999997,66,71.5,0,0,-85,0,0,0,5.0,12.0,-1008.0
1777585391.5714371,response,right,x,1,1777585387.526596,4.044841051101685,2,6,0.19799839806574393,1.4692658111571038,3.359280368027128,3.6340545405173015,130,255017.99999999997,66,71.5,0,0,-85,0,0,0,5.0,12.0,-1008.0
1777585391.621854,response,right,x,1,1777585387.526596,4.095257997512817,2,6,0.03588906456500431,1.4168641020675559,3.3332304317639156,3.628247330211386,130,255001.00000000003,66,71.5,0,-1,-85,0,0,0,7.0,13.0,-1009.0
1777585391.672042,response,right,x,1,1777585387.526596,4.145445823669434,2,6,0.17256022260656248,1.5015126275141035,3.344317397850694,3.631429604139957,130,255001.00000000003,66,71.5,0,-1,-85,0,0,0,7.0,13.0,-1009.0
1777585391.722494,response,right,x,1,1777585387.526596,4.195897817611694,2,6,0.18827097648240812,1.4997389323032335,3.3413892507876177,3.628313171064873,130,255011.0,66,71.5,0,0,-85,0,0,0,18.0,-8.0,-935.0
1777585391.772704,response,right,x,1,1777585387.526596,4.246107816696167,2,6,0.1978895297018408,1.4802149701195009,3.3564457209866285,3.636720648418249,130,255011.0,66,71.5,0,0,-85,0,0,0,18.0,-8.0,-935.0
1777585391.823296,response,right,x,1,1777585387.526596,4.2967000007629395,2,6,0.1896353350329733,1.4945716379181282,3.3541134811359536,3.636296854056434,130,255014.0,66,71.5,0,0,-85,0,0,0,15.0,17.0,-984.0
1777585391.873707,response,right,x,1,1777585387.526596,4.347110986709595,2,6,0.19994469643702165,1.5234916486604868,3.358566401648437,3.6422800284913106,130,255014.0,66,71.5,0,0,-85,0,0,0,15.0,17.0,-984.0
1777585391.9233549,response,right,x,1,1777585387.526596,4.396758794784546,2,6,0.1869791154318527,1.510819164784349,3.3654637922629744,3.6445063388567753,130,255007.00000000003,66,71.5,0,0,-85,0,0,0,-5.0,47.0,-995.0
1777585391.9737,response,right,x,1,1777585387.526596,4.447103977203369,2,6,0.19562914131519205,1.5054077290575665,3.3571340883385186,3.6392396322649083,130,255007.00000000003,66,71.5,0,0,-85,0,0,0,-5.0,47.0,-995.0
1777585392.024781,response,right,x,1,1777585387.526596,4.4981849193573,2,6,0.20990245587292816,1.5244183830254512,3.350990142439872,3.6393691926250438,140,255005.00000000003,66,71.5,0,0,-85,0,0,0,-7.0,49.0,-949.0
1777585392.07481,response,right,x,1,1777585387.526596,4.548213958740234,2,6,0.20990245587292816,1.5244183830254512,3.350990142439872,3.6393691926250438,140,255005.00000000003,66,71.5,0,0,-85,0,0,0,-7.0,49.0,-949.0
1777585392.125327,response,right,x,1,1777585387.526596,4.59873104095459,2,6,0.1968648331267216,1.4746076717844518,3.3709147572377125,3.647848003643983,140,255007.00000000003,66,71.5,0,0,-85,0,0,0,11.0,-1.0,-1002.0
1777585392.175916,response,right,x,1,1777585387.526596,4.649319887161255,2,6,0.1679829430818897,1.4599667985026166,3.365314673499282,3.644351021933297,140,255007.00000000003,66,71.5,0,0,-85,0,0,0,11.0,-1.0,-1002.0
1777585392.2267609,response,right,x,1,1777585387.526596,4.700164794921875,2,6,0.18178578567613773,1.5224148746716466,3.3487268170720332,3.6406207714362098,140,255003.00000000003,66,71.5,0,-1,-85,0,0,0,0.0,22.0,-1034.0
1777585392.2776902,response,right,x,1,1777585387.526596,4.751094102859497,2,6,0.1746429271159399,1.4681304161228694,3.3517608726323087,3.640124688628531,140,255003.00000000003,66,71.5,0,-1,-85,0,0,0,0.0,22.0,-1034.0
1777585392.329201,response,right,x,1,1777585387.526596,4.802604913711548,2,6,0.17534578150546215,1.4428431639746324,3.37113794565762,3.6505802892956662,140,255014.0,66,71.5,0,-1,-85,0,0,0,11.0,4.0,-992.0
1777585392.379959,response,right,x,1,1777585387.526596,4.853363037109375,2,6,0.20219235050433085,1.4799757952636432,3.374130361751973,3.648464757406973,140,255012.0,66,71.5,0,0,-85,0,0,0,14.0,13.0,-1006.0
1777585392.431055,response,right,x,1,1777585387.526596,4.904458999633789,2,6,0.18126558050581035,1.4704877769263478,3.3798878935955265,3.6506432373240827,140,255012.0,66,71.5,0,0,-85,0,0,0,14.0,13.0,-1006.0
1777585392.481886,response,right,x,1,1777585387.526596,4.955289840698242,2,6,0.21552073907444377,1.4756985331567005,3.3861802858756302,3.653277649708341,140,255012.0,66,71.5,0,0,-85,0,0,0,19.0,8.0,-988.0
1777585392.5340312,response,right,x,1,1777585387.526596,5.007435083389282,2,6,0.1892111832815784,1.5110785266543303,3.358102339508155,3.642520260531023,140,255012.0,66,71.5,0,0,-85,0,0,0,19.0,8.0,-988.0
1777585392.584765,response,right,x,1,1777585387.526596,5.058168888092041,2,6,0.270856372353948,1.482287113833069,3.3578962121796048,3.6428278300950514,130,255013.0,66,71.5,0,0,-85,0,0,0,0.0,20.0,-992.0
1777585392.635466,response,right,x,1,1777585387.526596,5.108870029449463,2,6,0.1515298255564968,1.481411618504872,3.3762912438857047,3.6477372372205417,130,255013.0,66,71.5,0,0,-85,0,0,0,0.0,20.0,-992.0
1777585392.686487,response,right,x,1,1777585387.526596,5.15989089012146,2,6,0.15402269399093196,1.4914693816888709,3.3822959032929267,3.65475685414675,130,255006.0,66,71.5,0,0,-85,0,0,0,20.0,13.0,-985.0
1777585392.737201,response,right,x,1,1777585387.526596,5.210604906082153,2,6,0.19500198894539073,1.503415676510915,3.3572119710633346,3.64416529058585,130,255006.0,66,71.5,0,0,-85,0,0,0,20.0,13.0,-985.0
1777585392.788055,response,right,x,1,1777585387.526596,5.261458873748779,2,6,0.1959454676684887,1.4932156516772712,3.3595093379423213,3.6436077015004966,130,255012.0,66,71.5,0,0,-85,0,0,0,9.0,21.0,-999.0
1777585392.8394,response,right,x,1,1777585387.526596,5.3128039836883545,2,6,0.1899548982766917,1.5020276560331318,3.370167311952873,3.650945996941987,130,255012.0,66,71.5,0,0,-85,0,0,0,9.0,21.0,-999.0
1777585392.8897972,response,right,x,1,1777585387.526596,5.363201141357422,2,6,0.13483355526854424,1.4809318572926753,3.3785255855564453,3.649796031846918,130,255003.00000000003,66,71.5,0,0,-85,0,0,0,-1.0,23.0,-1003.0
1777585392.939911,response,right,x,1,1777585387.526596,5.4133148193359375,2,6,0.16478315384202746,1.489463410646208,3.3752932428293736,3.6499449792307614,130,255003.00000000003,66,71.5,0,0,-85,0,0,0,-1.0,23.0,-1003.0
1777585392.9902358,response,right,x,1,1777585387.526596,5.463639736175537,2,6,0.17698182829927306,1.446978586039543,3.3816514292730484,3.652113240072943,130,255009.0,66,71.5,0,0,-85,0,0,0,17.0,6.0,-965.0
1777585393.041028,response,right,x,1,1777585387.526596,5.514431953430176,2,6,0.19847950342386234,1.42223671316659,3.3862854942284977,3.6543581636031788,130,255009.0,66,71.5,0,0,-85,0,0,0,17.0,6.0,-965.0
1777585393.092078,response,right,x,1,1777585387.526596,5.565481901168823,2,6,0.0900024001347666,1.3876613368222772,3.3589395307519734,3.642483266150581,130,255010.0,66,71.5,0,0,-85,0,0,0,0.0,28.0,-995.0
1777585393.1426408,response,right,x,1,1777585387.526596,5.616044759750366,2,6,0.17958581814259936,1.4617087315626347,3.375364164908158,3.6503841343296823,130,255010.0,66,71.5,0,0,-85,0,0,0,0.0,28.0,-995.0
1777585393.192754,response,right,x,1,1777585387.526596,5.666157960891724,2,6,0.18228704509170865,1.4705821903356988,3.377388172807079,3.653436027016804,130,255008.0,66,71.5,0,0,-85,0,0,0,21.0,8.0,-968.0
1777585393.2435122,response,right,x,1,1777585387.526596,5.716916084289551,2,6,0.1969939926413507,1.4430211338330023,3.373232720674489,3.6512826128753804,130,255008.0,66,71.5,0,0,-85,0,0,0,21.0,8.0,-968.0
1777585393.293781,response,right,x,1,1777585387.526596,5.7671849727630615,2,6,0.07133478024867712,1.3829209272679268,3.3801851070349898,3.6527878961366778,130,255002.0,66,71.5,0,-1,-85,0,0,0,-3.0,24.0,-993.0
1777585393.344413,response,right,x,1,1777585387.526596,5.817816972732544,2,6,0.16568542332025413,1.4961067837755815,3.373709969691446,3.6522268232008877,130,255002.0,66,71.5,0,-1,-85,0,0,0,-3.0,24.0,-993.0
1777585393.394492,response,right,x,1,1777585387.526596,5.867895841598511,2,6,0.16363759381916115,1.477608514797225,3.375451651715744,3.6529919082866136,130,255004.0,66,71.5,0,-1,-85,0,0,0,-8.0,37.0,-1030.0
1777585393.44512,response,right,x,1,1777585387.526596,5.9185240268707275,2,6,0.20952447970902716,1.495559406298287,3.373478486053715,3.6504748671085707,130,255004.0,66,71.5,0,-1,-85,0,0,0,-8.0,37.0,-1030.0
1777585393.4963799,response,right,x,1,1777585387.526596,5.969783782958984,2,6,0.17782307459385993,1.4704837925605765,3.3606044981714147,3.645371632015293,130,255012.0,66,71.5,0,-1,-85,0,0,0,11.0,34.0,-997.0
1777585393.547225,response,right,x,1,1777585387.526596,6.020628929138184,2,6,0.1807815407370715,1.4322156006508768,3.3681285541906374,3.6458293008149525,130,255012.0,66,71.5,0,-1,-85,0,0,0,11.0,34.0,-997.0
1777585393.5985248,response,right,x,1,1777585387.526596,6.0719287395477295,2,6,0.1996908348104422,1.4403537848315395,3.3794892420422307,3.652881062855456,130,255000.0,66,71.5,0,-1,-85,0,0,0,15.0,5.0,-1015.0
1777585393.648175,response,right,x,1,1777585387.526596,6.121578931808472,2,6,0.1889010888944719,1.4347330469689965,3.3711772451101014,3.6490457424136125,130,255000.0,66,71.5,0,-1,-85,0,0,0,15.0,5.0,-1015.0
1777585393.699268,response,right,x,1,1777585387.526596,6.1726720333099365,2,6,0.17876820954105496,1.4635686696220955,3.373720835839439,3.651243723806909,130,255004.0,66,71.5,0,-1,-85,0,0,0,5.0,13.0,-992.0
1777585393.7508018,response,right,x,1,1777585387.526596,6.224205732345581,2,6,0.15650499885127372,1.4482850689801599,3.3783695125767794,3.652433732378048,130,255004.0,66,71.5,0,-1,-85,0,0,0,5.0,13.0,-992.0
1777585393.802173,response,right,x,1,1777585387.526596,6.275576829910278,2,6,0.1558587132628366,1.4478882696768995,3.368836678911269,3.6483977383992614,130,255002.0,66,71.5,0,-1,-85,0,0,0,3.0,19.0,-1019.0
1777585393.853536,response,right,x,1,1777585387.526596,6.326939821243286,2,6,0.17637533199866903,1.480846724146499,3.375682847551116,3.6516290355524537,130,255002.0,66,71.5,0,-1,-85,0,0,0,3.0,19.0,-1019.0
1777585393.9043741,response,right,x,1,1777585387.526596,6.377778053283691,2,6,0.19732913968708338,1.4172470122271428,3.3842172626099516,3.6538117585690486,130,255004.0,66,71.5,0,-1,-85,0,0,0,-4.0,35.0,-972.0
1777585393.954844,response,right,x,1,1777585387.526596,6.428247928619385,2,6,0.19980862815738537,1.4548806559774163,3.3713970855932254,3.6516314058680592,130,255004.0,66,71.5,0,-1,-85,0,0,0,-4.0,35.0,-972.0
1777585394.0063722,response,right,x,1,1777585387.526596,6.47977614402771,2,6,0.17227102760895635,1.4545260013250612,3.3908161155949226,3.656230120335867,130,254994.99999999997,66,71.5,0,0,-85,0,0,0,30.0,2.0,-996.0
1777585394.056163,response,right,x,1,1777585387.526596,6.529567003250122,2,6,0.19749093269630388,1.4697367555095118,3.3837957730355543,3.6565752876838613,130,254994.99999999997,66,71.5,0,0,-85,0,0,0,30.0,2.0,-996.0
1777585394.107062,response,right,x,1,1777585387.526596,6.580466032028198,2,6,0.19478438622945696,1.4747731011844745,3.3573819618569463,3.642443123909842,130,255009.0,66,71.0,0,0,-85,0,0,0,4.0,20.0,-995.0
1777585394.1571462,response,right,x,1,1777585387.526596,6.630550146102905,2,6,0.18281264794307858,1.443149331321552,3.3757245291694358,3.65363978373473,130,255009.0,66,71.0,0,0,-85,0,0,0,4.0,20.0,-995.0
1777585394.20751,response,right,x,1,1777585387.526596,6.680913925170898,2,6,0.14357291068123537,1.4585851282493159,3.376962562125116,3.652609997231369,130,255002.0,66,71.0,0,0,-85,0,0,0,2.0,25.0,-1012.0
1777585394.258514,response,right,x,1,1777585387.526596,6.731917858123779,2,6,0.07317720460194083,1.347697447281575,3.3830796479311473,3.6555193550313754,130,255002.0,66,71.0,0,0,-85,0,0,0,2.0,25.0,-1012.0
1777585394.30879,response,right,x,1,1777585387.526596,6.782193899154663,2,6,0.07464478471355866,1.331454449360871,3.370584147987377,3.650300431234813,130,255004.0,66,71.0,0,0,-85,0,0,0,3.0,36.0,-1026.0
1777585394.3599539,response,right,x,1,1777585387.526596,6.833357810974121,2,6,0.1754873588335161,1.436313528918306,3.3835250437358724,3.655749895541723,130,255004.0,66,71.0,0,0,-85,0,0,0,3.0,36.0,-1026.0
1777585394.41116,response,right,x,1,1777585387.526596,6.88456392288208,2,6,0.1734415811468782,1.4404463869669137,3.3930624919396357,3.658024946200186,130,255013.0,66,71.0,0,0,-85,0,0,0,3.0,18.0,-1030.0
1777585394.461659,response,right,x,1,1777585387.526596,6.935062885284424,2,6,0.07971644329515692,1.3654730090764586,3.3881312433530235,3.658489520677177,130,255013.0,66,71.0,0,0,-85,0,0,0,3.0,18.0,-1030.0
1777585394.512874,response,right,x,1,1777585387.526596,6.98627781867981,2,6,0.15751141969309496,1.4174295870909397,3.3909066619067065,3.6608588338295167,130,255005.00000000003,66,71.0,0,0,-85,0,0,0,-1.0,30.0,-1031.0
1777585394.564231,response,right,x,1,1777585387.526596,7.03763484954834,2,6,0.1253523322288083,1.4467200121761,3.378152855317388,3.652530729685529,130,255005.00000000003,66,71.0,0,0,-85,0,0,0,-1.0,30.0,-1031.0
1777585394.615596,response,right,x,1,1777585387.526596,7.08899998664856,2,6,0.09015747617017306,1.3312868677368426,3.376084413305567,3.651812554044438,130,254996.0,66,71.0,0,-1,-85,0,0,0,23.0,7.0,-1019.0
1777585394.667101,response,right,x,1,1777585387.526596,7.140504837036133,2,6,0.07133649256256841,1.3234772180707262,3.3803815035264426,3.6553835500897947,130,254996.0,66,71.0,0,-1,-85,0,0,0,23.0,7.0,-1019.0
