timestamp,elapsed,target_x,target_y,target_z,pos_x,pos_y,pos_z,marker_id,publish_count,err_x_cm,err_y_cm,err_z_cm,err_3d_cm,cmd_lr,cmd_fb,cmd_ud,vel_x_pub,vel_y_pub,vel_z_pub,tello_height_cm,tello_baro_cm,tello_battery,tello_temp_c,tello_pitch,tello_roll,tello_yaw,tello_vgx,tello_vgy,tello_vgz
1778186159.87437,7.152557373046875e-06,0.040452701716854264,1.3533399309486596,3.5693742032015687,0.07216004859797243,1.4089068678282568,3.5560785545083715,2,0,-3.1707346881118164,-5.556693687959724,1.3295648693197215,6.534381833497041,-17,-7,-30,0.0,0.0,0.0,120,252323.0,83,72.0,0,0,0,0,0,0
1778186159.946572,0.07220911979675293,0.040452701716854264,1.3533399309486596,3.5693742032015687,0.06819792755186405,1.3494593258279592,3.589364710932013,2,3,-2.7745225835009784,0.388060512070032,-1.9990507730444307,3.4416232391989876,0,12,20,-0.05487552760123949,-0.8233507239934884,0.4610145359791087,120,252342.99999999997,83,72.0,0,0,0,0,0,0
1778186160.0189388,0.144575834274292,0.040452701716854264,1.3533399309486596,3.5693742032015687,0.06957693825891176,1.3433024435938572,3.5739019879477416,2,7,-2.9124236542057496,1.0037487354802366,-0.45277847461728804,3.1136363648685923,-2,-5,2,0.01905587005025252,-0.08507892445515125,-0.2136717563579689,120,252336.0,83,72.0,0,0,0,0,0,0
1778186160.088502,0.21413898468017578,0.040452701716854264,1.3533399309486596,3.5693742032015687,0.06957693825891176,1.3433024435938572,3.5739019879477416,2,10,-2.9124236542057496,1.0037487354802366,-0.45277847461728804,3.1136363648685923,-1,0,0,0.0,0.0,0.0,120,252333.0,83,72.0,0,0,0,0,0,0
1778186160.159372,0.28500914573669434,0.040452701716854264,1.3533399309486596,3.5693742032015687,0.0629776733772992,1.3542934324253837,3.5851072795625614,2,14,-2.252497166044494,-0.09535014767241279,-1.5733076360992637,2.7492057128392338,0,4,-3,-0.09311767862852291,0.1550862685744603,0.1581101474551977,120,252333.0,83,72.0,0,0,0,0,0,0
1778186160.231035,0.3566720485687256,0.040452701716854264,1.3533399309486596,3.5693742032015687,0.007346522019211044,1.3424922648852529,3.557335769956807,2,18,3.310617969764322,1.0847666063406702,1.2038433244761837,3.6859393215087204,21,-10,4,-0.7762893932510733,-0.1646761026104576,-0.3875297888901789,120,252333.0,83,72.0,0,0,0,0,0,0
1778186160.3025851,0.4282221794128418,0.040452701716854264,1.3533399309486596,3.5693742032015687,0.0039283085553839525,1.3443345456939195,3.55513150225875,2,21,3.652439316147031,0.9005385254740039,1.4242700942818765,4.0224156790994625,3,-1,0,-0.04777368571518387,0.0257481123644676,-0.03080731889728181,120,252330.00000000003,83,72.0,0,0,0,0,0,0
1778186160.3722181,0.49785518646240234,0.040452701716854264,1.3533399309486596,3.5693742032015687,0.00029435686732559585,1.2866401806887535,3.5660662569810557,2,25,4.015834484952867,6.669975025990604,0.3307946220513003,7.792619491535121,3,3,25,-0.05218720032400626,-0.8285490954613328,0.1570340731446951,120,252330.00000000003,83,72.0,0,0,0,0,0,0
1778186160.443886,0.5695230960845947,0.040452701716854264,1.3533399309486596,3.5693742032015687,0.006645845645904869,1.3420879837682311,3.5570403594074596,2,28,3.3806856070949394,1.1251947180428434,1.2333843794109178,3.7704555898333094,0,-3,-18,0.08862388776318512,0.7736768572123649,-0.1259405725823103,120,252319.99999999997,83,72.0,0,0,0,0,0,0
1778186160.515798,0.6414351463317871,0.040452701716854264,1.3533399309486596,3.5693742032015687,0.06672198691517472,1.3452796877687319,3.571263095178089,2,32,-2.6269285198320462,0.8060243179927706,-0.18888919765203127,2.7542889787551927,-22,5,0,0.8354113262347901,0.04438343767879625,0.19777958939760282,120,252339.0,83,72.0,0,0,0,0,0,0
1778186160.58811,0.7137470245361328,0.040452701716854264,1.3533399309486596,3.5693742032015687,0.057422918122460254,1.2850338192806001,3.601286104415425,2,35,-1.697021640560599,6.830611166805944,-3.1911901213856453,7.727925061195559,2,12,26,-0.1285966984073666,-0.8331393124361021,0.41518779463166894,120,252339.0,83,72.0,0,0,0,0,0,0
1778186160.658369,0.7840061187744141,0.040452701716854264,1.3533399309486596,3.5693742032015687,-0.004997462075534198,1.282470806762713,3.56684702891956,2,39,4.545016379238846,7.086912418594649,0.25271742820085485,8.422907313683138,24,-12,6,-0.8884313251505623,-0.03647944149684986,-0.49017249466760965,120,252332.00000000003,83,72.0,0,0,0,0,0,0
1778186160.730182,0.8558189868927002,0.040452701716854264,1.3533399309486596,3.5693742032015687,-0.004997462075534198,1.282470806762713,3.56684702891956,2,42,4.545016379238846,7.086912418594649,0.25271742820085485,8.422907313683138,2,0,5,0.0,0.0,0.0,120,252326.00000000003,83,72.0,0,0,0,0,0,0
1778186160.801707,0.9273440837860107,0.040452701716854264,1.3533399309486596,3.5693742032015687,-0.004997462075534198,1.282470806762713,3.56684702891956,2,46,4.545016379238846,7.086912418594649,0.25271742820085485,8.422907313683138,2,0,5,0.0,0.0,0.0,120,252330.00000000003,83,72.0,0,0,0,0,0,0
1778186160.873631,0.9992680549621582,0.040452701716854264,1.3533399309486596,3.5693742032015687,0.06613473812221093,1.3454526548589305,3.571145300632694,2,50,-2.568203640535667,0.7887276089729056,-0.17710974311251348,2.6924206657805443,-26,1,-21,0.9889915564247249,0.8756725618218428,0.05976132355938576,120,252330.00000000003,83,72.0,0,0,0,0,0,0
1778186160.943101,1.0687379837036133,0.040452701716854264,1.3533399309486596,3.5693742032015687,0.06750841389679652,1.3426026303068903,3.5732335664451824,2,53,-2.7055712179942253,1.0737300641769254,-0.38593632436136893,2.9363172023501996,-2,0,2,0.01977367473195437,-0.04102529833659511,0.030059996466390716,120,252333.0,83,72.0,0,0,0,0,0,0
1778186161.014585,1.1402220726013184,0.040452701716854264,1.3533399309486596,3.5693742032015687,0.002096092978299491,1.3443046689741844,3.5545858169576237,2,57,3.835660873855477,0.9035261974475128,1.4788386243945073,4.208992469190313,25,-7,0,-0.9150612664603328,0.02381003512165863,-0.2608657363493015,120,252326.00000000003,83,72.0,0,0,0,0,0,0
1778186161.0856562,1.2112932205200195,0.040452701716854264,1.3533399309486596,3.5693742032015687,0.011501088929334213,1.3411957995814157,3.5400947889453964,2,60,2.895161278752005,1.2144131367243904,2.927941425617231,4.292970893038897,-1,-6,2,0.13233212388511256,-0.043743058664607974,-0.2038946666346748,120,252326.00000000003,83,72.0,0,0,0,0,0,0
1778186161.1565802,1.282217264175415,0.040452701716854264,1.3533399309486596,3.5693742032015687,0.017052397344027304,1.401080515422493,3.525817264097879,2,64,2.340030437282696,-4.774058447383345,4.355693910368963,6.873095805186116,0,-7,-24,0.07827117756660477,0.8443499940872542,-0.20130725931094265,120,252327.0,83,72.0,0,0,0,0,0,0
1778186161.227224,1.3528611660003662,0.040452701716854264,1.3533399309486596,3.5693742032015687,-0.05086738253618184,1.3454556672501845,3.520166756593881,2,67,9.13200842530361,0.7884263698475058,4.920744660768772,10.403313031768842,29,-4,20,-0.9614386822589139,-0.7873977333548415,-0.07998577878667446,120,252319.99999999997,82,72.0,0,0,0,0,0,0
1778186161.298033,1.4236700534820557,0.040452701716854264,1.3533399309486596,3.5693742032015687,0.011055811056647658,1.3420174795632875,3.5401063504144545,2,71,2.9396890660206605,1.1322451385372023,2.926785278711419,4.299979409986103,-20,5,2,0.8745116015110713,-0.04855587778844923,0.28159733233670325,120,252319.99999999997,82,72.0,0,0,0,0,0,0
1778186161.369055,1.494692087173462,0.040452701716854264,1.3533399309486596,3.5693742032015687,0.012246371268622602,1.3391451739389892,3.541973932797962,2,74,2.820633044823166,1.4194757009670322,2.740027040360671,4.180745175335601,1,-1,2,0.016763251488235036,-0.04044245813600029,0.026295816754870846,120,252319.99999999997,82,72.0,0,0,0,0,0,0
1778186161.441086,1.566723108291626,0.040452701716854264,1.3533399309486596,3.5693742032015687,-0.05835236209260275,1.2826363390545152,3.5334013216951137,2,78,9.880506380945702,7.070359189414432,3.5972881506455057,12.671024719809381,30,-5,24,-0.9801156816229344,-0.7845069250340555,-0.11901276657990613,120,252326.00000000003,82,72.0,0,0,0,0,0,0
1778186161.51124,1.6368770599365234,0.040452701716854264,1.3533399309486596,3.5693742032015687,-0.007390375013596628,1.2177172242708236,3.5804576287716614,2,82,4.784307673045089,13.562270667783594,-1.1083425570092675,14.424049667144773,-14,17,30,0.7264307410217392,-0.9253807271227807,0.6707577545272932,120,252329.0,82,72.0,0,0,0,0,0,0
1778186161.5832572,1.7088942527770996,0.040452701716854264,1.3533399309486596,3.5693742032015687,0.07045957707227335,1.3997285726962603,3.5414275355380944,2,85,-3.0006875355419087,-4.638864174760071,2.794666766347431,6.191393126975206,-28,-15,-30,1.0809912052279758,2.527331894598469,-0.5419552150549323,120,252329.0,82,72.0,0,0,0,0,0,0
1778186161.654834,1.7804710865020752,0.040452701716854264,1.3533399309486596,3.5693742032015687,0.07053233607078979,1.3428790385788574,3.555587930246327,2,89,-3.007963435393553,1.0460892369802188,1.3786272955241596,3.4702679925842475,-1,3,20,0.0010165160252269473,-0.7942448856544791,0.19783488555308465,120,252328.00000000003,82,72.0,0,0,0,0,0,0
1778186161.7256372,1.8512742519378662,0.040452701716854264,1.3533399309486596,3.5693742032015687,0.01589354861454706,1.3320117716594355,3.5283274952694192,2,92,2.4559153102307203,2.1328159289224047,4.104670793214948,5.237246043328748,21,-12,5,-0.7716997837588602,-0.1534856083415792,-0.3850171783863173,120,252326.00000000003,82,72.0,0,0,0,0,0,0
1778186161.795742,1.9213790893554688,0.040452701716854264,1.3533399309486596,3.5693742032015687,0.013250045120904441,1.3342834683625548,3.5264361671908087,2,96,2.720265659594982,1.9056462586104717,4.293803601076007,5.42845118669599,2,-3,0,-0.03770786141184124,0.03240427888859111,-0.026978567361111896,120,252326.00000000003,82,72.0,0,0,0,0,0,0
1778186161.865605,1.9912421703338623,0.040452701716854264,1.3533399309486596,3.5693742032015687,0.004600695788358977,1.278792056247113,3.5547237714399116,2,99,3.5852005928495285,7.454787470154667,1.4650431761657146,8.400825615626918,5,9,25,-0.12380429278835318,-0.7942880751652464,0.40490061206793027,120,252335.0,82,72.0,0,0,0,0,0,0
1778186161.937275,2.0629119873046875,0.040452701716854264,1.3533399309486596,3.5693742032015687,0.01354125903665937,1.3356329511527596,3.526717242504999,2,103,2.6911442680194892,1.7706979795899969,4.265696069656988,5.345445890185899,-1,-12,-17,0.12474656174913701,0.7930939035156886,-0.3907715984026221,120,252325.0,82,72.0,0,0,0,0,0,0
1778186162.009422,2.135059118270874,0.040452701716854264,1.3533399309486596,3.5693742032015687,-0.04729413861248655,1.2790271860570903,3.5214607052189337,2,106,8.774684032934081,7.431274489156925,4.7913497982635,12.45696404828811,26,-4,25,-0.8432129848331443,-0.7845878878010953,-0.07285857685080677,120,252325.0,82,72.0,0,0,0,0,0,0
1778186162.080144,2.2057809829711914,0.040452701716854264,1.3533399309486596,3.5693742032015687,0.013697236947176061,1.33632111645539,3.5268679381437247,2,110,2.67554647696782,1.7018814493269474,4.250626505784405,5.303091090077093,-19,0,-18,0.8624118696263519,0.8101303697390018,0.07645772559453858,120,252326.00000000003,82,72.0,0,0,0,0,0,0
1778186162.15149,2.2771270275115967,0.040452701716854264,1.3533399309486596,3.5693742032015687,0.022146915153591684,1.4038886683765819,3.509345826353413,2,114,1.830578656326258,-5.054873742792232,6.002837684815576,8.058338975422268,-1,-10,-26,0.11843232881158999,0.9470399144962603,-0.24559331779617363,120,252333.0,82,72.0,0,0,0,0,0,0
1778186162.2208798,2.3465168476104736,0.040452701716854264,1.3533399309486596,3.5693742032015687,0.0714040587614917,1.3471609225997825,3.5563315346974074,2,117,-3.0951357044637433,0.617900834887708,1.3042668504161359,3.415081036797755,-19,15,21,0.7098612381140503,-0.817522594754753,0.6771268217303658,120,252333.0,82,72.0,0,0,0,0,0,0
1778186162.291438,2.4170751571655273,0.040452701716854264,1.3533399309486596,3.5693742032015687,0.018419598112287883,1.3422738370228546,3.5260823526546807,2,121,2.203310360456638,1.1066093925804932,4.3291850546888,4.9820682582622045,20,-13,3,-0.7509315484360102,-0.06926307628040129,-0.4287118304488923,120,252325.0,82,72.0,0,0,0,0,0,0
1778186162.361654,2.487291097640991,0.040452701716854264,1.3533399309486596,3.5693742032015687,0.08036248640243127,1.400981290602215,3.527727391333591,2,124,-3.9909784685577003,-4.764135965355543,4.164681186797781,7.481274625393238,-24,-2,-23,0.8821770081081317,0.8360986576812282,0.023428279501362413,120,252326.00000000003,82,72.0,0,0,0,0,0,0
1778186162.4327638,2.558400869369507,0.040452701716854264,1.3533399309486596,3.5693742032015687,0.07804004294226574,1.337153329811752,3.5454308551052707,2,128,-3.758734122541148,1.618660113690762,2.3943348096298056,4.741411387784607,-1,4,24,-0.03265997631144419,-0.8975976049275868,0.24895964846109203,120,252327.0,82,71.5,0,-1,0,0,0,0
1778186162.504548,2.630185127258301,0.040452701716854264,1.3533399309486596,3.5693742032015687,0.0817755385097153,1.3984414995006507,3.5296531467018886,2,131,-4.132283679286104,-4.51015685519911,3.9721056499680163,7.293483842382985,-3,-8,-23,0.05203780992256665,0.853782869551212,-0.219793431978143,120,252327.0,82,71.5,0,-1,0,0,0,0
1778186162.577066,2.7027029991149902,0.040452701716854264,1.3533399309486596,3.5693742032015687,-0.04831420308804546,1.2843709842238278,3.5201373546881176,2,135,8.876690480489973,6.896894672483178,4.9236848513451115,12.272141725270021,30,-6,30,-1.7938990522894194,-1.5729986602785335,-0.13121995682079798,120,252325.0,82,71.5,0,0,0,0,0,0
1778186162.648349,2.7739861011505127,0.040452701716854264,1.3533399309486596,3.5693742032015687,0.014300391561818726,1.2787276995581283,3.5410854065639548,2,138,2.6152310155035536,7.46122313905313,2.8288796637613967,8.397133090956483,-20,5,7,0.8783932357301384,-0.07916721501383746,0.2938712160056968,120,252328.00000000003,82,71.5,0,-1,0,0,0,0
1778186162.720531,2.846168041229248,0.040452701716854264,1.3533399309486596,3.5693742032015687,-0.05819534993700026,1.2209300269224688,3.5309099820600895,2,142,9.864805165385453,13.24099040261908,3.8464221141479182,16.953854159850266,30,-6,29,-1.0043473674958217,-0.8007220722055178,-0.1409691190450958,120,252328.00000000003,82,71.5,0,-1,0,0,0,0
1778186162.7907991,2.916436195373535,0.040452701716854264,1.3533399309486596,3.5693742032015687,0.021928390596808733,1.3351531012239088,3.51263282562261,2,145,1.8524311120045531,1.818682972475072,5.674137757895892,6.239787502365205,-27,-10,-30,1.1402567992505486,1.6255311626216462,-0.26010582830950446,120,252338.0,82,71.5,0,0,0,0,0,0
1778186162.8620632,2.9877002239227295,0.040452701716854264,1.3533399309486596,3.5693742032015687,0.07819503500262703,1.4007761899299913,3.5272477016903228,2,149,-3.774233328577277,-4.743625898133175,4.212650151124597,7.38195402151445,-21,2,-25,0.7895518335309493,0.920844499560983,0.20508068888673808,120,252337.0,82,71.5,0,0,0,0,0,0
1778186162.932638,3.058274984359741,0.040452701716854264,1.3533399309486596,3.5693742032015687,-0.04034320194660812,1.3388262010610363,3.4928310099258817,2,153,8.079590366346238,1.4513729887623228,7.654319327568704,11.223852654452287,30,-17,23,-1.6796123177071363,-0.8777924074463648,-0.48766289182317685,120,252337.0,82,71.5,0,0,0,0,0,0
1778186163.0038679,3.129504919052124,0.040452701716854264,1.3533399309486596,3.5693742032015687,0.021399373277537492,1.3899941910572187,3.499283321421587,2,156,1.9053328439316772,-3.66542601085591,7.009088177998191,8.135905491964483,-19,-2,-19,0.8668065679238681,0.7183495284273247,0.0905842680267841,120,252327.0,82,71.5,0,0,0,0,0,0
1778186163.074184,3.1998209953308105,0.040452701716854264,1.3533399309486596,3.5693742032015687,0.07750018919016788,1.400937564969257,3.5271416001070652,2,160,-3.7047487473313616,-4.759763402059747,4.22326030945035,7.363181280249681,-21,6,-6,0.7978376906339849,0.15563117982673058,0.3961864791070904,120,252338.0,82,71.5,0,0,0,0,0,0
1778186163.144038,3.2696750164031982,0.040452701716854264,1.3533399309486596,3.5693742032015687,0.07507040175566337,1.337208079902004,3.5447635573456293,2,163,-3.461770003880911,1.6131851046655488,2.4610645855939417,4.543463066444925,0,4,24,-0.03478378763602723,-0.9123237873623902,0.25226832998350884,120,252336.0,82,71.5,0,0,0,0,0,0
1778186163.2151701,3.3408071994781494,0.040452701716854264,1.3533399309486596,3.5693742032015687,-0.03716957371311813,1.3356092488931028,3.4954425324695095,2,167,7.762227542997239,1.7730682055556723,7.39316707320592,10.865305640576963,30,-22,2,-1.5779070825158779,-0.022476900606530882,-0.6933714493782762,120,252323.99999999997,81,71.5,0,0,0,0,0,0
1778186163.287198,3.412835121154785,0.040452701716854264,1.3533399309486596,3.5693742032015687,0.0030599016002818002,1.277409940635831,3.5383399965881597,2,170,3.739280011657246,7.592999031282854,3.1034206613409054,9.014824962021137,-11,12,26,0.5585261156639687,-0.8080103785106212,0.5955671511838877,120,252323.99999999997,81,71.5,0,0,0,0,0,0
1778186163.355842,3.4814791679382324,0.040452701716854264,1.3533399309486596,3.5693742032015687,0.01961969251327511,1.3342842632827026,3.511971222390335,2,174,2.083300920357915,1.905566766595701,5.740298081123374,6.397057877404802,-4,-13,-18,0.24124147233386184,0.8285397687332462,-0.3841378157819101,120,252327.0,81,71.5,0,0,0,0,0,0
1778186163.425739,3.5513761043548584,0.040452701716854264,1.3533399309486596,3.5693742032015687,-0.0518886987938425,1.2841375967375606,3.5190175618486417,2,177,9.234140051069677,6.9202334211099,5.035664135292706,12.590348937535003,30,-1,23,-1.0230547284774605,-0.717437260000052,0.10081041916209951,120,252319.99999999997,81,72.5,0,0,0,0,0,0
1778186163.497205,3.6228420734405518,0.040452701716854264,1.3533399309486596,3.5693742032015687,0.07589998057938496,1.3997372207946421,3.5267876892748102,2,181,-3.54472788625307,-4.639728984598257,4.25865139267585,7.226914453792939,-30,0,-30,1.7881053179310942,1.6175478418052158,0.1087248591962919,120,252319.99999999997,81,72.5,0,0,0,0,0,0
1778186163.569296,3.6949329376220703,0.040452701716854264,1.3533399309486596,3.5693742032015687,-0.04259431552260873,1.337982529999985,3.4921562112224924,2,184,8.3047017239463,1.5357400948674549,7.721799197907631,11.44345888337556,30,-17,23,-1.64367978449579,-0.8566229784562459,-0.4803865017503292,120,252325.0,81,72.5,0,0,0,0,0,0
1778186163.639541,3.7651779651641846,0.040452701716854264,1.3533399309486596,3.5693742032015687,-0.10576233262277523,1.280168257890605,3.4859707874294927,2,188,14.621503433962951,7.31716730580545,8.3403415772076,18.354579746620086,30,-8,26,-0.8992525066958676,-0.8230372188937978,-0.0880549700018456,120,252330.00000000003,81,72.5,0,0,0,0,0,0
1778186163.710499,3.8361361026763916,0.040452701716854264,1.3533399309486596,3.5693742032015687,-0.05309208612471972,1.285300903468348,3.5189196250230967,2,191,9.354478784157399,6.803902748031154,5.045457817847199,12.619667607333888,-11,7,3,0.7422721106369876,0.07233343148077949,0.46434191692159016,120,252327.0,81,72.5,0,0,0,0,0,0
1778186163.782191,3.9078280925750732,0.040452701716854264,1.3533399309486596,3.5693742032015687,-0.06241547163591732,1.2218017527219005,3.5297617621007955,2,195,10.286817335277158,13.153817822675906,3.961244110077322,17.161963439569707,10,0,30,-0.130047799264239,-0.8857216940998205,0.151232196135459,120,252327.0,81,72.5,0,0,0,0,0,0
1778186163.853423,3.979060173034668,0.040452701716854264,1.3533399309486596,3.5693742032015687,-0.06400102079928893,1.2251786127101223,3.5277701045021095,2,199,10.44537225161432,12.816131823853727,4.160409869945925,17.048989608980765,7,-4,8,-0.022258919761174056,0.047406448982453386,-0.027960121139740703,120,252334.0,81,72.5,0,0,0,0,0,0
1778186163.925633,4.051270008087158,0.040452701716854264,1.3533399309486596,3.5693742032015687,-0.05046204871029736,1.3398001129237236,3.5086428692375407,2,202,9.091475042715162,1.353981802493598,6.073133396402808,11.016856830525647,1,-11,-30,0.1874948485777585,1.5873391779704453,-0.26488407362605115,120,252334.0,81,72.5,0,0,0,0,0,0
1778186163.995724,4.121361017227173,0.040452701716854264,1.3533399309486596,3.5693742032015687,-0.011072503963804214,1.220611631099146,3.56446475172475,2,206,5.152520568065848,13.272829984951361,0.4909451476818649,14.246315704482965,-9,18,30,0.5619771384345189,-1.7004817491853383,0.7964200140948029,120,252334.0,81,72.5,0,0,0,0,0,0
1778186164.067125,4.192762136459351,0.040452701716854264,1.3533399309486596,3.5693742032015687,-0.05435175332669351,1.2864829970311997,3.5188238427283687,2,209,9.480445504354778,6.685693391745984,5.055036047320005,12.65427724246554,21,-20,-17,-0.6061424502626704,0.922553688799434,-0.6392183972350507,120,252330.00000000003,81,72.5,0,0,0,0,0,0
1778186164.139126,4.264763116836548,0.040452701716854264,1.3533399309486596,3.5693742032015687,-0.002547650425732906,1.2884590981847168,3.5523233225167283,2,213,4.300035214258717,6.488083276394274,1.7050880684840397,7.968240255324805,-14,9,5,0.7194916323301478,0.027445475647202823,0.4652642174156972,120,252328.00000000003,81,72.5,0,0,0,0,0,0
1778186164.211221,4.336858034133911,0.040452701716854264,1.3533399309486596,3.5693742032015687,-0.05009902181832082,1.3420668203053383,3.5090437900786395,2,217,9.05517235351751,1.127311064332126,6.033041312292919,10.939129950023746,22,-19,-16,-0.659566210423089,0.7435714490039657,-0.600313226792087,120,252328.00000000003,81,72.5,0,0,0,0,0,0
1778186164.284085,4.409722089767456,0.040452701716854264,1.3533399309486596,3.5693742032015687,-0.04996515149776082,1.3428392664097106,3.5091913377790407,2,220,9.041785321461509,1.0500664538948934,6.018286542252804,10.91220849606776,6,-4,1,0.0018372614507388546,0.010601195577929236,0.002024972383409634,120,252336.0,81,72.5,0,0,0,0,0,0
1778186164.355743,4.481379985809326,0.040452701716854264,1.3533399309486596,3.5693742032015687,0.006843831983784132,1.3476840345281627,3.5419961608417307,2,224,3.360886973307013,0.5655896420496909,2.7378042359837984,4.371615825425366,-16,8,0,0.792780511562203,0.0676096897349763,0.45779774281290664,120,252332.00000000003,81,72.5,0,0,0,0,0,0
1778186164.425229,4.55086612701416,0.040452701716854264,1.3533399309486596,3.5693742032015687,0.005743916206502719,1.3512436736989977,3.540224029633367,2,227,3.4708785510351543,0.20962572496618925,2.91501735682016,4.537429564320121,3,-3,0,-0.015829282763580692,0.05122804503335092,-0.02550337632276422,120,252337.0,81,72.0,0,0,0,0,0,0
1778186164.495012,4.620649099349976,0.040452701716854264,1.3533399309486596,3.5693742032015687,0.005743916206502719,1.3512436736989977,3.540224029633367,2,231,3.4708785510351543,0.20962572496618925,2.91501735682016,4.537429564320121,3,-2,1,0.0,0.0,0.0,120,252337.0,81,72.0,0,0,0,0,0,0
1778186164.563212,4.688848972320557,0.040452701716854264,1.3533399309486596,3.5693742032015687,-0.06253985644393323,1.2918881538157527,3.533903420473364,2,234,10.29925581607875,6.145177713290684,3.5470782728204586,12.50678390980157,30,-5,26,-1.0012302028757603,-0.8703171618640515,-0.0926777262874004,120,252338.0,81,72.0,0,0,0,0,0,0
1778186164.636629,4.762266159057617,0.040452701716854264,1.3533399309486596,3.5693742032015687,-0.05941913269856136,1.2898331050163496,3.536132144223592,2,238,9.987183441541562,6.350682593230994,3.324205897797672,12.293304980595005,6,-2,6,0.04250671925837421,-0.027991385814920187,0.030356975652171398,120,252330.00000000003,81,72.0,0,0,0,0,0,0
1778186164.70767,4.8333070278167725,0.040452701716854264,1.3533399309486596,3.5693742032015687,0.007743935199584051,1.3482794412050536,3.542273291387468,2,241,3.270876651727021,0.5060489743605956,2.710091181410057,4.277769728120126,-20,0,-18,0.9454145067657254,0.8227142658805366,0.08644527116772792,120,252330.00000000003,81,72.0,0,0,0,0,0,0
1778186164.779501,4.90513801574707,0.040452701716854264,1.3533399309486596,3.5693742032015687,0.06608521884961294,1.4091184402800154,3.541669655945491,2,245,-2.5632517132758674,-5.577850933135586,2.770454725607774,6.7348422226905695,-20,-3,-23,0.8122021613658039,0.846974277090519,-0.008403551995733567,120,252337.0,81,72.0,0,0,0,0,0,0
1778186164.85005,4.975687026977539,0.040452701716854264,1.3533399309486596,3.5693742032015687,0.06160388411576467,1.3536363429536964,3.5734086881916087,2,248,-2.115118239891041,-0.029641200503682796,-0.4034484990039999,2.153456398638165,1,10,21,-0.06352087230831184,-0.7864333795561035,0.44988628036802686,120,252337.0,81,72.0,0,0,0,0,0,0
1778186164.921953,5.047590017318726,0.040452701716854264,1.3533399309486596,3.5693742032015687,0.010918806104466938,1.4138373431100435,3.5240784338615088,2,252,2.9533895612387324,-6.049741216138393,4.529576934005997,8.11412015462901,20,-21,-24,-0.704909180700166,0.8372530804447442,-0.6860667977231992,120,252337.0,81,72.0,0,0,0,0,0,0
1778186164.99213,5.117767095565796,0.040452701716854264,1.3533399309486596,3.5693742032015687,-0.05492046986136345,1.3550513407418423,3.520673586915565,2,256,9.537317157821771,-0.17114097931827388,4.870061628600375,10.710145100326574,30,-5,22,-0.9381877617365608,-0.8376809613138224,-0.04851793535713247,120,252330.00000000003,81,72.0,0,0,0,0,0,0
1778186165.0617442,5.187381267547607,0.040452701716854264,1.3533399309486596,3.5693742032015687,0.007391600514912611,1.3516272939051182,3.5406481276542667,2,259,3.306110120194165,0.17126370435414096,2.8726075547302,4.383100449085373,-18,4,2,0.8951061055866136,-0.049186059953694024,0.2869321026172747,120,252325.0,81,72.0,0,-1,0,0,0,0
1778186165.1334531,5.259090185165405,0.040452701716854264,1.3533399309486596,3.5693742032015687,0.007391600514912611,1.3516272939051182,3.5406481276542667,2,263,3.306110120194165,0.17126370435414096,2.8726075547302,4.383100449085373,3,-3,1,0.0,0.0,0.0,120,252333.0,81,72.0,0,0,0,0,0,0
1778186165.205158,5.330795049667358,0.040452701716854264,1.3533399309486596,3.5693742032015687,0.007391600514912611,1.3516272939051182,3.5406481276542667,2,266,3.306110120194165,0.17126370435414096,2.8726075547302,4.383100449085373,3,-3,1,0.0,0.0,0.0,120,252333.0,81,72.0,0,0,0,0,0,0
1778186165.2761312,5.401768207550049,0.040452701716854264,1.3533399309486596,3.5693742032015687,0.008484750708989575,1.3480594060064806,3.5424117806552,2,270,3.196795100786469,0.528052494217901,2.6962422546368714,4.215217746303438,2,-2,2,0.015402304571029538,-0.050270947567739116,0.024849577693138277,120,252339.0,81,72.0,0,0,0,0,0,0
1778186165.3459089,5.471545934677124,0.040452701716854264,1.3533399309486596,3.5693742032015687,0.0012376083912115643,1.286459632289604,3.555099535618054,2,273,3.92150933256427,6.688029865905554,1.4274667583514589,7.883250616264319,6,2,27,-0.1038603952315605,-0.8827999456716976,0.1818310152141802,120,252327.0,81,72.0,0,0,0,0,0,0
1778186165.418588,5.544224977493286,0.040452701716854264,1.3533399309486596,3.5693742032015687,-0.12411362189388253,1.2418230547023197,3.521940076606221,2,277,16.45663236107368,11.151687624633988,4.743412659534751,20.437241722003165,30,-15,24,-1.7247231860519072,-0.6141602291074507,-0.4562451255131148,120,252327.0,81,72.0,0,0,0,0,0,0
1778186165.4904299,5.616066932678223,0.040452701716854264,1.3533399309486596,3.5693742032015687,-0.06274565125545029,1.2961777168654272,3.531641028183016,2,280,10.319835297230455,5.716221408323241,3.773317501855278,12.385964343592464,-13,0,-13,0.8542079691519808,0.7565866216083202,0.13503184249123534,120,252335.0,81,71.5,0,0,0,0,0,0
1778186165.5609019,5.686538934707642,0.040452701716854264,1.3533399309486596,3.5693742032015687,0.009215837947697536,1.3478331748588146,3.542555957338449,2,284,3.1236863769156726,0.5506756089844966,2.681824586311965,4.15365421278738,-21,0,-16,1.021135871421775,0.7329926283607435,0.15488319958437718,120,252330.00000000003,81,71.5,0,0,0,0,0,0
1778186165.6334772,5.7591142654418945,0.040452701716854264,1.3533399309486596,3.5693742032015687,-0.06040239109472911,1.291124639513192,3.5343845731480603,2,288,10.085509281158338,6.221529143546767,3.4989630053508414,12.355875705798699,30,-6,25,-0.9592547266142787,-0.7813748111361802,-0.11259175959265959,120,252330.00000000003,81,71.5,0,0,0,0,0,0
1778186165.7053719,5.8310089111328125,0.040452701716854264,1.3533399309486596,3.5693742032015687,0.00368750650479277,1.3467302566797255,3.5417519837699083,2,291,3.676519521206149,0.6609674268934107,2.7622219431660433,4.645809272078653,-18,0,-17,0.8914418728071983,0.7734319660686205,0.10247509464781551,120,252328.00000000003,81,71.5,0,0,0,0,0,0
1778186165.7769759,5.902612924575806,0.040452701716854264,1.3533399309486596,3.5693742032015687,0.06835213418538422,1.4085871030895167,3.5420239880393933,2,295,-2.7899432468529954,-5.524717214085717,2.7350215162175395,6.766581582338942,-22,-2,-23,0.9030866367857098,0.8638740125794485,0.003798729378508808,120,252328.00000000003,81,71.5,0,0,0,0,0,0
1778186165.8495202,5.975157260894775,0.040452701716854264,1.3533399309486596,3.5693742032015687,0.013072927191264294,1.413255648957887,3.524480327179162,2,298,2.737977452558997,-5.991571800922735,4.489387602240669,7.97182878764253,22,-10,-4,-0.7620058270443489,0.06435438113105175,-0.24183363926707774,120,252323.99999999997,81,71.5,0,0,0,0,0,0
1778186165.921176,6.046813011169434,0.040452701716854264,1.3533399309486596,3.5693742032015687,0.0045780429255106725,1.3472990461260093,3.542074765487504,2,302,3.587465879134359,0.6040884822650305,2.7299437714064734,4.548343360323572,6,3,25,-0.11855132676990371,-0.9204648975004018,0.2455411916127045,120,252323.99999999997,81,71.5,0,0,0,0,0,0
1778186165.990957,6.116594076156616,0.040452701716854264,1.3533399309486596,3.5693742032015687,0.0648569365353574,1.353604125460742,3.5741164243369536,2,305,-2.440423481850314,-0.02641945120824829,-0.47422211353849164,2.486212253838651,-21,10,0,0.8638287997025949,0.09035516061399901,0.4591741162926513,120,252319.99999999997,81,71.5,0,0,0,0,0,0
1778186166.0621061,6.187743186950684,0.040452701716854264,1.3533399309486596,3.5693742032015687,0.06715776150986441,1.4180407741785395,3.556023904211782,2,309,-2.670505979301015,-6.47008432298799,1.335029898978668,7.125720887266384,0,-8,-25,0.03233807069165591,0.9056564164842709,-0.2542901790795143,120,252319.99999999997,81,71.5,0,0,0,0,0,0
1778186166.133418,6.259055137634277,0.040452701716854264,1.3533399309486596,3.5693742032015687,-0.052151962974238186,1.3541032611672077,3.521320071074072,2,313,9.260466469109245,-0.07633302185481305,4.805413212749654,10.433315010148553,30,-16,23,-1.6730677444720548,-0.8965890344946269,-0.4866482098027075,120,252331.0,81,71.5,0,-1,0,0,0,0
1778186166.203816,6.329452991485596,0.040452701716854264,1.3533399309486596,3.5693742032015687,0.013772019074812958,1.4130503020768814,3.524626034587778,2,316,2.6680682642041305,-5.971037112822186,4.474816861379072,7.92438378727555,-20,-3,-23,0.9364487472627202,0.8373414484221497,0.04696114061499776,120,252332.00000000003,81,71.5,0,0,0,0,0,0
1778186166.275286,6.400923013687134,0.040452701716854264,1.3533399309486596,3.5693742032015687,-0.007108130233731691,1.2934777000296536,3.568121438668774,2,320,4.756083195058595,5.9862230919006,0.1252764532794881,7.646625952279152,11,13,30,-0.29215255103272225,-1.6730455422281172,0.6085824901291241,120,252330.00000000003,81,71.5,0,0,0,0,0,0
1778186166.3457768,6.471413850784302,0.040452701716854264,1.3533399309486596,3.5693742032015687,-0.007108130233731691,1.2934777000296536,3.568121438668774,2,323,4.756083195058595,5.9862230919006,0.1252764532794881,7.646625952279152,4,-1,5,0.0,0.0,0.0,120,252330.00000000003,81,71.5,0,0,0,0,0,0
1778186166.4171252,6.542762279510498,0.040452701716854264,1.3533399309486596,3.5693742032015687,-0.003748249914737656,1.2897415219516213,3.570852018661273,2,327,4.420095163159192,6.359840899703828,-0.1477815459704157,7.746396381948078,3,0,7,0.04709116064612676,-0.05236524678588341,0.038271059941316944,120,252332.00000000003,81,71.5,0,0,0,0,0,0
1778186166.488082,6.6137189865112305,0.040452701716854264,1.3533399309486596,3.5693742032015687,-0.008041042031957657,1.2929406818142615,3.5677461145638256,2,330,4.849374374881192,6.039924913439809,0.1628088637743108,7.747491949906675,6,-2,4,-0.06049875055751517,0.04508608132853694,-0.04377181846129367,120,252328.00000000003,81,72.0,0,0,0,0,0,0
1778186166.558732,6.684369087219238,0.040452701716854264,1.3533399309486596,3.5693742032015687,-0.07225149569033418,1.2348852740673975,3.5595979005253713,2,334,11.270419740718845,11.845465688126211,0.9776302676197446,16.379657488504655,30,-5,30,-0.9088515517303234,-0.8217314223910759,-0.11533195220952858,120,252328.00000000003,81,72.0,0,0,0,0,0,0
1778186166.6283169,6.75395393371582,0.040452701716854264,1.3533399309486596,3.5693742032015687,-0.0005454946447971398,1.354262897134272,3.5554369485285653,2,337,4.09981963616514,-0.09229661856124949,1.393725467300344,4.3312250453058505,-21,-3,-30,1.0304829953035708,1.7155692521753048,-0.05979681218396276,120,252327.0,81,72.0,0,0,0,0,0,0
1778186166.6994429,6.825079917907715,0.040452701716854264,1.3533399309486596,3.5693742032015687,-0.06169398027093376,1.2970152839387996,3.550448463101943,2,341,10.214668198778803,5.632464700985995,1.8925740099625887,11.817188388198865,29,-4,25,-0.8597207661993246,-0.8048762185282541,-0.07013590719762484,120,252333.0,81,72.0,0,0,0,0,0,0
1778186166.7697642,6.895401239395142,0.040452701716854264,1.3533399309486596,3.5693742032015687,-0.0003668637225924254,1.3550565934096195,3.5556112226530554,2,344,4.081956543944669,-0.17166624609599168,1.3762980548513326,4.311152382193066,-17,0,-19,0.8720984653183237,0.8253728491322149,0.07341670267154532,120,252333.0,81,72.0,0,0,0,0,0,0
1778186166.8416362,6.967273235321045,0.040452701716854264,1.3533399309486596,3.5693742032015687,-0.050709218323778504,1.3513309004136296,3.5240338134047158,2,348,9.116192004063278,0.20090305350299875,4.534038979685295,10.183458555970056,25,-15,3,-0.7004446440180498,-0.0518378952468625,-0.43935623105408766,120,252336.0,81,72.0,0,0,0,0,0,0
1778186166.912192,7.037829160690308,0.040452701716854264,1.3533399309486596,3.5693742032015687,-0.008840089503985293,1.2993107410049678,3.5846951603934665,2,352,4.929279122083956,5.402918994369177,-1.5320957191897744,7.472392094629915,-9,20,23,0.5934176130589489,-0.7372897334477322,0.859762616268902,120,252341.0,81,72.0,0,0,0,0,0,0
1778186166.9847329,7.110369920730591,0.040452701716854264,1.3533399309486596,3.5693742032015687,9.609099092311446e-06,1.3566708717800782,3.5559790845702217,2,355,4.0443092617761955,-0.3330940831418605,1.3395118631347014,4.27336882384278,1,-12,-18,0.1219962211336524,0.7907296634782603,-0.39586124831471575,120,252331.0,81,72.0,0,0,0,0,0,0
1778186167.055984,7.181621074676514,0.040452701716854264,1.3533399309486596,3.5693742032015687,-0.05836241621011884,1.3571916028737174,3.5387901131624893,2,359,9.88151179269731,-0.38516719250578646,3.058409003907947,10.351159099858528,28,-9,1,-0.819243227323918,0.00730838821269444,-0.24124481437561401,120,252331.0,81,72.0,0,0,0,0,0,0
1778186167.126355,7.2519919872283936,0.040452701716854264,1.3533399309486596,3.5693742032015687,-0.0017474804347827888,1.365928669448085,3.570269308218978,2,362,4.220018215163705,-1.2588738499425434,-0.08951050174093034,4.4046940003029205,-15,9,-2,0.8045218361151356,0.12415735788457057,0.44733248319440533,120,252340.0,81,72.0,0,0,0,0,0,0
1778186167.1960058,7.321642875671387,0.040452701716854264,1.3533399309486596,3.5693742032015687,0.007351761830330039,1.4164588507095495,3.542305774818198,2,366,3.3100939886524223,-6.31189197608899,2.706842838337087,7.623890127945591,0,-13,-20,0.13064072072189348,0.7254779140803304,-0.40148135976280264,120,252340.0,81,72.0,0,0,0,0,0,0
1778186167.268346,7.3939831256866455,0.040452701716854264,1.3533399309486596,3.5693742032015687,-0.05656365334850766,1.3582002871926822,3.539640830064104,2,369,9.701635506536192,-0.486035624402259,2.9733373137464714,10.158675942817988,30,-4,21,-0.8835387652842777,-0.8053409202287631,-0.036839031570000465,120,252337.0,81,72.0,0,0,0,0,0,0
1778186167.3397272,7.465364217758179,0.040452701716854264,1.3533399309486596,3.5693742032015687,-8.309678183660019e-05,1.3661830435526308,3.5708749320037145,2,373,4.053579849869086,-1.2843112603971196,-0.1500728802145801,4.254819253766653,-14,9,-2,0.791253747001659,0.1118329256149351,0.4375682836052698,120,252336.0,81,72.0,0,0,0,0,0,0
1778186167.410008,7.535645008087158,0.040452701716854264,1.3533399309486596,3.5693742032015687,0.0019823331678994194,1.3630260066901592,3.5731114823492542,2,376,3.8470368548954843,-0.96860757414996,-0.3737279147685513,3.984666328552751,3,0,1,0.029388257304277392,-0.04492033808518268,0.031823067655764474,120,252336.0,81,72.0,0,0,0,0,0,0
1778186167.48188,7.6075170040130615,0.040452701716854264,1.3533399309486596,3.5693742032015687,0.05749189492542517,1.3685461009048985,3.6047662276663317,2,380,-1.7039193208570904,-1.5206169956238913,-3.5392024464762972,4.2120744362504,-18,11,-1,0.7723392267379567,0.07680452092119819,0.44043225611421766,120,252336.0,81,72.0,0,0,0,0,0,0
1778186167.5519109,7.677547931671143,0.040452701716854264,1.3533399309486596,3.5693742032015687,0.0582317176472158,1.3682462314778068,3.604980405136719,2,383,-1.7779015930361532,-1.490630052914721,-3.5606201935150406,4.249815077346321,0,0,0,0.01056422849919593,-0.004281957088385089,0.003058326907122139,120,252342.0,81,71.5,0,0,0,0,0,0
1778186167.620254,7.745891094207764,0.040452701716854264,1.3533399309486596,3.5693742032015687,-0.00966458861854047,1.3114963479964619,3.598407014577796,2,387,5.011729033539473,4.18435829521977,-2.9032811376227485,7.145300806297314,29,-2,24,-0.9934615804379058,-0.8303666581267142,-0.09618212436980254,120,252342.0,81,71.5,0,0,0,0,0,0
1778186167.688399,7.814036130905151,0.040452701716854264,1.3533399309486596,3.5693742032015687,-0.06324568287367649,1.302850053931302,3.5684724695111534,2,390,10.369838459053076,5.048987701735763,0.09017336904153517,11.534034754396206,28,-12,8,-0.786280217194307,-0.1268807602754051,-0.43927696744186157,120,252337.0,81,71.5,0,0,0,0,0,0
1778186167.7568471,7.882484197616577,0.040452701716854264,1.3533399309486596,3.5693742032015687,-0.004574094295759057,1.3077786947079688,3.6019126579943577,2,394,4.502679601261332,4.556123624069075,-3.253845479278894,7.184698773952804,-15,12,3,0.8571694044373003,0.07200555126627356,0.488548327072359,120,252333.0,81,71.5,0,0,0,0,0,0
1778186167.825878,7.951514959335327,0.040452701716854264,1.3533399309486596,3.5693742032015687,0.06482772014211147,1.424587080739569,3.5732330167711286,2,397,-2.4375018425257204,-7.124714979090951,-0.385881356955986,7.540018778971672,-24,-11,-30,1.0053751792661987,1.6921207751916345,-0.4154617522558667,120,252333.0,81,71.5,0,0,0,0,0,0
1778186167.895089,8.020725965499878,0.040452701716854264,1.3533399309486596,3.5693742032015687,0.0045788351488138535,1.3658948039097192,3.5727335530032533,2,401,3.587386656804041,-1.2554872961059615,-0.3359349801684619,3.8155528678030284,26,-1,21,-0.8705101736283747,-0.848019413130733,-0.007216536726655214,120,252336.0,81,71.5,0,0,0,0,0,0
1778186167.96433,8.089967012405396,0.040452701716854264,1.3533399309486596,3.5693742032015687,-0.06815224213491655,1.3135999075475824,3.5810117969850297,2,404,10.860494385177082,3.9740023401077185,-1.1637593783460964,11.623139368532627,30,2,23,-1.050404067156511,-0.7552586030869155,0.11955688643865206,120,252342.0,81,71.5,0,0,0,0,0,0
1778186168.034336,8.15997314453125,0.040452701716854264,1.3533399309486596,3.5693742032015687,0.005831312126395871,1.4222047664257311,3.5593593717639953,2,408,3.462138959045839,-6.886483547707156,1.0014831437573424,7.7725819591571,-22,-9,-30,1.0568153390949733,1.551362081865955,-0.30929326565433496,120,252342.0,81,71.5,0,0,0,0,0,0
1778186168.103594,8.229231119155884,0.040452701716854264,1.3533399309486596,3.5693742032015687,0.06429811315761735,1.4337760789242044,3.587912415793351,2,411,-2.384541144076309,-8.043614797554488,-1.8538212591782344,8.591997948103309,-19,9,-8,0.8441887211992757,0.16707552539888476,0.41227084944525616,130,252338.0,81,71.5,0,0,0,0,0,0
1778186168.173525,8.299162149429321,0.040452701716854264,1.3533399309486596,3.5693742032015687,0.06305979830034869,1.3679016658611718,3.6069245554400764,2,415,-2.260709658349443,-1.4561734912512225,-3.7550352238507667,4.618607899393194,1,7,24,-0.017707659281247894,-0.9419911705212543,0.27186986338376407,130,252332.00000000003,81,71.5,0,0,0,0,0,0
1778186168.243066,8.368703126907349,0.040452701716854264,1.3533399309486596,3.5693742032015687,0.002609636156645556,1.373120831701642,3.587701859971484,2,418,3.7843065560208706,-1.9780900752982333,-1.8327656769915102,4.646810355791816,26,-7,-1,-0.8692739782497794,0.07505166061433624,-0.27642256645970076,130,252332.00000000003,81,71.5,0,0,0,0,0,0
1778186168.3128479,8.438484907150269,0.040452701716854264,1.3533399309486596,3.5693742032015687,0.057987784325617686,1.37920844853605,3.619039752845509,2,422,-1.7535082608763422,-2.5868517587390505,-4.966554964394021,5.8679861500347625,-18,12,-2,0.7935903609250613,0.08723791243525666,0.44908417017928776,130,252333.0,80,71.5,0,0,0,0,0,0
1778186168.383924,8.50956106185913,0.040452701716854264,1.3533399309486596,3.5693742032015687,0.001972552786293491,1.3660558472702191,3.591460525693989,2,425,3.848014893056077,-1.271591632155955,-2.208632249242015,4.615432840865768,24,-9,5,-0.7881016041001413,-0.18504942086000314,-0.3880236243011227,130,252338.0,80,71.5,0,0,0,0,0,0
1778186168.4547572,8.580394268035889,0.040452701716854264,1.3533399309486596,3.5693742032015687,0.06921574402066255,1.4294321994575765,3.5913715100742576,2,429,-2.876304230380829,-7.609226850891693,-2.199730687268886,8.4268780927785,-24,0,-27,0.9493173451244011,0.8947265782267072,-0.0012566933580439876,130,252338.0,80,72.0,0,0,0,0,0,0
1778186168.523176,8.648813009262085,0.040452701716854264,1.3533399309486596,3.5693742032015687,0.0031895841872071617,1.36528696197803,3.592043770807779,2,432,3.72631175296471,-1.1947031029370336,-2.2669567606210084,4.522367492694021,28,0,23,-0.9650303213730447,-0.937538989024641,0.009825681114165654,130,252338.0,80,72.0,0,0,0,0,0,0
1778186168.593181,8.718817949295044,0.040452701716854264,1.3533399309486596,3.5693742032015687,0.06821430073665147,1.4317971775667964,3.589514286567745,2,436,-2.7761599019797205,-7.84572466181368,-2.014008336617623,8.562633289492009,-22,-1,-28,0.928858970793062,0.9500788881106509,-0.03613293917319189,130,252342.99999999997,80,72.0,0,0,0,0,0,0
1778186168.661067,8.786704063415527,0.040452701716854264,1.3533399309486596,3.5693742032015687,-0.008203404890970045,1.3089824609389473,3.619760101959799,2,439,4.865610660782431,4.435747000971224,-5.038589875823041,8.290802524224738,30,12,30,-1.1256750606169084,-1.8091286888196174,0.4455375857627422,130,252341.0,80,72.0,0,0,0,0,0,0
1778186168.730025,8.855662107467651,0.040452701716854264,1.3533399309486596,3.5693742032015687,0.06883307553359519,1.4314452222880294,3.58980361556588,2,442,-2.8380373816740927,-7.810529133936983,-2.0429412364311172,8.55759489736273,-27,-11,-30,1.1171500219225314,1.775902478563848,-0.4344161265838068,130,252341.0,80,72.0,0,0,0,0,0,0
1778186168.799928,8.925565004348755,0.040452701716854264,1.3533399309486596,3.5693742032015687,0.06883307553359519,1.4314452222880294,3.58980361556588,2,446,-2.8380373816740927,-7.810529133936983,-2.0429412364311172,8.55759489736273,0,0,-4,0.0,0.0,0.0,130,252344.99999999997,80,72.0,0,0,0,0,0,0
1778186168.869045,8.99468207359314,0.040452701716854264,1.3533399309486596,3.5693742032015687,0.06763275854095019,1.365236964107079,3.608932994959191,2,449,-2.7180056824095926,-1.189703315841939,-3.9558791757622114,4.9448891719193515,1,7,24,-0.017366433585326208,-0.9579147221484562,0.27676780283714153,130,252338.0,80,72.0,0,0,0,0,0,0
1778186168.9384499,9.0640869140625,0.040452701716854264,1.3533399309486596,3.5693742032015687,0.001498178193186317,1.366093754030298,3.590590891288858,2,453,3.8954523523667945,-1.2753823081638416,-2.121668808728927,4.61547696294441,28,-6,0,-0.9528813826315158,0.012344815108353523,-0.2642770093021134,130,252338.0,80,72.0,0,0,0,0,0,0
1778186169.008678,9.134315013885498,0.040452701716854264,1.3533399309486596,3.5693742032015687,0.06861544741995174,1.3655804113777783,3.609570210847062,2,456,-2.8162745703097474,-1.2240480429118739,-4.019600764549347,5.058348186225958,-23,7,0,0.9557039047892065,-0.007309647474636207,0.27025250015363395,130,252337.0,80,72.0,0,0,0,0,0,0
1778186169.0786371,9.20427417755127,0.040452701716854264,1.3533399309486596,3.5693742032015687,-0.006069458481580803,1.3083487837801062,3.6211003825373655,2,460,4.6522160198435065,4.499114716855335,-5.172617933579682,8.28499386949097,30,5,24,-1.067550010436634,-0.8180719236595659,0.16481288634879218,130,252339.0,80,72.0,0,0,0,0,0,0
1778186169.1483,9.273936986923218,0.040452701716854264,1.3533399309486596,3.5693742032015687,0.0726270525277396,1.4283257743373254,3.5931710404132478,2,463,-3.2174350810885337,-7.498584338866587,-2.3796837211679023,8.4996205915856,-28,-10,-30,1.1296775383998487,1.7222531166756454,-0.40092184590195923,130,252339.0,80,72.0,0,0,0,0,0,0
1778186169.217667,9.34330415725708,0.040452701716854264,1.3533399309486596,3.5693742032015687,0.069225396916063,1.3651583101073972,3.6098940017203094,2,467,-2.8772695199208735,-1.1818379158737624,-4.051979851874066,5.10822488440514,1,7,23,-0.049038408159141074,-0.9106247800783132,0.2410789026938028,130,252342.99999999997,80,72.0,0,0,0,0,0,0
1778186169.284842,9.410479068756104,0.040452701716854264,1.3533399309486596,3.5693742032015687,0.13168508495859577,1.500967942999083,3.581531540020968,2,470,-9.12323832417415,-14.762801205042342,-1.2157336819399234,17.396890104978038,-25,-10,-30,0.9298067782856816,2.021731474758402,-0.42221807318277965,130,252341.0,80,72.0,0,0,0,0,0,0
1778186169.354042,9.479679107666016,0.040452701716854264,1.3533399309486596,3.5693742032015687,0.07021748919429716,1.3654751682207893,3.61056874120694,2,474,-2.9764787477442893,-1.2135237272129729,-4.119453800537132,5.225128245989958,22,11,30,-0.888259554945049,-1.9579869738900668,0.41961249796079,130,252341.0,80,72.0,0,0,0,0,0,0
1778186169.4228969,9.548533916473389,0.040452701716854264,1.3533399309486596,3.5693742032015687,0.07021748919429716,1.3654751682207893,3.61056874120694,2,477,-2.9764787477442893,-1.2135237272129729,-4.119453800537132,5.225128245989958,0,1,0,0.0,0.0,0.0,130,252346.0,80,72.0,0,0,0,0,0,0
1778186169.491772,9.617408990859985,0.040452701716854264,1.3533399309486596,3.5693742032015687,0.13903737927024584,1.4891649563029539,3.5712084997095177,2,480,-9.858467755339158,-13.58250253542943,-0.18342965079489737,16.784141564131293,-29,-15,-30,0.999198776754298,1.7958570525512931,-0.5714729435570959,130,252341.0,80,72.0,0,-1,0,0,0,0
1778186169.559082,9.68471908569336,0.040452701716854264,1.3533399309486596,3.5693742032015687,0.08344276813911855,1.42453874311909,3.579184353307587,2,484,-4.299006642226429,-7.119881217043034,-0.9810150106018156,8.374757137119573,19,2,19,-0.8259475977377779,-0.9601266101889472,0.11849416670431662,130,252341.0,80,72.0,0,-1,0,0,0,0
1778186169.631339,9.756976127624512,0.040452701716854264,1.3533399309486596,3.5693742032015687,0.07799296173946191,1.4359242261298037,3.5911030986663217,2,488,-3.7540260022607645,-8.258429518114418,-2.1728895464752984,9.328226965104092,1,4,-8,-0.07542249521990264,0.15756918227516312,0.16494925671177071,130,252336.0,80,72.0,0,0,0,0,0,0
1778186169.7005498,9.826186895370483,0.040452701716854264,1.3533399309486596,3.5693742032015687,0.07163387455814318,1.3665384094436515,3.6116306766192006,2,491,-3.118117284128892,-1.3198478494991894,-4.2256473417631835,5.414863728697264,2,8,24,-0.09188002659728978,-1.002529215407971,0.29659514872342435,130,252342.0,80,72.0,0,-1,0,0,0,0
1778186169.770192,9.89582896232605,0.040452701716854264,1.3533399309486596,3.5693742032015687,0.07781804773918388,1.4313429585143247,3.5744616923191046,2,495,-3.736534602232962,-7.800302756566513,-0.508748911753587,8.664019816632106,-2,-14,-27,0.08879939168069743,0.9305374165878844,-0.5337145481883934,130,252342.0,80,72.0,0,-1,0,0,0,0
1778186169.841336,9.966973066329956,0.040452701716854264,1.3533399309486596,3.5693742032015687,0.07102207709999797,1.3669961486834257,3.6112761135241485,2,498,-3.056937538314371,-1.3656217734766107,-4.190191032257973,5.363533427523694,2,14,22,-0.09552401754631375,-0.9044573788906806,0.517462714872655,130,252346.0,80,72.0,0,0,0,0,0,0
1778186169.910892,10.036529064178467,0.040452701716854264,1.3533399309486596,3.5693742032015687,0.00848480034928245,1.2977059887614413,3.5934126316054265,2,502,3.196790136757181,5.563394218721829,-2.4038428403857726,6.851954670942402,26,-6,29,-0.8990925108560498,-0.9961780732826905,-0.2568215893851126,130,252346.0,80,72.0,0,0,0,0,0,0
1778186169.98102,10.106657028198242,0.040452701716854264,1.3533399309486596,3.5693742032015687,0.14013849642756238,1.4354158592418624,3.6073897219825586,2,505,-9.96857947107081,-8.207592829320287,-3.8015518780989854,13.460644613273248,-30,6,-30,1.8773352102615568,1.9636941183917493,0.19930837252298853,130,252346.0,80,72.0,0,0,0,0,0,0
1778186170.051158,10.17679500579834,0.040452701716854264,1.3533399309486596,3.5693742032015687,0.07982647679813837,1.4282280154431217,3.577196172512544,2,509,-3.9373775081284106,-7.488808449446216,-0.7821969310975341,8.496883291715317,21,-11,-1,-0.8599053136847223,-0.10248148071396207,-0.4304878826442306,130,252332.00000000003,80,72.0,0,0,0,0,0,0
1778186170.1204212,10.246058225631714,0.040452701716854264,1.3533399309486596,3.5693742032015687,0.08246138127539826,1.4285816768163802,3.577741754623267,2,512,-4.2008679558544,-7.524174586772059,-0.8367551421698316,8.65798209530942,-1,0,-4,0.038041899923201096,0.005106048695241568,0.007876938323622231,130,252336.0,80,72.0,0,0,0,0,0,0
1778186170.188261,10.313898086547852,0.040452701716854264,1.3533399309486596,3.5693742032015687,0.08298825247336017,1.426865370436969,3.579165780427046,2,515,-4.25355507565059,-7.352543948830936,-0.9791577225477077,8.550519466483198,0,0,-3,0.007766395609407525,-0.025299379394850025,0.020990989435239468,130,252344.99999999997,80,72.0,0,0,0,0,0,0
1778186170.2598789,10.385515928268433,0.040452701716854264,1.3533399309486596,3.5693742032015687,0.07016604716462116,1.3686831629446106,3.61093488131098,2,519,-2.9713345447766897,-1.5343231995951,-4.156067810941133,5.334404962780766,4,12,19,-0.17903646634263554,-0.8123982250031747,0.4435919893799964,130,252344.99999999997,80,72.0,0,0,0,0,0,0
1778186170.330255,10.455892086029053,0.040452701716854264,1.3533399309486596,3.5693742032015687,0.01317294426111948,1.3654242763482098,3.5776075690810107,2,522,2.7279757455734783,-1.2084345399550278,-0.8233365879442012,3.0951653983012113,23,-12,0,-0.8098353862590791,-0.046306685390322275,-0.4735597010471925,130,252339.0,80,72.0,0,0,0,0,0,0
1778186170.412391,10.538028001785278,0.040452701716854264,1.3533399309486596,3.5693742032015687,0.07673577425425526,1.4234246750129609,3.5795803316507087,2,527,-3.6283072537401,-7.008474406430132,-1.0206128449139928,7.95769926626614,-19,0,-22,0.7738737604361338,0.7061514823416921,0.024018269614877814,130,252344.0,80,72.0,0,0,0,0,0,0
1778186170.483883,10.609519958496094,0.040452701716854264,1.3533399309486596,3.5693742032015687,0.007146605616456969,1.2999206948715956,3.5927787234604005,2,530,3.3306096100397293,5.3419236077064,-2.3404520258831774,6.716161395508645,28,4,30,-0.9733845853357476,-1.7275227287586803,0.18461366029019555,130,252344.0,80,72.0,0,0,0,0,0,0
1778186170.55508,10.68071699142456,0.040452701716854264,1.3533399309486596,3.5693742032015687,0.01197066816668746,1.3662988440954442,3.576933169070778,2,534,2.8482033550166803,-1.2958913146784656,-0.7558965869209455,3.2191577005648684,2,-6,-23,0.06775651107648448,0.9323162285504261,-0.22255919576792885,130,252335.0,80,72.5,0,0,0,0,0,0
1778186170.626723,10.752360105514526,0.040452701716854264,1.3533399309486596,3.5693742032015687,0.01197066816668746,1.3662988440954442,3.576933169070778,2,537,2.8482033550166803,-1.2958913146784656,-0.7558965869209455,3.2191577005648684,3,0,0,0.0,0.0,0.0,130,252327.0,80,72.5,0,0,0,0,0,0
1778186170.698142,10.823779106140137,0.040452701716854264,1.3533399309486596,3.5693742032015687,0.13646382911328325,1.4924222996011132,3.570195974040991,2,541,-9.601112739642899,-13.90823686524536,-0.08217708394222534,16.90050802822887,-30,-3,-30,1.743137818452663,1.765965000922205,-0.09433337026241292,130,252338.0,80,72.5,0,0,0,0,0,0
1778186170.7692358,10.894872903823853,0.040452701716854264,1.3533399309486596,3.5693742032015687,0.06781081239173858,1.3691841204691015,3.6095941432026697,2,544,-2.735811067488432,-1.5844189520441976,-4.021994000110096,5.115807008626365,24,15,30,-0.9656681589436287,-1.7334589394179962,0.5541716780548768,130,252338.0,80,72.5,0,0,0,0,0,0
1778186170.840891,10.966527938842773,0.040452701716854264,1.3533399309486596,3.5693742032015687,0.06781081239173858,1.3691841204691015,3.6095941432026697,2,548,-2.735811067488432,-1.5844189520441976,-4.021994000110096,5.115807008626365,0,1,0,0.0,0.0,0.0,130,252335.0,80,72.5,0,0,0,0,0,0
1778186170.912138,11.037775039672852,0.040452701716854264,1.3533399309486596,3.5693742032015687,0.010991208183879664,1.3659609781188133,3.5762530991247607,2,552,2.94614935329746,-1.2621047170153776,-0.6878895923192019,3.2780934123158514,23,-12,0,-0.7975005796147652,-0.045238926394707384,-0.46796351977080697,130,252336.0,80,72.5,0,0,0,0,0,0
1778186170.983392,11.109029054641724,0.040452701716854264,1.3533399309486596,3.5693742032015687,0.010991208183879664,1.3659609781188133,3.5762530991247607,2,555,2.94614935329746,-1.2621047170153776,-0.6878895923192019,3.2780934123158514,3,0,0,0.0,0.0,0.0,130,252336.0,80,72.5,0,0,0,0,0,0
1778186171.0532212,11.178858280181885,0.040452701716854264,1.3533399309486596,3.5693742032015687,0.0804044562220001,1.4265121631262567,3.57757520910601,2,559,-3.9951754505145836,-7.317223217759716,-0.8201005904441061,8.377096601887974,-25,0,-26,0.9940429311821387,0.8671324153898623,0.018933476220334883,130,252338.0,80,72.5,0,0,0,0,0,0
1778186171.123093,11.248729944229126,0.040452701716854264,1.3533399309486596,3.5693742032015687,0.0804044562220001,1.4265121631262567,3.57757520910601,2,562,-3.9951754505145836,-7.317223217759716,-0.8201005904441061,8.377096601887974,0,0,-4,0.0,0.0,0.0,130,252338.0,80,72.5,0,0,0,0,0,0
1778186171.1941,11.319736957550049,0.040452701716854264,1.3533399309486596,3.5693742032015687,0.01063526468418563,1.3652040767183382,3.575908585446102,2,566,2.981743703266863,-1.1864145769678647,-0.6534382244533177,3.274959018612314,28,-1,21,-0.9825676123355036,-0.8634088879478831,-0.023471254203798468,130,252334.0,80,72.5,0,0,0,0,0,0
1778186171.264605,11.390242099761963,0.040452701716854264,1.3533399309486596,3.5693742032015687,0.0037541484607692688,1.3025250619459054,3.5891229925939996,2,569,3.6698553256084994,5.0814869002754115,-1.9748789392430854,6.571871427016323,6,4,26,-0.09759736676700981,-0.8889991964563567,0.1874247286556737,130,252333.0,80,72.5,0,0,0,0,0,0
1778186171.3356879,11.46132493019104,0.040452701716854264,1.3533399309486596,3.5693742032015687,0.07207642162290062,1.3594603793018654,3.5952747057380114,2,573,-3.162371990604636,-0.6120448353205798,-2.5900502536442715,4.13322583508403,-23,2,-20,0.9611642185562639,0.8009714443316532,0.0865428839408657,130,252333.0,80,72.5,0,0,0,0,0,0
1778186171.404431,11.530068159103394,0.040452701716854264,1.3533399309486596,3.5693742032015687,0.010285405925642643,1.3644566105853855,3.575570031645679,2,576,3.016729579121162,-1.1116679636725912,-0.6195828444110152,3.2741939337933164,26,-7,-2,-0.8988669382411539,0.0726796131425573,-0.28664167226499787,130,252338.0,80,72.5,0,0,0,0,0,0
1778186171.47574,11.601377010345459,0.040452701716854264,1.3533399309486596,3.5693742032015687,0.004354023262885365,1.2978427811389857,3.590596788500238,2,580,3.6098678453968898,5.549714980967391,-2.1222585298669383,6.952299151992617,6,5,27,-0.08317877177157956,-0.9341593404761512,0.2107277931536061,130,252338.0,80,72.5,0,0,0,0,0,0
1778186171.547183,11.672820091247559,0.040452701716854264,1.3533399309486596,3.5693742032015687,0.004354023262885365,1.2978427811389857,3.590596788500238,2,583,3.6098678453968898,5.549714980967391,-2.1222585298669383,6.952299151992617,4,0,4,0.0,0.0,0.0,130,252338.0,80,71.5,0,0,0,0,0,0
1778186171.617152,11.742789030075073,0.040452701716854264,1.3533399309486596,3.5693742032015687,0.016119875129022687,1.4192928642613802,3.544275402910388,2,587,2.4332826587831575,-6.595293331272067,2.5098800291180723,7.4644662490778515,0,-19,-30,0.16815821510659396,1.7357714031048794,-0.662027842154934,130,252341.0,80,71.5,0,0,0,0,0,0
1778186171.687655,11.813292026519775,0.040452701716854264,1.3533399309486596,3.5693742032015687,0.08033467189322219,1.4818928137160898,3.5412254784610475,2,590,-3.9881970176367925,-12.855288276743027,2.8148724740521214,13.750914848650254,-23,-3,-30,0.9108094691346248,0.8879048070504183,-0.04325950105869115,130,252339.0,80,71.5,0,0,0,0,0,0
1778186171.757024,11.88266110420227,0.040452701716854264,1.3533399309486596,3.5693742032015687,0.07641422348797755,1.3629914565003487,3.5939650810196064,2,594,-3.596152177112329,-0.9651525551689133,-2.4590877818037704,4.462167932106031,1,19,30,-0.05651579257242941,-1.7140397593284593,0.7602753895611827,130,252339.0,80,71.5,0,0,0,0,0,0
1778186171.826237,11.951874017715454,0.040452701716854264,1.3533399309486596,3.5693742032015687,-0.049525584569859005,1.3006118226992491,3.555518565287823,2,597,8.997828628671327,5.272810824941043,1.3855637913745777,10.520610298196633,30,-15,26,-1.8195998646097695,-0.9012716072011268,-0.555481828177342,130,252338.0,80,71.5,0,0,0,0,0,0
1778186171.896509,12.022145986557007,0.040452701716854264,1.3533399309486596,3.5693742032015687,0.07207642162290062,1.3594603793018654,3.5952747057380114,2,601,-3.162371990604636,-0.6120448353205798,-2.5900502536442715,4.13322583508403,-30,14,-20,1.7304482597740276,0.8374399859964975,0.5657467850350049,130,252332.00000000003,80,71.5,0,0,0,0,0,0
1778186171.9663842,12.092021226882935,0.040452701716854264,1.3533399309486596,3.5693742032015687,0.08061611551636794,1.4195184486314352,3.5614015895056297,2,604,-4.016341379951367,-6.617851768277561,0.7972613695939046,7.782196720634274,-3,-13,-25,0.1222134457589636,0.8595042972222138,-0.48476564909663555,130,252332.00000000003,80,71.5,0,0,0,0,0,0
1778186172.036716,12.162353038787842,0.040452701716854264,1.3533399309486596,3.5693742032015687,0.08061611551636794,1.4195184486314352,3.5614015895056297,2,608,-4.016341379951367,-6.617851768277561,0.7972613695939046,7.782196720634274,0,-1,-4,0.0,0.0,0.0,130,252335.0,80,71.5,0,0,0,0,0,0
1778186172.107383,12.233020067214966,0.040452701716854264,1.3533399309486596,3.5693742032015687,0.0802978373689952,1.4187622400390922,3.5611204456085215,2,611,-3.9845135652140944,-6.542230909043267,0.8253757593047251,7.704438899924126,0,-1,-4,-0.004503912991062831,-0.010701010204819629,-0.0039784310075827905,130,252346.0,80,71.5,0,0,0,0,0,0
1778186172.179351,12.304988145828247,0.040452701716854264,1.3533399309486596,3.5693742032015687,0.0802978373689952,1.4187622400390922,3.5611204456085215,2,615,-3.9845135652140944,-6.542230909043267,0.8253757593047251,7.704438899924126,0,-1,-4,0.0,0.0,0.0,130,252346.0,80,71.5,0,0,0,0,0,0
1778186172.250956,12.376593112945557,0.040452701716854264,1.3533399309486596,3.5693742032015687,0.0802978373689952,1.4187622400390922,3.5611204456085215,2,619,-3.9845135652140944,-6.542230909043267,0.8253757593047251,7.704438899924126,0,-1,-4,0.0,0.0,0.0,130,252338.0,80,71.5,0,-1,0,0,0,0
1778186172.3215418,12.447178840637207,0.040452701716854264,1.3533399309486596,3.5693742032015687,0.08156836007003798,1.415343542385851,3.562921945031798,2,622,-4.1115658353183715,-6.200361143719135,0.6452258169770797,7.467648109384445,0,0,-3,0.017999711026469536,-0.04843327064892921,0.0255221484879521,130,252346.99999999997,80,71.5,0,0,0,0,0,0
1778186172.3920808,12.517717838287354,0.040452701716854264,1.3533399309486596,3.5693742032015687,0.07572466173837544,1.361454722768901,3.593357264046856,2,626,-3.527196002152118,-0.8114791820241329,-2.398306084528734,4.341829358178876,1,10,17,-0.0828435124729959,-0.7639578305921407,0.4314679826612894,130,252333.0,80,71.5,0,0,0,0,0,0
