timestamp,elapsed,target_x,target_y,target_z,pos_x,pos_y,pos_z,marker_id,publish_count,err_x_cm,err_y_cm,err_z_cm,err_3d_cm,cmd_lr,cmd_fb,cmd_ud,vel_x_pub,vel_y_pub,vel_z_pub,tello_height_cm,tello_baro_cm,tello_battery,tello_temp_c,tello_pitch,tello_roll,tello_yaw,tello_vgx,tello_vgy,tello_vgz
1778106163.250114,7.867813110351562e-06,0.2519389766171286,1.4301878377821962,3.8518740123219306,0.20534379668223648,1.3305607382729416,3.872483703347734,0,0,4.659517993489212,9.962709950925452,-2.0609691025803567,11.189919174851518,26,11,30,0.0,0.0,0.0,140,250411.0,81,64.0,-1,0,0,0,0,0
1778106163.3218272,0.07172107696533203,0.2519389766171286,1.4301878377821962,3.8518740123219306,0.30756270221865234,1.47622891314955,3.803358681599305,0,3,-5.562372560152373,-4.604107536735391,4.851533072262582,8.699147536340403,-30,-27,-30,1.4253846222310511,2.03126002306502,-0.9639091956086013,140,250407.00000000003,81,64.0,0,0,0,0,0,0
1778106163.3927429,0.14263677597045898,0.2519389766171286,1.4301878377821962,3.8518740123219306,0.2577844668020455,1.4003818120980305,3.8304042699126346,0,7,-0.5845490184916868,2.9806025684165682,2.1469742409296,3.719568203042696,17,8,28,-0.7019353417500415,-1.0695389330652458,0.3813766019760239,140,250407.00000000003,81,64.0,0,0,0,0,0,0
1778106163.4645278,0.21442174911499023,0.2519389766171286,1.4301878377821962,3.8518740123219306,0.2954948199816841,1.2699429988231596,3.875732661694445,0,10,-4.355584336455548,16.02448389590365,-2.3858649372514584,16.77639861653443,-15,16,30,0.5253237763802309,-1.8170768555174694,0.6314468028085319,140,250406.0,81,64.0,0,0,0,0,0,0
1778106163.536562,0.2864558696746826,0.2519389766171286,1.4301878377821962,3.8518740123219306,0.3065382329169802,1.4726771616247074,3.8047380359952037,0,14,-5.4599256299851575,-4.248932384251125,4.713597632672695,8.37151222501911,-7,-27,-30,0.15330808302358281,2.8144185175905414,-0.9855694099910687,140,250409.0,81,64.0,-1,0,0,0,0,0
1778106163.607601,0.3574948310852051,0.2519389766171286,1.4301878377821962,3.8518740123219306,0.25651114494218413,1.3965319754675236,3.831792532246168,0,18,-0.45721683250555256,3.3655862314672547,2.0081480075762492,3.945741544209507,17,8,29,-0.7042204303311494,-1.0718792145222016,0.3808402560198055,140,250409.0,81,64.0,-1,0,0,0,0,0
1778106163.679046,0.4289398193359375,0.2519389766171286,1.4301878377821962,3.8518740123219306,0.28551583166856576,1.2630063446067448,3.8785893986750355,0,21,-3.357685505143715,16.71814931754514,-2.6715386353104886,17.26000252708973,-12,17,30,0.40597230731694156,-1.8689292857348885,0.6550055864609599,140,250404.0,81,64.0,0,0,0,0,0,0
1778106163.750276,0.5001699924468994,0.2519389766171286,1.4301878377821962,3.8518740123219306,0.20374654783905524,1.3235026019738645,3.875089359230027,0,25,4.819242877807336,10.668523580833167,-2.3215346908096457,11.9344887042019,30,0,-13,-1.1479585161492005,0.8493066171954831,-0.04913703409868301,140,250409.0,80,64.0,0,-1,0,0,0,0
1778106163.822345,0.5722389221191406,0.2519389766171286,1.4301878377821962,3.8518740123219306,0.2579049642512188,1.3953910924112658,3.8327774550751177,0,28,-0.5965987634090175,3.479674537093036,1.9096557246812917,4.013832327763932,-19,-15,-22,0.7514807928807598,0.9974962964531247,-0.5871032683201711,140,250409.0,80,64.0,0,-1,0,0,0,0
1778106163.892473,0.642366886138916,0.2519389766171286,1.4301878377821962,3.8518740123219306,0.18585428569340437,1.4504191518984677,3.8259633926066727,0,32,6.608469092372424,-2.023131411627155,2.5910619715257877,7.380957024251068,29,-4,-20,-1.027417230272033,0.7846806941619543,-0.09716612429420396,140,250407.00000000003,80,63.5,0,-1,0,0,0,0
1778106163.964473,0.7143669128417969,0.2519389766171286,1.4301878377821962,3.8518740123219306,0.2336912230408556,1.5132587090866476,3.785855160431273,0,35,1.8247753576273007,-8.307087130445145,6.60188518906577,10.766726045935096,-15,-17,-27,0.6644016611946226,0.8727713039259967,-0.5570585736157098,140,250406.0,80,63.5,0,0,0,0,0,0
1778106164.037632,0.7875258922576904,0.2519389766171286,1.4301878377821962,3.8518740123219306,0.3404857969015547,1.3555991325122396,3.8492416681338186,0,39,-8.854682028442612,7.4588705269956534,0.2632344188111979,11.580562841354295,-30,21,30,1.459760301652026,-2.15502700875782,0.8664214319093578,140,250401.00000000003,80,63.5,0,0,0,0,0,0
1778106164.108245,0.8581387996673584,0.2519389766171286,1.4301878377821962,3.8518740123219306,0.25676444697023965,1.4049395886256804,3.8490604737139336,0,43,-0.4825470353111039,2.52482491565158,0.2813538607997046,2.585875575307026,29,0,-15,-1.1856380512077933,0.6987455682455767,-0.002566024067439242,140,250401.00000000003,80,63.5,0,0,0,0,0,0
1778106164.1801422,0.9300360679626465,0.2519389766171286,1.4301878377821962,3.8518740123219306,0.25676444697023965,1.4049395886256804,3.8490604737139336,0,46,-0.4825470353111039,2.52482491565158,0.2813538607997046,2.585875575307026,0,0,2,0.0,0.0,0.0,140,250401.00000000003,80,63.5,0,0,0,0,0,0
1778106164.25498,1.0048739910125732,0.2519389766171286,1.4301878377821962,3.8518740123219306,0.23469663219874162,1.5194460152039397,3.8017585521726005,0,50,1.7242344418386986,-8.925817742174358,5.01154601493301,10.380693629846142,8,-19,-30,-0.2948747623150349,1.5300588513375566,-0.6320581813818703,140,250404.0,80,63.5,0,0,0,0,0,0
1778106164.328477,1.0783708095550537,0.2519389766171286,1.4301878377821962,3.8518740123219306,0.25020418788388654,1.3992021194106945,3.85135385332893,0,54,0.17347887332420653,3.098571837150166,0.05201589930003969,3.1038601777866837,-5,16,30,0.21099628518180957,-1.6360421876457876,0.6747952107296195,140,250404.0,80,63.5,0,0,0,0,0,0
1778106164.3991659,1.149059772491455,0.2519389766171286,1.4301878377821962,3.8518740123219306,0.33881330079944666,1.3545081907980823,3.8677785756076415,0,57,-8.687432418231806,7.567964698411389,-1.5904563285710882,11.630783422918583,-30,6,21,1.2535070431756292,-0.6322617669864985,0.23235200512827653,140,250392.0,80,63.5,0,-1,0,0,0,0
1778106164.46865,1.2185440063476562,0.2519389766171286,1.4301878377821962,3.8518740123219306,0.1814115284041672,1.456520748572958,3.8437464243201944,0,61,7.052744821296142,-2.6332910790761943,0.8127588001736186,7.572054429857294,30,-9,-30,-2.2652875862605777,1.4681396356185288,-0.34586480923402024,140,250404.0,80,63.5,-1,-2,0,0,0,0
1778106164.53985,1.2897439002990723,0.2519389766171286,1.4301878377821962,3.8518740123219306,0.1787804012331374,1.4565237820831651,3.8427877963763257,0,64,7.31585753839912,-2.633594430096897,0.9086215945604881,7.8283577043010935,5,-1,-1,-0.036954088342114125,4.260554389447347e-05,-0.013463895669884351,140,250404.0,80,63.5,-1,-2,0,0,0,0
1778106164.609164,1.359057903289795,0.2519389766171286,1.4301878377821962,3.8518740123219306,0.30627223011873167,1.482351245339245,3.8386120378235025,0,68,-5.433325350160306,-5.2163407557048735,1.3261974498428142,7.647877804743739,-30,-2,-12,1.839337267862865,0.37261537556179875,-0.060244083051763236,140,250398.0,80,63.5,0,-1,0,0,0,0
1778106164.6805508,1.4304447174072266,0.2519389766171286,1.4301878377821962,3.8518740123219306,0.25715698904420903,1.4148282270731176,3.882172884652336,0,71,-0.5218012427080421,1.5359610709078542,-3.02988723304054,3.436810962677191,16,16,25,-0.6880155905785044,-0.945875216605851,0.6102085849800741,140,250407.00000000003,80,63.5,-1,-1,0,0,0,0
1778106164.751498,1.501391887664795,0.2519389766171286,1.4301878377821962,3.8518740123219306,0.3037617813263322,1.4821202600775933,3.8378842116038476,0,75,-5.182280470920358,-5.1932422295397185,1.3989800718082979,7.468797826643452,-19,-16,-27,0.6568943075943406,0.9484808592108335,-0.6242486189047666,140,250407.00000000003,80,63.5,-1,-1,0,0,0,0
1778106164.822966,1.5728600025177002,0.2519389766171286,1.4301878377821962,3.8518740123219306,0.3037617813263322,1.4821202600775933,3.8378842116038476,0,78,-5.182280470920358,-5.1932422295397185,1.3989800718082979,7.468797826643452,-3,0,-3,0.0,0.0,0.0,140,250407.00000000003,80,63.5,-1,-1,0,0,0,0
1778106164.894939,1.6448328495025635,0.2519389766171286,1.4301878377821962,3.8518740123219306,0.3037617813263322,1.4821202600775933,3.8378842116038476,0,82,-5.182280470920358,-5.1932422295397185,1.3989800718082979,7.468797826643452,-3,0,-3,0.0,0.0,0.0,140,250407.00000000003,80,63.5,-1,-1,0,0,0,0
1778106164.9693491,1.719243049621582,0.2519389766171286,1.4301878377821962,3.8518740123219306,0.2838127572714312,1.2821720424499214,3.9274534029326142,0,86,-3.1873780654302575,14.801579533227471,-7.557939061068364,16.92242826728089,4,30,30,-0.26809528832058904,-2.6871076452940086,1.2037219519031177,140,250408.0,80,63.5,0,0,0,0,0,0
1778106165.038799,1.7886929512023926,0.2519389766171286,1.4301878377821962,3.8518740123219306,0.3324171140135497,1.3689001797533042,3.898219805666546,0,89,-8.047813739642107,6.128765802889191,-4.634579334461542,11.126922389504397,-22,-7,-26,0.6998477411168598,1.2487870440315547,-0.42093072273187576,140,250408.0,80,63.5,0,0,0,0,0,0
1778106165.107619,1.8575129508972168,0.2519389766171286,1.4301878377821962,3.8518740123219306,0.2504475224388492,1.4156068680886063,3.879646560338813,0,93,0.14914541782793944,1.4580969693589907,-2.7772548016882226,3.1402922413707346,29,-5,-15,-1.1910722455418028,0.6786789965477826,-0.26988150842915565,140,250402.0,80,63.5,0,0,0,0,0,0
1778106165.1779578,1.927851676940918,0.2519389766171286,1.4301878377821962,3.8518740123219306,0.2879110939839499,1.2882055822850784,3.943004142138711,0,96,-3.5972117366821266,14.198225549711774,-9.11301298167806,17.25040714427473,-15,27,30,0.5326165776989576,-1.8112538137863616,0.9007496348531328,140,250402.0,80,63.5,0,0,0,0,0,0
1778106165.248859,1.9987528324127197,0.2519389766171286,1.4301878377821962,3.8518740123219306,0.2879110939839499,1.2882055822850784,3.943004142138711,0,100,-3.5972117366821266,14.198225549711774,-9.11301298167806,17.25040714427473,-2,5,10,0.0,0.0,0.0,140,250408.0,80,63.5,0,0,0,0,0,0
1778106165.321079,2.0709729194641113,0.2519389766171286,1.4301878377821962,3.8518740123219306,0.2849098228516226,1.287904937185199,3.942361557701967,0,103,-3.297084623449398,14.228290059699722,-9.048754538003623,17.18123871338087,-1,5,10,-0.04155729042796074,-0.004162901377639488,-0.00889758601768374,140,250408.0,80,63.5,0,0,0,0,0,0
1778106165.392033,2.1419270038604736,0.2519389766171286,1.4301878377821962,3.8518740123219306,0.38786726607853994,1.2403349707605023,3.954028757073449,0,107,-13.592828946141132,18.98528670216939,-10.215474475151831,25.48650679624614,-30,10,30,1.4510432218641356,-0.6704330952812001,0.1644330903673847,140,250408.0,80,63.5,0,0,0,0,0,0
1778106165.4643059,2.2141997814178467,0.2519389766171286,1.4301878377821962,3.8518740123219306,0.2810956365424657,1.2907874341173258,3.9592912632574895,0,110,-2.9156659925337114,13.94004036648704,-10.741725093555887,17.838455414772714,30,8,-7,-1.477342273877804,0.6980839129473378,0.07281450031255504,140,250407.00000000003,80,63.5,-1,-2,0,0,0,0
1778106165.534178,2.284071922302246,0.2519389766171286,1.4301878377821962,3.8518740123219306,0.19166891201845415,1.354723159530539,3.9537095428591535,0,114,6.0270064598674455,7.546467825165726,-10.183553053722294,14.034911339282557,30,4,-16,-1.279862379942879,0.915038878213166,-0.07988477707546787,140,250405.00000000003,80,63.5,-1,-1,0,0,0,0
1778106165.602895,2.3527889251708984,0.2519389766171286,1.4301878377821962,3.8518740123219306,0.1646513575255122,1.4894237291015653,3.9019559538453645,0,117,8.728761909161642,-5.923589131936913,-5.008194152343393,11.677422718151417,14,-15,-30,-0.39317131663300414,1.9602218366318584,-0.7531409527960978,140,250405.00000000003,80,63.5,-1,-1,0,0,0,0
1778106165.674064,2.4239578247070312,0.2519389766171286,1.4301878377821962,3.8518740123219306,0.17813731821831172,1.3595330590878199,3.9530071217302223,0,121,7.3801658398816885,7.065477869437631,-10.113310940829168,14.375913311284416,0,24,30,0.18949233135117735,-1.8251043764952313,0.7173241151345724,140,250410.0,80,63.5,-1,-1,0,0,0,0
1778106165.745182,2.4950759410858154,0.2519389766171286,1.4301878377821962,3.8518740123219306,0.2677352841174134,1.3022275392799694,3.9744820948923336,0,124,-1.5796307500284767,12.796029850222679,-12.260808257040301,17.792162104424886,-30,15,30,1.2598472859136403,-0.8057794936895397,0.3019620633332424,140,250406.0,79,63.5,-1,0,0,0,0,0
1778106165.817052,2.566945791244507,0.2519389766171286,1.4301878377821962,3.8518740123219306,0.27584228263617677,1.3059815251080389,3.9721324762888317,0,128,-2.3903306019048163,12.420631267415727,-12.02584639669011,17.452986650550454,-4,6,8,0.11280110506509797,0.05223311054330253,-0.032692688217853025,140,250406.0,79,63.5,-1,0,0,0,0,0
1778106165.887064,2.636957883834839,0.2519389766171286,1.4301878377821962,3.8518740123219306,0.18139335370142934,1.3619888460609426,3.950536281484072,0,132,7.054562291569927,6.819899172125354,-9.86622691621415,13.914751431693812,30,-1,-13,-1.349037365407785,0.7999663898153185,-0.30846378112317446,140,250394.0,79,64.0,-1,1,0,0,0,0
1778106165.959306,2.709199905395508,0.2519389766171286,1.4301878377821962,3.8518740123219306,0.18139335370142934,1.3619888460609426,3.950536281484072,0,135,7.054562291569927,6.819899172125354,-9.86622691621415,13.914751431693812,4,6,6,0.0,0.0,0.0,140,250413.0,79,64.0,-1,0,0,0,0,0
1778106166.03299,2.782883882522583,0.2519389766171286,1.4301878377821962,3.8518740123219306,0.26754336475226453,1.3048519411563184,3.9734200667448207,0,139,-1.5604388135135927,12.533589662587774,-12.154605442289013,17.52884116473672,-30,15,29,1.169182424860986,-0.77543187993349,0.3105666408489775,140,250413.0,79,64.0,-1,0,0,0,0,0
1778106166.104806,2.8546998500823975,0.2519389766171286,1.4301878377821962,3.8518740123219306,0.09084108519616874,1.557167490205253,3.8856241944112564,0,142,16.109789142095988,-12.697965242305687,-3.3750182089325786,20.788323054258694,30,-28,-30,-2.4604873478718097,3.513362802482397,-1.2225118635412169,140,250407.00000000003,79,64.0,-1,0,0,0,0,0
1778106166.176225,2.926118850708008,0.2519389766171286,1.4301878377821962,3.8518740123219306,0.16556914781054916,1.5015152611516722,3.9151301965851064,0,146,8.636982880657945,-7.132742336947606,-6.325618426317581,12.86417253465732,-20,14,15,1.0463330760691638,-0.7792356174979058,0.4131393874933245,140,250405.00000000003,79,64.0,-1,0,0,0,0,0
1778106166.245899,2.995792865753174,0.2519389766171286,1.4301878377821962,3.8518740123219306,0.18829384530991286,1.3660308357983681,3.9508896243499945,0,149,6.3645131307215745,6.415700198382801,-9.901561202806386,13.405564168641956,-4,19,30,0.32615742733689845,-1.944547407889105,0.513239085499911,140,250408.0,79,64.0,-1,0,0,0,0,0
1778106166.3151019,3.064995765686035,0.2519389766171286,1.4301878377821962,3.8518740123219306,0.3314064638377061,1.401225023459507,3.9433336592119543,0,153,-7.94674872205775,2.896281432268921,-9.145964689002373,12.457444821427485,-30,3,-9,2.068014760459995,0.5085652146844019,-0.10918567206534284,140,250408.0,79,64.0,-1,0,0,0,0,0
1778106166.385422,3.1353158950805664,0.2519389766171286,1.4301878377821962,3.8518740123219306,0.1904945276888306,1.3729779111960005,3.967924087572669,0,156,6.1444448928298,5.720992658619561,-11.605007525073852,14.323412990555774,30,16,15,-2.0038634365743095,-0.40169312125445494,0.3496925926110024,140,250404.0,79,64.0,0,-1,0,0,0,0
1778106166.456627,3.2065207958221436,0.2519389766171286,1.4301878377821962,3.8518740123219306,0.19246798048979713,1.3675812399687555,3.9515332204144236,0,160,5.9470996127331475,6.260659781344069,-9.965920809249296,13.18648672989656,2,1,7,0.027715126071571276,-0.07579072747859213,-0.23019296407325504,140,250409.0,79,64.0,-1,-1,0,0,0,0
1778106166.528522,3.2784159183502197,0.2519389766171286,1.4301878377821962,3.8518740123219306,0.28809549704534493,1.3143760089035188,3.9722280750621555,0,164,-3.6156520428216323,11.581182887867737,-12.035406274022487,17.08940434765883,-30,15,28,1.3300974140242094,-0.7400395074708885,0.2878478249988411,140,250409.0,79,64.0,-1,-1,0,0,0,0
1778106166.6007879,3.350681781768799,0.2519389766171286,1.4301878377821962,3.8518740123219306,0.25013059220178585,1.453535300138625,3.9246965711382926,0,167,0.18083844153427564,-2.3347462356428927,-7.2822558816362015,7.649509347167978,13,-10,-30,-0.525350463519108,1.9256573526156653,-0.6577310735021648,140,250410.0,79,64.0,-1,-1,0,0,0,0
1778106166.672891,3.4227848052978516,0.2519389766171286,1.4301878377821962,3.8518740123219306,0.198911796637074,1.3787815733665099,3.9681272536239853,0,171,5.30271799800546,5.14062644156863,-11.625324130205472,13.77290889792215,21,23,30,-0.7103557251531077,-1.03676271969364,0.6023420428159025,150,250416.0,79,64.0,-1,-1,0,0,0,0
1778106166.744374,3.4942679405212402,0.2519389766171286,1.4301878377821962,3.8518740123219306,0.20030209316102357,1.3802396710525313,3.9679726371727853,0,174,5.163688345610503,4.9948166729664845,-11.609862485085465,13.652867019411438,2,8,4,0.019449294153156705,0.020397785875854762,-0.0021629780327470085,150,250416.0,79,64.0,-1,-1,0,0,0,0
1778106166.815479,3.565372943878174,0.2519389766171286,1.4301878377821962,3.8518740123219306,0.25370074208224674,1.4576966551709098,3.924148961557781,0,178,-0.1761765465118137,-2.750881738871369,-7.227494923585054,7.73531327014262,-18,-9,-27,0.7509830026049238,1.0893324022440334,-0.6163233745312913,150,250413.0,79,64.0,0,-1,0,0,0,0
1778106166.886813,3.636706829071045,0.2519389766171286,1.4301878377821962,3.8518740123219306,0.19959786884199104,1.3818612107109307,3.9679831538953967,0,182,5.234110777513756,4.832662707126545,-11.610914157346608,13.622183086473665,22,23,30,-0.7584456264224704,-1.0631054828282074,0.6144932694903348,150,250404.0,79,63.5,-1,0,0,0,0,0
1778106166.957837,3.707731008529663,0.2519389766171286,1.4301878377821962,3.8518740123219306,0.20096419748671518,1.3833779608961039,3.9678270590100904,0,185,5.097477913041343,4.680987688609228,-11.595304668815976,13.503592750728268,2,8,4,0.01923751397255098,0.021355405958007466,-0.002197771047777772,150,250414.0,79,63.5,-1,0,0,0,0,0
1778106167.0291631,3.779057025909424,0.2519389766171286,1.4301878377821962,3.8518740123219306,0.2888089614386417,1.3294047142500993,3.988584807473834,0,189,-3.68699848215131,10.078312353209684,-13.671079515190332,17.380010149792827,-30,16,27,1.2315949660306296,-0.7567119072222284,0.2910263214785033,150,250414.0,79,63.5,-1,0,0,0,0,0
1778106167.101405,3.8512988090515137,0.2519389766171286,1.4301878377821962,3.8518740123219306,0.0548831107165625,1.2081791127801527,4.016812860577758,0,192,19.705586590056612,22.200872500204348,-16.49388482558276,33.959345094806196,30,21,30,-3.2380963003360343,-1.678053838060894,0.39074413554277193,150,250412.0,79,63.5,-1,0,0,0,0,0
1778106167.173069,3.9229629039764404,0.2519389766171286,1.4301878377821962,3.8518740123219306,0.18317357389769548,1.5160449742660598,3.9146823308548737,0,196,6.876540271943313,-8.585713648386362,-6.280831853294311,12.666891241859721,-30,-30,-30,1.7901637258591818,4.295956877825898,-1.4251282993230223,150,250412.0,79,63.5,-1,0,0,0,0,0
1778106167.2444701,3.994364023208618,0.2519389766171286,1.4301878377821962,3.8518740123219306,0.23523318977218663,1.5801307501099844,3.8725030897551216,0,199,1.6705786844941977,-14.994291232778822,-2.062907743319098,15.227448606773233,-17,-12,-30,0.7291148434971575,0.8975458162712332,-0.5907364135651192,150,250419.0,79,63.5,-1,0,0,0,0,0
1778106167.313858,4.063751935958862,0.2519389766171286,1.4301878377821962,3.8518740123219306,0.2910068883469199,1.3287118407790093,3.9715800885472112,0,203,-3.9067911729791294,10.147599700318688,-11.970607622528062,16.17195856412273,-22,30,30,0.8037955944212637,-3.62338193160437,1.4278711502493069,150,250419.0,79,63.5,-1,0,0,0,0,0
1778106167.381854,4.1317479610443115,0.2519389766171286,1.4301878377821962,3.8518740123219306,0.30180054942727075,1.3329604169978313,3.9697606896287465,0,206,-4.986157281014214,9.722742078436486,-11.78866773068159,16.07377257582127,-6,8,7,0.15873958906842972,0.06248271444518883,-0.02675743054359897,150,250419.0,79,63.5,-1,0,0,0,0,0
1778106167.454429,4.204322814941406,0.2519389766171286,1.4301878377821962,3.8518740123219306,0.30180054942727075,1.3329604169978313,3.9697606896287465,0,210,-4.986157281014214,9.722742078436486,-11.78866773068159,16.07377257582127,-2,8,8,0.0,0.0,0.0,150,250419.0,79,63.5,-1,0,0,0,0,0
1778106167.529759,4.279652833938599,0.2519389766171286,1.4301878377821962,3.8518740123219306,0.30180054942727075,1.3329604169978313,3.9697606896287465,0,214,-4.986157281014214,9.722742078436486,-11.78866773068159,16.07377257582127,-2,8,8,0.0,0.0,0.0,150,250419.0,79,63.5,-1,0,0,0,0,0
1778106167.606078,4.355971813201904,0.2519389766171286,1.4301878377821962,3.8518740123219306,0.30180054942727075,1.3329604169978313,3.9697606896287465,0,218,-4.986157281014214,9.722742078436486,-11.78866773068159,16.07377257582127,-2,9,8,0.0,0.0,0.0,150,250419.99999999997,79,63.5,0,0,0,1,0,0
1778106167.682861,4.432754993438721,0.2519389766171286,1.4301878377821962,3.8518740123219306,0.06554047372825812,1.5116450991351646,3.908141310265891,0,221,18.63985028888705,-8.145726135296849,-5.626729794396024,21.105851350810862,30,-16,-30,-3.076976949513344,2.3271331245492832,-0.8025114246740991,150,250414.0,79,63.5,0,-1,0,0,0,0
1778106167.750177,4.500070810317993,0.2519389766171286,1.4301878377821962,3.8518740123219306,0.06017704850793404,1.3798157492239616,3.9634239008559753,0,225,19.176192810919456,5.037208855823461,-11.154988853404468,22.749365268031617,13,28,30,-0.07967555723112024,-1.9583710934925207,0.8212422154696718,150,250413.0,78,63.5,0,0,0,0,0,0
1778106167.819314,4.5692079067230225,0.2519389766171286,1.4301878377821962,3.8518740123219306,0.07353214484167826,1.2209429422555007,4.019462231599114,0,228,17.840683177545035,20.924489552669545,-16.758821927718337,32.20221035404695,6,30,30,0.19316831380226612,-2.29793866432759,0.8105392568823913,150,250413.0,78,63.5,0,0,0,0,0,0
1778106167.890817,4.640710830688477,0.2519389766171286,1.4301878377821962,3.8518740123219306,0.36728765742983,1.1886194615361447,3.976883744746175,0,232,-11.534868081270139,24.156837624605142,-12.500973242424429,29.544548019586536,-30,-5,30,4.10830070012349,-0.45205816666983767,-0.5954789607416675,150,250417.0,78,63.5,0,0,0,0,0,0
1778106167.96286,4.712754011154175,0.2519389766171286,1.4301878377821962,3.8518740123219306,0.2528442655575578,1.5915894773043817,3.8745166857115536,0,235,-0.0905288940429183,-16.140163952218558,-2.2642673389623003,16.298466015777173,30,-30,-30,-1.588538861450764,5.593451221383851,-1.4209125467935315,150,250417.0,78,63.5,0,0,0,0,0,0
1778106168.033368,4.783262014389038,0.2519389766171286,1.4301878377821962,3.8518740123219306,0.2076423729008054,1.5243456020409276,3.900978386282305,0,239,4.4296603716323215,-9.415776425873146,-4.910437396037448,11.506134543383425,19,14,19,-0.6410888208844061,-0.9537055678553777,0.37530066597698325,150,250427.0,78,63.5,-1,0,0,0,0,0
1778106168.1038568,4.853750705718994,0.2519389766171286,1.4301878377821962,3.8518740123219306,0.19679288505663195,1.6350774251730824,3.849549814306809,0,242,5.514609156049666,-20.488958739088623,0.23241980151214037,21.219386497262306,7,-16,-30,-0.15391813409313027,1.570916143326048,-0.7296003231888621,150,250416.0,78,63.5,-2,0,0,0,0,0
1778106168.174119,4.924012899398804,0.2519389766171286,1.4301878377821962,3.8518740123219306,0.13990829976855432,1.5763282755547725,3.8745940522456164,0,246,11.203067684857428,-14.614043777257635,-2.2720039923685764,18.55373286474822,27,12,12,-0.8096044587976463,-0.8361416935832444,0.3564397384592881,150,250416.0,78,63.5,-2,0,0,0,0,0
1778106168.2449899,4.99488377571106,0.2519389766171286,1.4301878377821962,3.8518740123219306,0.16178688087024012,1.456362308658532,3.926982451978554,0,249,9.015209574688848,-2.6174470876335842,-7.510843965662328,12.022387866337086,-1,25,30,0.3087104638764329,-1.692739996154027,0.739209142865895,150,250419.0,78,63.5,-1,0,0,0,0,0
1778106168.3156118,5.065505743026733,0.2519389766171286,1.4301878377821962,3.8518740123219306,0.16402634502526964,1.4587653250784265,3.9270069157971363,0,253,8.791263159185897,-2.857748729623033,-7.513290347520574,11.912286412854044,5,6,-1,0.031710588647570676,0.034026472374427366,0.000346405226480071,160,250417.0,78,63.5,0,0,0,0,0,0
1778106168.386909,5.136802911758423,0.2519389766171286,1.4301878377821962,3.8518740123219306,0.1518103821892251,1.5775197137983343,3.8748633753299067,0,257,10.01285944279035,-14.733187601613817,-2.298936300797605,17.961327324018903,10,-14,-30,-0.17133868081096615,1.6656255898016477,-0.7313549948029485,160,250419.99999999997,78,63.5,0,0,0,0,0,0
1778106168.459904,5.2097978591918945,0.2519389766171286,1.4301878377821962,3.8518740123219306,0.344318668741626,1.5465912063459926,3.8630666298876,0,260,-9.237969212449737,-11.64033685637964,-1.1192617565669583,14.902693185457213,-30,-1,4,2.637282350642897,-0.4237075104483131,-0.16161043821640036,160,250421.0,78,63.5,-1,0,0,0,0,0
1778106168.531275,5.2811689376831055,0.2519389766171286,1.4301878377821962,3.8518740123219306,0.22770815029000663,1.5312887975628708,3.8875530133152427,0,264,2.423082632712198,-10.110095978067468,-3.5679000993312115,10.991600486257456,30,13,0,-1.6338623559678935,-0.21440629883442427,0.34308551790565883,160,250421.0,78,63.5,-1,0,0,0,0,0
1778106168.6013691,5.351263046264648,0.2519389766171286,1.4301878377821962,3.8518740123219306,0.16437582268954648,1.57794395119421,3.8611677303164322,0,267,8.756315392758212,-14.775611341201378,-0.9293717994501627,17.200450043685088,28,-6,-25,-0.9035328201197309,0.665607346686826,-0.3764265432966531,160,250423.0,78,63.5,0,0,0,0,0,0
1778106168.671676,5.42156982421875,0.2519389766171286,1.4301878377821962,3.8518740123219306,0.21482216630351444,1.6404189540181977,3.838292816193213,0,271,3.711681031361416,-21.023111623600155,1.3581196128717554,21.391406856487656,-15,-6,-30,0.7175175009001393,0.8886056884127641,-0.3253585897244876,160,250421.0,78,63.5,0,-1,0,0,0,0
1778106168.741398,5.4912919998168945,0.2519389766171286,1.4301878377821962,3.8518740123219306,0.15987904901543004,1.5112361510185597,3.8919203265229303,2,274,9.205992760169856,-8.104831323636352,-4.004631420099969,12.902544954223128,25,24,30,-0.7880293008175517,-1.8528223178835497,0.7691600250515476,160,250421.0,78,63.5,0,-1,0,0,0,0
1778106168.812402,5.562295913696289,0.2519389766171286,1.4301878377821962,3.8518740123219306,0.16290308523847163,1.509774936467831,3.892208036186131,2,278,8.903589137865698,-7.958709868563485,-4.033402386420049,12.604891793215394,5,4,-3,0.04258971171896447,-0.02057935219191798,0.004052025409324525,160,250416.0,78,63.5,0,0,0,0,0,0
1778106168.88319,5.633083820343018,0.2519389766171286,1.4301878377821962,3.8518740123219306,0.23738940491926974,1.525219502496832,3.89715562602478,2,281,1.4549571697858865,-9.503166471463587,-4.5281613702849555,10.626914827248873,-24,6,-10,1.0522463964434878,0.2181808554684078,0.06989315086460074,160,250428.00000000003,78,64.0,0,0,0,0,0,0
1778106168.953373,5.703266859054565,0.2519389766171286,1.4301878377821962,3.8518740123219306,0.25081560430533933,1.5162295772957983,3.8821082698101255,2,285,0.11233723117892724,-8.604173951360217,-3.023425748819486,9.120610302901845,-3,-1,-1,0.19130262286378402,-0.12809256148030687,-0.21440160601337452,160,250428.00000000003,78,64.0,0,0,0,0,0,0
1778106169.024238,5.774132013320923,0.2519389766171286,1.4301878377821962,3.8518740123219306,0.17441820575204703,1.5033383957014084,3.872828269454977,2,288,7.752077086508158,-7.315055791921221,-2.095425713304655,10.862575629843198,30,0,0,-1.078067201633981,-0.1819114306297351,-0.13095294085253836,160,250423.99999999997,78,64.0,-1,0,0,0,0,0
1778106169.0972211,5.8471150398254395,0.2519389766171286,1.4301878377821962,3.8518740123219306,0.10782267971221471,1.4143713514449239,3.885465938458693,2,292,14.41162969049139,1.5816486337272284,-3.359192613676232,14.882232955850446,30,8,30,-0.9124796439581881,-1.2190100701151207,0.1731590153079453,160,250417.0,78,64.0,-1,0,0,0,0,0
1778106169.166528,5.916421890258789,0.2519389766171286,1.4301878377821962,3.8518740123219306,0.25970063870685967,1.5087881724510073,3.882712816693489,2,295,-0.7761662089731058,-7.860033466881111,-3.0838804371558393,8.478966837717628,-30,3,-30,2.19138451747568,1.3623014235350561,-0.03972366004211261,160,250425.0,78,64.0,0,0,0,0,0,0
1778106169.2365062,5.986400127410889,0.2519389766171286,1.4301878377821962,3.8518740123219306,0.253472638554875,1.5799407074336438,3.836234621452823,2,299,-0.15336619377464,-14.975286965144763,1.5639390869107483,15.05751129321824,2,-14,-30,-0.08899910036956105,1.0167809004388684,-0.6641807100633909,160,250425.0,78,64.0,0,0,0,0,0,0
1778106169.3084328,6.058326721191406,0.2519389766171286,1.4301878377821962,3.8518740123219306,0.3296201083979102,1.5980537024632189,3.8376259086594486,2,302,-7.768113178078162,-16.78658646810227,1.424810366248197,18.55163475756986,-30,2,-17,1.0586831078835397,0.25182611990283443,0.0193431543675069,160,250423.99999999997,78,64.0,0,0,0,0,0,0
1778106169.374607,6.12450098991394,0.2519389766171286,1.4301878377821962,3.8518740123219306,0.20485874114383418,1.423696250547064,3.8779971699164135,2,306,4.708023547329443,0.6491587235132101,-2.6123157594482915,5.4231989081706855,30,19,30,-1.8853456133711883,-2.6348224964484004,0.6100749133509857,160,250421.99999999997,78,64.0,0,0,0,0,0,0
1778106169.442436,6.1923298835754395,0.2519389766171286,1.4301878377821962,3.8518740123219306,0.33491451184076826,1.6016478133210845,3.835140288757969,2,309,-8.297553522363966,-17.145997553888837,1.6733723563961522,19.121579474970353,-30,-14,-30,1.917409582794894,2.623536271461098,-0.6318381274552739,160,250421.99999999997,78,64.0,0,0,0,0,0,0
1778106169.512104,6.261997938156128,0.2519389766171286,1.4301878377821962,3.8518740123219306,0.207492492067474,1.4919170767540102,3.83585579572657,2,313,4.444648454965461,-6.172923897181404,1.6018216595360624,7.7733983532029916,30,1,30,-1.828987769792194,-1.5750509645706536,0.010270230350299352,160,250419.99999999997,78,64.0,0,0,0,0,0,0
1778106169.5829198,6.332813739776611,0.2519389766171286,1.4301878377821962,3.8518740123219306,0.2834873886610394,1.5108113357504904,3.859446574925451,2,316,-3.154841204391079,-8.062349796829427,-0.757256260352035,8.690681464373297,-27,11,-11,1.073134736239206,0.2668085168016383,0.33312874611388094,160,250423.99999999997,78,64.0,0,0,0,0,0,0
1778106169.653764,6.403657913208008,0.2519389766171286,1.4301878377821962,3.8518740123219306,0.30838762914099405,1.4351786217223972,3.8863796507501003,2,320,-5.644865252386544,-0.4990783940201027,-3.450563842816967,6.634754991281477,-11,14,26,0.3514790175944017,-1.067592581926781,0.38017347821455716,160,250423.99999999997,78,64.0,0,0,0,0,0,0
1778106169.723941,6.473834991455078,0.2519389766171286,1.4301878377821962,3.8518740123219306,0.2947740898139106,1.5086407733026825,3.8397383316151603,2,323,-4.283511319678201,-7.845293552048638,1.213568070677029,9.020523688001377,3,-15,-30,-0.19398840286788013,1.0468112012536255,-0.6646232687364282,160,250434.0,78,64.0,0,-1,0,0,0,0
1778106169.7926369,6.54253077507019,0.2519389766171286,1.4301878377821962,3.8518740123219306,0.37314531121377126,1.5317851316507927,3.859133756722694,2,327,-12.120633459664266,-10.15972938685965,-0.7259744400763601,15.832147534854412,-30,9,-15,1.1408447109208002,0.33691090093364373,0.28233792653421474,160,250429.0,77,64.0,0,-1,0,0,0,0
1778106169.864872,6.614765882492065,0.2519389766171286,1.4301878377821962,3.8518740123219306,0.37673817759713435,1.5336005803725903,3.8578442999459797,2,330,-12.479920098000575,-10.341274259039412,-0.5970287624049053,16.218717652647157,-8,2,-7,0.04973850682300033,0.025132498401294626,-0.017850832133241366,160,250429.0,77,64.0,0,-1,0,0,0,0
1778106169.9353878,6.685281753540039,0.2519389766171286,1.4301878377821962,3.8518740123219306,0.3785705871197037,1.5353217473664889,3.8570249487378656,2,334,-12.66316105025751,-10.51339095842927,-0.5150936415935004,16.46670454854739,-7,2,-7,0.025985774483629705,0.024408221416248543,-0.011619387181030855,160,250423.0,77,65.0,-1,-2,0,0,0,0
1778106170.008409,6.758302927017212,0.2519389766171286,1.4301878377821962,3.8518740123219306,0.3121237343616996,1.4392945712862568,3.8816302257197792,2,338,-6.0184757744571,-0.910673350406066,-2.975621339784862,6.775374451397491,19,12,30,-0.909966925946158,-1.3150593383746578,0.33696085409536003,160,250423.0,77,65.0,0,-2,0,0,0,0
1778106170.080331,6.830224990844727,0.2519389766171286,1.4301878377821962,3.8518740123219306,0.30701343498147693,1.5111823691345658,3.8368712574777963,2,341,-5.507445836434832,-8.099453135236967,1.500275484413427,9.908780311435674,-1,-14,-30,-0.07105329169193926,0.9995235679097333,-0.6223259714755266,160,250423.0,77,65.0,0,-2,0,0,0,0
1778106170.1517708,6.901664733886719,0.2519389766171286,1.4301878377821962,3.8518740123219306,0.30701343498147693,1.5111823691345658,3.8368712574777963,2,345,-5.507445836434832,-8.099453135236967,1.500275484413427,9.908780311435674,-2,1,-5,0.0,0.0,0.0,160,250423.0,77,65.0,0,-2,0,0,0,0
1778106170.2228281,6.972722053527832,0.2519389766171286,1.4301878377821962,3.8518740123219306,0.32093905529885736,1.4434095210570876,3.8805938074014485,2,348,-6.9000078681728745,-1.3221683274891483,-2.871979507951794,7.589894858373077,-8,20,23,0.19597728126692746,-0.9537771537088106,0.6153138078452742,160,250421.0,77,65.0,0,-1,0,0,0,0
1778106170.291292,7.0411858558654785,0.2519389766171286,1.4301878377821962,3.8518740123219306,0.40438356780415985,1.4626963359760117,3.8831279717168363,2,352,-15.244459118703125,-3.2508498193815516,-3.1253959394905717,15.897473325927239,-30,5,-9,1.2188121263521834,0.2817082058020419,0.03701465926315204,160,250421.0,77,65.0,0,-1,0,0,0,0
1778106170.362984,7.11287784576416,0.2519389766171286,1.4301878377821962,3.8518740123219306,0.2472290827488013,1.3431849451301099,3.8984963567963207,2,355,0.47098938683273195,8.700289265208628,-4.6622344474390065,9.881968141200439,30,10,30,-2.19207871447642,-1.6670117681877805,0.2143668365350668,160,250419.0,77,65.0,0,-1,0,0,0,0
1778106170.4365618,7.186455726623535,0.2519389766171286,1.4301878377821962,3.8518740123219306,0.39838609129759794,1.457268466458387,3.8842439399674573,2,359,-14.644711468046934,-2.7080628676190877,-3.236992764552671,15.240711946463954,-30,0,-30,2.0543811099655613,1.5505138228473603,-0.19370518235097242,160,250419.0,77,65.0,0,-1,0,0,0,0
1778106170.5077949,7.257688760757446,0.2519389766171286,1.4301878377821962,3.8518740123219306,0.39838609129759794,1.457268466458387,3.8842439399674573,2,363,-14.644711468046934,-2.7080628676190877,-3.236992764552671,15.240711946463954,-8,4,-1,0.0,0.0,0.0,160,250419.0,77,65.0,0,-1,0,0,0,0
1778106170.58076,7.33065390586853,0.2519389766171286,1.4301878377821962,3.8518740123219306,0.32201938296151933,1.439263028924049,3.8811651942372194,2,366,-7.008040634439072,-0.9075191141852734,-2.929118191528879,7.649572396971364,22,3,5,-1.0466190154191568,-0.2467676519648691,-0.04219474552611057,160,250423.99999999997,77,65.0,0,-1,0,0,0,0
1778106170.6502998,7.400193691253662,0.2519389766171286,1.4301878377821962,3.8518740123219306,0.32201938296151933,1.439263028924049,3.8811651942372194,2,370,-7.008040634439072,-0.9075191141852734,-2.929118191528879,7.649572396971364,-4,4,0,0.0,0.0,0.0,160,250421.99999999997,77,65.0,0,-2,0,0,0,0
1778106170.72099,7.470883846282959,0.2519389766171286,1.4301878377821962,3.8518740123219306,0.3831305459155483,1.5361186388268981,3.85477301432727,2,373,-13.119156929841969,-10.593080104470198,-0.2899002005339213,16.864449791671607,-29,-6,-30,0.864493265415842,1.370142841852707,-0.37335014895654967,160,250410.0,77,65.0,-1,-3,0,0,0,0
1778106170.7938602,7.5437541007995605,0.2519389766171286,1.4301878377821962,3.8518740123219306,0.3182969936776371,1.4363286398840525,3.8823433880276808,2,377,-6.635801706050848,-0.6140802101856302,-3.0469375705750146,7.3276727100458405,18,13,30,-0.8897121694990182,-1.3694202058826508,0.3783488047805535,160,250421.99999999997,77,65.0,0,-2,0,0,-1,0
1778106170.865581,7.6154749393463135,0.2519389766171286,1.4301878377821962,3.8518740123219306,0.3945748711162974,1.45702733408059,3.9048383508327595,2,380,-14.26358944991688,-2.6839496298393772,-5.296433851082893,15.450106185725451,-30,13,-9,1.0635385612361012,0.2886008392532184,0.3136461210003131,160,250421.99999999997,77,65.0,0,-2,0,0,-1,0
1778106170.936882,7.6867759227752686,0.2519389766171286,1.4301878377821962,3.8518740123219306,0.37357228197071,1.5241865314656402,3.861092595591619,2,384,-12.163330535358142,-9.399869368344405,-0.9218583269688274,15.399804434775039,0,-12,-30,-0.2945624048301459,0.9419112353754319,-0.6135364918876514,160,250417.0,77,64.5,0,-1,0,0,-1,0
1778106171.007684,7.757577896118164,0.2519389766171286,1.4301878377821962,3.8518740123219306,0.2971966765726606,1.500809386276488,3.841070651105686,2,388,-4.525769995553198,-7.062154849429181,1.080336121624459,8.457171590174358,23,-4,3,-1.0787214224688444,-0.3301764638103547,-0.2827879441857665,160,250417.0,77,64.5,0,-1,0,0,-1,0
1778106171.079573,7.829466819763184,0.2519389766171286,1.4301878377821962,3.8518740123219306,0.2931082374259637,1.499854055104573,3.8421218557133408,2,391,-4.116926080883509,-6.966621732237677,0.9752156608589857,8.150702074099494,-1,2,-4,-0.05687161442123113,-0.013288989784189471,0.014622622712303742,160,250421.99999999997,77,64.5,0,0,0,0,-1,0
1778106171.151859,7.901752948760986,0.2519389766171286,1.4301878377821962,3.8518740123219306,0.36300729439708,1.5224527672637418,3.8640276497144357,2,395,-11.10683177799514,-9.226492948154563,-1.215363739250508,14.490237861598876,-30,11,-14,0.9669774539073882,0.3126286117749616,0.30304284244852564,160,250410.0,77,64.5,-1,0,0,0,-1,0
1778106171.223722,7.973615884780884,0.2519389766171286,1.4301878377821962,3.8518740123219306,0.3588344593255588,1.5212279382666192,3.8653667086958263,2,398,-10.68954827084302,-9.104010048442301,-1.3492696373895718,14.105671545559353,-5,3,-6,-0.05806658206068622,-0.01704395986247328,0.01863351340139902,160,250423.0,77,64.5,-1,0,0,0,-1,0
1778106171.296656,8.046549797058105,0.2519389766171286,1.4301878377821962,3.8518740123219306,0.2064207274128177,1.4172485180710903,3.878965945019948,2,402,4.551824920431091,1.2939319711105846,-2.7091932698017462,5.4528064540435235,30,9,30,-2.0897512166002663,-1.4256662908785593,0.18645971262903147,160,250423.0,77,64.5,-1,0,0,0,-1,0
1778106171.3670862,8.116980075836182,0.2519389766171286,1.4301878377821962,3.8518740123219306,0.2756984168720926,1.4977855094495487,3.8461834369373413,2,405,-2.3759440254964015,-6.759767166735253,0.569057538458928,7.18772485859336,-26,-9,-30,0.9836350311428835,1.1434995399099324,-0.4654604333727473,160,250423.99999999997,77,64.5,0,0,0,0,-1,0
1778106171.438347,8.188241004943848,0.2519389766171286,1.4301878377821962,3.8518740123219306,0.26604889673491416,1.5033193561922498,3.8633965616630905,2,409,-1.4109920117785557,-7.313151841005361,-1.1522549341159927,7.536629202773455,2,9,-7,-0.13541109073387586,0.07765611271135901,0.24155066375492254,150,250427.0,77,64.5,0,-1,0,0,0,0
1778106171.5098188,8.25971269607544,0.2519389766171286,1.4301878377821962,3.8518740123219306,0.2583367513559949,1.5055033191857077,3.862170080067852,2,413,-0.6397774738866269,-7.531548140351152,-1.0296067745921178,7.628474468516338,1,2,-6,-0.10790489572605592,0.03055703536434944,-0.01716038302466613,150,250425.0,77,64.5,-1,0,0,0,-1,0
1778106171.5809731,8.330867052078247,0.2519389766171286,1.4301878377821962,3.8518740123219306,0.3400624349679111,1.5201568360388875,3.870112121763611,2,416,-8.81234583507825,-8.996899825669136,-1.8238109441680361,12.725090646050951,-30,6,-11,1.148568945078942,0.20593984228599635,0.11161708350569297,150,250425.0,77,64.5,-1,0,0,0,-1,0
1778106171.652458,8.40235185623169,0.2519389766171286,1.4301878377821962,3.8518740123219306,0.2576896416108233,1.5045457006511658,3.8662542024871587,2,420,-0.5750664993694699,-7.4357862868969615,-1.4380190165228068,7.595361602648236,27,2,0,-1.152311940035176,-0.21838397086760405,-0.05396838282121128,160,250423.0,77,64.5,0,0,0,0,0,0
1778106171.723507,8.473400831222534,0.2519389766171286,1.4301878377821962,3.8518740123219306,0.17732624049010648,1.4920112858503547,3.858299612473758,2,423,7.461273612702213,-6.182344806815854,-0.6425600151827471,9.711069694275752,30,0,0,-1.1310986700522048,-0.1764193614675827,-0.11195925084669575,160,250417.0,76,64.5,0,0,0,0,0,0
1778106171.796196,8.546089887619019,0.2519389766171286,1.4301878377821962,3.8518740123219306,0.25012344548445764,1.506393389451532,3.867029666941017,2,427,0.18155311326709667,-7.620555166933585,-1.5155654619086523,7.77192133610123,-25,6,-11,1.0014878250348564,0.1978578938035699,0.12010135913225699,160,250417.0,76,64.5,0,0,0,0,0,0
1778106171.866566,8.616459846496582,0.2519389766171286,1.4301878377821962,3.8518740123219306,0.23355933000613072,1.58182117302808,3.838985535139641,2,430,1.837964661099789,-15.163333524588385,1.288847718228947,15.32859830885204,6,-7,-30,-0.23538617533011194,1.0718747712754049,-0.3985242033489022,160,250423.99999999997,76,64.5,0,-1,0,0,0,0
1778106171.938167,8.688060998916626,0.2519389766171286,1.4301878377821962,3.8518740123219306,0.23926323866065613,1.512120425161326,3.8642662546515276,2,434,1.2675737956472477,-8.19325873791299,-1.2392242329597014,8.382834173079752,-1,12,17,0.07966224651055571,-0.9734584641579317,0.3530769918838545,160,250430.00000000003,76,65.0,0,0,0,0,0,0
1778106172.009829,8.75972294807434,0.2519389766171286,1.4301878377821962,3.8518740123219306,0.16661210317413466,1.496492605345062,3.8591494877700407,2,438,8.532687344299394,-6.630476756286585,-0.7275475448110136,10.830480172235406,30,1,0,-1.0138035085625372,-0.21807695715713887,-0.0714014472342332,160,250430.00000000003,76,65.0,0,0,0,0,0,0
1778106172.079911,8.82980489730835,0.2519389766171286,1.4301878377821962,3.8518740123219306,0.16661210317413466,1.496492605345062,3.8591494877700407,2,441,8.532687344299394,-6.630476756286585,-0.7275475448110136,10.830480172235406,4,3,-5,0.0,0.0,0.0,160,250423.0,76,65.0,0,0,0,0,0,0
1778106172.1531851,8.90307903289795,0.2519389766171286,1.4301878377821962,3.8518740123219306,0.263323923541403,1.6755504866242283,3.7667205484513864,0,445,-1.1384946924274386,-24.53626488420322,8.515346387054423,25.996838052424575,-30,-30,-30,1.3198629992572088,2.443671014859184,-1.2614128924882677,160,250416.0,76,65.0,0,0,0,0,0,0
1778106172.2250948,8.97498869895935,0.2519389766171286,1.4301878377821962,3.8518740123219306,0.22272460946471886,1.6175383741448814,3.7908073937656623,0,448,2.9214367152409744,-18.73505363626853,6.106661855626827,19.920550852172344,15,7,5,-0.564587715398618,-0.8067359460383561,0.33495977152374723,160,250425.0,76,65.0,0,0,0,0,0,0
1778106172.295939,9.045832872390747,0.2519389766171286,1.4301878377821962,3.8518740123219306,0.1621652112331615,1.6670316563176883,3.7804962133791014,0,452,8.977376538396712,-23.68438185354922,7.137779894282925,26.315226298022154,26,-5,-30,-0.8548253906893472,0.6986217747424891,-0.14554733137716738,160,250425.0,76,65.0,0,0,0,0,0,0
1778106172.365608,9.115501880645752,0.2519389766171286,1.4301878377821962,3.8518740123219306,0.23871198697571974,1.514656631938971,3.840494007444918,0,455,1.3226989641408866,-8.446879415677477,1.1380004877012517,8.62521591165946,-26,23,30,1.0987206170981956,-2.1871277946284113,0.8611834095041336,160,250425.0,76,65.0,-1,0,0,0,0,0
1778106172.43663,9.186523914337158,0.2519389766171286,1.4301878377821962,3.8518740123219306,0.16146975263111263,1.5164781701620185,3.872162373497257,2,459,9.046922398601598,-8.629033237982231,-2.0288361175326397,12.665827864783505,30,14,-8,-1.0875812804830103,0.025647508644460918,0.44589494845978794,160,250421.0,76,65.0,0,0,0,0,0,0
1778106172.508369,9.258262872695923,0.2519389766171286,1.4301878377821962,3.8518740123219306,0.22131912277774946,1.598823183327518,3.8530615240506236,2,463,3.061985383937915,-16.86353455453218,-0.11875117286930248,17.139680685602286,-19,-3,-30,0.8342659485984129,1.1478423307137278,-0.2662549036621152,160,250421.0,76,65.0,0,0,0,0,0,0
1778106172.5802271,9.330121040344238,0.2519389766171286,1.4301878377821962,3.8518740123219306,0.22598199751973658,1.598281199652789,3.854201162881274,2,466,2.595697909739203,-16.809336187059287,-0.2327150559343405,17.010161286286024,0,3,-13,0.06488997555306343,-0.0075424087819975635,0.015859558738373934,160,250419.99999999997,76,65.0,-1,0,0,0,0,0
1778106172.651395,9.401288986206055,0.2519389766171286,1.4301878377821962,3.8518740123219306,0.22496460248299144,1.6018685481745902,3.8514308347410235,2,470,2.697437413413717,-17.168071039239408,0.04431775809070615,17.378745520644955,1,1,-15,-0.014295692034171803,0.05040680152222739,-0.0389266278055782,160,250419.99999999997,76,65.0,-1,0,0,0,0,0
1778106172.722538,9.472431898117065,0.2519389766171286,1.4301878377821962,3.8518740123219306,0.1671788503294559,1.522002178671162,3.870082125919682,2,473,8.476012628767272,-9.181434088896578,-1.8208113597751208,12.627623530168316,25,10,19,-0.8122489029661446,-1.122618787425082,0.262166541650534,160,250429.0,76,65.0,-1,-1,0,0,0,0
1778106172.7947059,9.544599771499634,0.2519389766171286,1.4301878377821962,3.8518740123219306,0.23244520548038872,1.6014766316927043,3.852395758239916,2,477,1.949377113673989,-17.12887939105081,-0.05217459179855943,17.23952732856996,-21,-3,-30,0.9043685519864224,1.1012442143090615,-0.24507259048647026,160,250423.0,76,65.0,-1,-1,0,0,0,0
1778106172.86532,9.615213871002197,0.2519389766171286,1.4301878377821962,3.8518740123219306,0.2444686485134473,1.5391763806651877,3.8958843863769457,2,480,0.7470328103681312,-10.898854288299153,-4.401037405501507,11.777614913978415,-3,20,12,0.1702697211712244,-0.8822636196791678,0.6158632403922495,160,250423.0,76,65.0,-1,-1,0,0,0,0
1778106172.9355788,9.6854727268219,0.2519389766171286,1.4301878377821962,3.8518740123219306,0.16766238870302297,1.5819020614066783,3.8279329562117312,2,484,8.427658791410565,-15.171422362448217,2.3941056110199366,17.519395848057968,30,-22,-28,-1.0931897326583866,0.6081180833791688,-0.967158223293459,160,250419.99999999997,76,64.5,-1,-1,0,0,0,0
1778106173.006134,9.756027936935425,0.2519389766171286,1.4301878377821962,3.8518740123219306,0.17583186114101979,1.5186006683687885,3.8705352168414753,2,487,7.610711547610882,-8.841283058659233,-1.8661204519544672,11.814128064545226,1,18,13,0.11578836523698104,-0.8971894908403796,0.6038145242739091,160,250419.99999999997,76,64.5,-1,-1,0,0,0,0
1778106173.076876,9.826769828796387,0.2519389766171286,1.4301878377821962,3.8518740123219306,0.24460783883665782,1.592668000104291,3.8347151115958487,2,491,0.7331137780470787,-16.248016232209483,1.715890072608195,16.354808651738505,-23,-10,-30,0.9722100425418684,1.0470080709896268,-0.5063492692000442,160,250419.99999999997,76,64.5,-1,-1,0,0,0,0
1778106173.148718,9.898612022399902,0.2519389766171286,1.4301878377821962,3.8518740123219306,0.18104587359347046,1.5037678808580592,3.8550928904300723,2,495,7.089310302365814,-7.358004307586308,-0.32188781081416984,10.222629784768667,26,10,23,-0.8847442158291354,-1.2374360356652778,0.28364638956718125,160,250415.0,76,64.5,-1,-1,0,0,0,0
1778106173.218854,9.968747854232788,0.2519389766171286,1.4301878377821962,3.8518740123219306,0.24660416674202612,1.586720281029419,3.835875959999313,2,498,0.5334809875102486,-15.653244324722282,1.5998052322617529,15.743825349471372,-22,-5,-30,0.934733237423674,1.1827392361868942,-0.2739959009333182,160,250417.99999999997,76,64.5,0,0,0,0,0,0
1778106173.288461,10.038354873657227,0.2519389766171286,1.4301878377821962,3.8518740123219306,0.24620358938903142,1.5848844204906607,3.835252672759828,2,502,0.5735387228097188,-15.469658270846454,1.6621339562102655,15.569263404917958,0,1,-12,-0.005754841340815443,-0.026374646608036293,-0.008954373346810696,160,250421.99999999997,76,64.5,0,0,0,0,0,0
1778106173.357512,10.1074059009552,0.2519389766171286,1.4301878377821962,3.8518740123219306,0.25004372306942824,1.5833028928434665,3.836055488641474,2,505,0.18952535477003707,-15.311505506127032,1.5818523680456664,15.39416700047621,-1,2,-12,0.05561298405924672,-0.022903752617169613,0.011626414740820953,160,250421.99999999997,76,64.5,0,0,0,0,0,0
1778106173.426233,10.176126956939697,0.2519389766171286,1.4301878377821962,3.8518740123219306,0.19172538597294997,1.4893251035067427,3.8379423700900737,2,508,6.021359064417863,-5.913726572454658,1.3931642231856944,8.55393672581041,24,2,27,-0.8486239953826441,-1.3675253965527594,0.027457107891726597,160,250416.0,76,64.5,0,0,0,0,0,0
1778106173.494569,10.244462966918945,0.2519389766171286,1.4301878377821962,3.8518740123219306,0.2555281406561065,1.5668722386173366,3.8213643988055175,2,512,-0.358916403897791,-13.668440083514044,3.0509613516413125,14.009405428882744,-23,-5,-30,0.933662277070784,1.1347916732941095,-0.24259495527453973,160,250413.0,76,64.5,0,-1,0,0,0,0
1778106173.562903,10.312796831130981,0.2519389766171286,1.4301878377821962,3.8518740123219306,0.27356021044177226,1.4972533126610914,3.8467623121742043,2,515,-2.162123382464365,-6.706547487889525,0.5111700147726328,7.064973567701374,-7,11,18,0.26388189799589323,-1.0188056355224049,0.371673893486815,160,250413.0,76,64.5,0,-1,0,0,0,0
1778106173.6297312,10.379625082015991,0.2519389766171286,1.4301878377821962,3.8518740123219306,0.274962982489528,1.493218604918075,3.847563513033139,2,519,-2.302400587239939,-6.303076713587874,0.43104992887914584,6.724256729385282,-1,2,-5,0.02099070421833225,-0.06037428317492494,0.01198895449640725,160,250417.0,76,64.5,0,-1,0,0,0,0
1778106173.696447,10.446340799331665,0.2519389766171286,1.4301878377821962,3.8518740123219306,0.3332955659057233,1.578293297655248,3.8238734508331707,2,522,-8.135658928859469,-14.81054598730518,2.8000561488759956,17.128383843365686,-26,-7,-30,0.8743454430713429,1.2751821633668632,-0.35508967231628463,160,250417.0,76,64.5,0,-1,0,0,0,0
1778106173.770402,10.520295858383179,0.2519389766171286,1.4301878377821962,3.8518740123219306,0.27850431068036496,1.4897816726460937,3.847779399605827,2,526,-2.6565334063236357,-5.959383486389758,0.4094612716103452,6.537513274152272,16,10,22,-0.7408723071560699,-1.196829887560513,0.3232496745896008,160,250425.0,75,64.5,0,-1,0,0,0,0
1778106173.8408399,10.590733766555786,0.2519389766171286,1.4301878377821962,3.8518740123219306,0.2792245615803315,1.4878026610741593,3.848188564662585,2,529,-2.728558496320288,-5.76148232919631,0.3685447659345531,6.385572436515048,-1,2,-6,0.010225330630227627,-0.02809583111248741,0.0058088757513250645,160,250413.0,75,64.5,0,-1,0,0,0,0
1778106173.913398,10.663291931152344,0.2519389766171286,1.4301878377821962,3.8518740123219306,0.13031643853173724,1.3825817766577155,3.85345165771702,2,533,12.162253808539136,4.7606061124480625,-0.1577645395089533,13.061725686567186,30,4,30,-2.052258679316964,-1.4501591240834077,0.07253619332433832,160,250425.0,75,65.0,0,-1,0,0,0,0
1778106173.9859898,10.735883712768555,0.2519389766171286,1.4301878377821962,3.8518740123219306,0.21107286082058352,1.3897080699163804,3.867034651700009,2,536,4.086611579654509,4.047976786581575,-1.5160639378078322,5.94852587883679,-25,8,-2,1.1124733474073054,0.09816942221285081,0.18711476258843443,160,250425.0,75,65.0,0,-1,0,0,0,0
1778106174.056612,10.806505918502808,0.2519389766171286,1.4301878377821962,3.8518740123219306,0.2797718548887975,1.472150149205727,3.8529605399627784,2,540,-2.7832878271668915,-4.19623114235308,-0.1086527640847823,5.036551633017623,-25,-2,-30,0.9727676069298111,1.1673676633603187,-0.1992873429950705,160,250413.0,75,65.0,-1,-1,0,0,0,0
1778106174.128466,10.8783597946167,0.2519389766171286,1.4301878377821962,3.8518740123219306,0.2153908654417217,1.3829236638140903,3.8498602876312664,2,544,3.6548111175406905,4.726417396810589,0.2013724690664187,5.978061273111102,24,1,30,-0.895998837209966,-1.2417769258572595,-0.04314662616944939,150,250401.00000000003,75,65.0,-1,0,0,0,0,0
1778106174.200567,10.95046091079712,0.2519389766171286,1.4301878377821962,3.8518740123219306,0.19464581164164152,1.4601531181708012,3.8425720264050693,2,547,5.729316497548709,-2.996528038860502,0.9301985916861266,6.532190845094456,10,0,-30,-0.2877216733811646,1.0711270289277943,-0.10108388901996374,150,250401.00000000003,75,65.0,-1,0,0,0,0,0
1778106174.271384,11.021277904510498,0.2519389766171286,1.4301878377821962,3.8518740123219306,0.20173342103858005,1.454953821521375,3.825907107020907,2,551,5.0205555578548555,-2.476598373917893,2.5966905301023413,6.171087369688037,0,-4,-3,0.10008345490666494,-0.07341877107166477,-0.23532373389939273,150,250406.0,75,65.0,-1,0,0,0,0,0
1778106174.3421361,11.092030048370361,0.2519389766171286,1.4301878377821962,3.8518740123219306,0.19599146207992713,1.5250243953449578,3.802634249012929,2,554,5.594751453720148,-9.483655756276166,4.923976330900182,12.061779024659629,5,-8,-30,-0.08115597133036502,0.9903667931585152,-0.32893502215387677,150,250412.0,75,65.0,-1,0,0,0,0,0
1778106174.41341,11.163303852081299,0.2519389766171286,1.4301878377821962,3.8518740123219306,0.19764165585088656,1.4553604991797378,3.8449031090566703,2,558,5.429732076624205,-2.5172661397541596,0.6970903265260286,6.025326063011924,2,17,19,0.02315287924932502,-0.9774123526191099,0.5930490284364472,150,250413.0,75,65.0,-1,0,0,0,0,0
1778106174.483497,11.233390808105469,0.2519389766171286,1.4301878377821962,3.8518740123219306,0.20609891983014217,1.4491675538216393,3.8289130659815718,2,561,4.584005678698643,-1.897971603944315,2.2960946340358834,5.466942000805272,0,-4,-2,0.12066815936961328,-0.08836088352820987,-0.2281457775050793,150,250413.0,75,65.0,-1,0,0,0,0,0
1778106174.554771,11.304664850234985,0.2519389766171286,1.4301878377821962,3.8518740123219306,0.20609891983014217,1.4491675538216393,3.8289130659815718,2,565,4.584005678698643,-1.897971603944315,2.2960946340358834,5.466942000805272,3,1,-4,0.0,0.0,0.0,150,250421.0,75,65.0,0,0,0,0,0,0
1778106174.629152,11.379045963287354,0.2519389766171286,1.4301878377821962,3.8518740123219306,0.13742157506424824,1.3684192488134856,3.8382192477499686,2,569,11.451740155288038,6.176858896871051,1.365476457196202,13.082830900506535,30,4,29,-0.9233169812549258,-1.0856022677598636,0.12511484954311963,150,250410.0,75,65.0,0,0,0,0,0,0
1778106174.699809,11.449702978134155,0.2519389766171286,1.4301878377821962,3.8518740123219306,0.21728082262137882,1.3767614542780817,3.8510384536154114,2,572,3.4658153995749785,5.342638350411444,0.08355587065191905,6.3688807894903,-25,6,-2,1.1302380624242485,0.11806620308944002,0.18142863653718427,150,250410.0,75,65.0,0,0,0,0,0,0
1778106174.771443,11.521336793899536,0.2519389766171286,1.4301878377821962,3.8518740123219306,0.21266232028592613,1.3781673925158877,3.869252340138184,2,576,3.9276656331202475,5.202044526630845,-1.7378327816253591,6.7459534062677555,4,9,0,-0.06447377242306163,0.019626739449575062,0.25426380443599345,150,250410.0,75,65.0,0,0,0,0,0,0
1778106174.843651,11.593544960021973,0.2519389766171286,1.4301878377821962,3.8518740123219306,0.21266232028592613,1.3781673925158877,3.869252340138184,2,579,3.9276656331202475,5.202044526630845,-1.7378327816253591,6.7459534062677555,2,3,0,0.0,0.0,0.0,150,250410.0,75,65.0,0,0,0,0,0,0
1778106174.919171,11.669064998626709,0.2519389766171286,1.4301878377821962,3.8518740123219306,0.21151579205901827,1.4464721634253785,3.8286512260187013,2,583,4.042318455811033,-1.6284325643182385,2.322278630322927,4.938128101981267,3,-12,-27,-0.015181774904918488,0.9044588982136328,-0.5376204100210367,150,250414.0,75,65.0,-1,0,0,0,0,0
1778106174.989643,11.739537000656128,0.2519389766171286,1.4301878377821962,3.8518740123219306,0.20781097259155767,1.450335238086181,3.8260693951429303,2,587,4.412800402557093,-2.0147400303984764,2.580461717900029,5.494612585109678,4,0,-5,-0.05257150869524038,0.05481715503399089,-0.03663626406829223,150,250413.0,75,64.5,-1,0,0,0,0,0
1778106175.0600588,11.809952735900879,0.2519389766171286,1.4301878377821962,3.8518740123219306,0.1421498340752071,1.3672776059186051,3.837785023035353,2,590,10.978914254192151,6.2910231863591015,1.4088989286577647,12.731791983981847,30,5,30,-0.9324782065844464,-1.1795322718549215,0.16637798145118374,150,250413.0,75,64.5,-1,0,0,0,0,0
1778106175.132193,11.882086992263794,0.2519389766171286,1.4301878377821962,3.8518740123219306,0.1421498340752071,1.3672776059186051,3.837785023035353,2,594,10.978914254192151,6.2910231863591015,1.4088989286577647,12.731791983981847,7,1,1,0.0,0.0,0.0,150,250413.0,75,64.5,-1,0,0,0,0,0
1778106175.204833,11.954726934432983,0.2519389766171286,1.4301878377821962,3.8518740123219306,0.1421498340752071,1.3672776059186051,3.837785023035353,2,598,10.978914254192151,6.2910231863591015,1.4088989286577647,12.731791983981847,7,1,1,0.0,0.0,0.0,150,250413.0,75,64.5,-1,0,0,0,0,0
1778106175.279615,12.029508829116821,0.2519389766171286,1.4301878377821962,3.8518740123219306,0.22674371559767392,1.3922707907403034,3.8637419766170398,2,601,2.5195261019454684,3.7917047041892804,-1.1867964295109168,4.704627733121454,-27,12,-9,1.1312080535016122,0.3342143834060923,0.3471021119674401,150,250415.0,75,64.5,0,0,0,0,1,0
1778106175.348324,12.098217964172363,0.2519389766171286,1.4301878377821962,3.8518740123219306,0.2304190909242244,1.39516315111271,3.8625848296598613,2,604,2.1519885692904195,3.5024686669486105,-1.0710817337930667,4.248006314234781,0,2,-1,0.05349180023266846,0.04209571798667847,-0.0168412388868395,150,250415.0,75,64.5,0,0,0,0,1,0
1778106175.414455,12.164348840713501,0.2519389766171286,1.4301878377821962,3.8518740123219306,0.30372603443528545,1.494111216730615,3.841395970153317,2,608,-5.178705781815685,-6.392337894841882,1.0478042168613477,8.293302780757204,-30,-6,-30,1.108513108327838,1.4962460924943708,-0.32040796394651294,150,250417.99999999997,75,64.5,0,0,0,0,1,0
1778106175.480192,12.230085849761963,0.2519389766171286,1.4301878377821962,3.8518740123219306,0.3070665420663049,1.4969467634288267,3.840021078197543,2,611,-5.51275654491763,-6.675892564663055,1.1852934124387815,8.73858951616486,-3,1,-8,0.05081624003545399,0.04313470812341557,-0.020915036684445974,150,250421.99999999997,75,64.5,0,-1,0,0,1,0
1778106175.548865,12.29875898361206,0.2519389766171286,1.4301878377821962,3.8518740123219306,0.31041109771648967,1.4997353372539513,3.838699380097299,2,615,-5.847212109936106,-6.954749947175509,1.3174632224631555,9.181184326047715,-4,1,-9,0.04870253420333766,0.04060647401371759,-0.019246217933330277,150,250415.0,75,64.5,0,-1,0,0,0,0
1778106175.619753,12.369646787643433,0.2519389766171286,1.4301878377821962,3.8518740123219306,0.3117973322696491,1.5020514937885472,3.8379046535997485,2,618,-5.985835565252051,-7.186365600635103,1.396935872218208,9.456506109093247,-3,1,-9,0.019555332149179816,0.0326735545873434,-0.011211046927039952,150,250415.0,75,64.5,0,-1,0,0,0,0
1778106175.692348,12.442241907119751,0.2519389766171286,1.4301878377821962,3.8518740123219306,0.3751110953484432,1.5855901427637678,3.794287321284297,2,622,-12.317211873131463,-15.54023049815716,5.7586691037633475,20.64884360224812,-28,-16,-30,0.872149030616969,1.1507474548956718,-0.6008300920240243,150,250419.0,75,64.5,-1,-2,0,0,0,0
1778106175.761312,12.511205911636353,0.2519389766171286,1.4301878377821962,3.8518740123219306,0.3925395020952034,1.5258660850169394,3.8374558508276357,2,625,-14.060052547807478,-9.567824723474327,1.4418161494294868,17.06772338055049,-14,17,11,0.25271744106107785,-0.866017833005203,0.6259574084469927,160,250417.0,74,64.5,0,-2,0,0,0,0
1778106175.831557,12.581450939178467,0.2519389766171286,1.4301878377821962,3.8518740123219306,0.37694203453931396,1.5860592073944164,3.7937058878343817,2,629,-12.500305792218535,-15.587136961222026,5.816812448754893,20.80989645843669,-1,-16,-30,-0.22204372468269323,0.8569022532077332,-0.6228193585236264,160,250417.0,74,64.5,0,-2,0,0,0,0
1778106175.902745,12.652638912200928,0.2519389766171286,1.4301878377821962,3.8518740123219306,0.37694203453931396,1.5860592073944164,3.7937058878343817,2,632,-12.500305792218535,-15.587136961222026,5.816812448754893,20.80989645843669,-7,-1,-14,0.0,0.0,0.0,160,250421.0,74,64.5,0,-2,0,0,0,0
