timestamp,phase,command,axis,repeat,t_send,t_since_cmd,marker_id,pos_x,pos_y,pos_z,marker_dist,tello_height_cm,tello_baro_cm,tello_battery,tello_temp_c,tello_pitch,tello_roll,tello_yaw,tello_vgx,tello_vgy,tello_vgz,tello_agx,tello_agy,tello_agz
1777477027.352989,init_hover,none,-,0,,,4,1.2813476455571313,0.7069640448698679,2.2112204771991713,2.345247136268176,50,249235.0,31,58.0,0,0,2,0,0,0,-6.0,23.0,-1001.0
1777477027.547699,init_hover,none,-,0,,,4,1.3194974245208078,0.7219043450685816,2.205372701258299,2.3303164836697983,50,249234.0,31,58.0,1,-1,2,0,0,0,2.0,9.0,-1007.0
1777477027.598322,init_hover,none,-,0,,,4,1.3228311659571903,0.7181166151750085,2.200670045603566,2.3243718420825235,50,249235.0,31,58.0,1,-1,2,0,0,0,-16.0,14.0,-1013.0
1777477027.65063,init_hover,none,-,0,,,4,1.2847262468373446,0.6819810125821677,2.1859484173559838,2.317218228126429,50,249235.0,31,58.0,1,-1,2,0,0,0,-16.0,14.0,-1013.0
1777477027.702875,init_hover,none,-,0,,,4,1.3576759339194218,0.7360853195455508,2.1987781969876954,2.3152017422740467,50,249237.0,31,58.0,1,-1,2,0,0,0,0.0,8.0,-1003.0
1777477027.75368,init_hover,none,-,0,,,4,1.2898825222506038,0.680109850953882,2.1748794761899757,2.3049575043282147,50,249237.0,31,58.0,1,-1,2,0,0,0,0.0,8.0,-1003.0
1777477027.803244,init_hover,none,-,0,,,4,1.3292202338593033,0.7175048401032996,2.182948426160223,2.3056492902061634,50,249229.0,31,58.0,0,-1,2,0,0,0,-11.0,27.0,-1010.0
1777477027.8634071,init_hover,none,-,0,,,4,1.3326379747533648,0.7168836633858929,2.177292262769059,2.299214849981655,50,249229.0,31,58.0,0,-1,2,0,0,0,-11.0,27.0,-1010.0
1777477027.9123259,init_hover,none,-,0,,,4,1.3030262658905458,0.6997570752567063,2.166170409708044,2.2951951843143203,50,249235.0,31,58.0,0,0,2,0,0,0,5.0,15.0,-1021.0
1777477027.962877,init_hover,none,-,0,,,4,1.3343804985818335,0.7153216644589044,2.1708150600639704,2.292360158820128,50,249235.0,31,58.0,0,0,2,0,0,0,5.0,15.0,-1021.0
1777477028.014587,init_hover,none,-,0,,,4,1.3364477531930818,0.7156671753607105,2.16532830537193,2.2866119084548635,50,249225.0,31,58.0,0,0,2,0,0,0,-12.0,31.0,-1004.0
1777477028.065257,init_hover,none,-,0,,,4,1.3166017109111383,0.7208354846104251,2.1503207691201167,2.279001544497967,50,249225.0,31,58.0,0,0,2,0,0,0,-12.0,31.0,-1004.0
1777477028.1151109,init_hover,none,-,0,,,4,1.337115008367831,0.7169595881253795,2.157638642129475,2.2793166525619286,50,249234.0,31,58.0,0,-1,2,0,0,0,-21.0,8.0,-987.0
1777477028.165215,init_hover,none,-,0,,,4,1.320874796024364,0.7241263299024929,2.1374897124743684,2.266082785633563,50,249234.0,31,58.0,0,-1,2,0,0,0,-21.0,8.0,-987.0
1777477028.215605,init_hover,none,-,0,,,4,1.3412915802223349,0.7157367261930058,2.1448642958496458,2.2658396479370873,50,249233.0,31,58.0,1,-1,2,0,0,0,-15.0,14.0,-1016.0
1777477028.265436,init_hover,none,-,0,,,4,1.3209310014576772,0.7243546607675241,2.1293820899268283,2.2584527304426887,50,249233.0,31,58.0,1,-1,2,0,0,0,-15.0,14.0,-1016.0
1777477028.314681,init_hover,none,-,0,,,4,1.3143048272369233,0.7033060836270102,2.1270426892740093,2.2553232700235575,50,249233.0,30,58.0,1,-1,2,0,0,0,4.0,-1.0,-1004.0
1777477028.3639748,init_hover,none,-,0,,,4,1.3209375006880801,0.7263646427637944,2.121032377133981,2.2508705211248197,50,249233.0,30,58.0,1,-1,2,0,0,0,4.0,-1.0,-1004.0
1777477028.411482,init_hover,none,-,0,,,4,1.3414652119318857,0.7199743601412762,2.1293488246493295,2.251705592496323,50,249241.0,30,59.0,0,-1,2,0,0,0,-5.0,8.0,-992.0
1777477028.458411,init_hover,none,-,0,,,4,1.3431946641714738,0.7195514481202102,2.123554675727517,2.245660445831637,50,249241.0,30,59.0,0,-1,2,0,0,0,-5.0,8.0,-992.0
1777477028.5052722,init_hover,none,-,0,,,4,1.3508706865034383,0.742258838350229,2.1178765272146745,2.2414082543339258,50,249230.00000000003,30,59.0,0,-1,2,0,0,0,-3.0,17.0,-1004.0
1777477028.552206,init_hover,none,-,0,,,4,1.3508706865034383,0.742258838350229,2.1178765272146745,2.2414082543339258,50,249230.00000000003,30,59.0,0,-1,2,0,0,0,-3.0,17.0,-1004.0
1777477028.6005042,init_hover,none,-,0,,,4,1.3506831604877747,0.7453051500835763,2.1099662565935793,2.2344586835992084,50,249238.0,30,59.0,0,0,2,0,0,0,15.0,-6.0,-1010.0
1777477028.6481311,init_hover,none,-,0,,,4,1.345365871596187,0.7229804654907374,2.1095311997631447,2.232259865233832,50,249238.0,30,59.0,0,0,2,0,0,0,15.0,-6.0,-1010.0
1777477028.695549,init_hover,none,-,0,,,4,1.351262992631875,0.744269420240653,2.1031736087498625,2.2277164018302926,50,249233.0,30,59.0,0,0,2,0,0,0,-18.0,30.0,-1008.0
1777477028.742445,init_hover,none,-,0,,,4,1.3504635558830365,0.7451202683823255,2.10233655424192,2.2272908609308724,50,249233.0,30,59.0,0,0,2,0,0,0,-18.0,30.0,-1008.0
1777477028.790912,init_hover,none,-,0,,,4,1.3504145125638873,0.7481541046061131,2.094606056774574,2.2204835327284975,50,249233.0,30,59.0,0,0,2,0,0,0,-18.0,30.0,-1008.0
1777477028.8427541,init_hover,none,-,0,,,4,1.3580515730658191,0.7690198690259058,2.089213421698791,2.216548255280163,50,249233.0,30,59.0,0,-1,2,0,0,0,7.0,16.0,-1007.0
1777477028.893449,init_hover,none,-,0,,,4,1.328192281570994,0.7326573015093576,2.0737643909913626,2.2051043603721006,50,249233.0,30,59.0,0,-1,2,0,0,0,7.0,16.0,-1007.0
1777477028.943607,init_hover,none,-,0,,,4,1.3659834850224537,0.7898983028778759,2.0768360525620335,2.206183495784693,50,249242.99999999997,30,59.0,1,-1,2,0,0,0,-5.0,4.0,-990.0
1777477028.994338,init_hover,none,-,0,,,4,1.3593634443858549,0.769889216495428,2.0758445123881626,2.2037158774399224,50,249242.99999999997,30,59.0,1,-1,2,0,0,0,-5.0,4.0,-990.0
1777477029.045299,init_hover,none,-,0,,,4,1.3782221552820506,0.7674317671399509,2.08181340498687,2.2035337176609557,50,249235.0,30,59.0,1,-1,2,0,0,0,-8.0,14.0,-1002.0
1777477029.096172,init_hover,none,-,0,,,4,1.3867301912705545,0.7877067093818523,2.0702085381477615,2.193668102110857,50,249235.0,30,59.0,1,-1,2,0,0,0,-8.0,14.0,-1002.0
1777477029.145195,init_hover,none,-,0,,,4,1.3859466564697547,0.7885095952296293,2.0694316296310835,2.1932962599712167,50,249235.0,30,59.0,0,-1,2,0,0,0,13.0,1.0,-1000.0
1777477029.19582,init_hover,none,-,0,,,4,1.3611620364325012,0.7719148215895862,2.0558420903753927,2.184701645253225,50,249235.0,30,59.0,0,-1,2,0,0,0,13.0,1.0,-1000.0
1777477029.246411,init_hover,none,-,0,,,4,1.3604600460139427,0.7727450932177475,2.0550996910952986,2.184350017191015,50,249233.0,30,59.0,0,-1,2,0,0,0,-12.0,11.0,-988.0
1777477029.297264,init_hover,none,-,0,,,4,1.3683199529693564,0.7927644948145091,2.0431817713916054,2.174367811836459,50,249233.0,30,59.0,0,-1,2,0,0,0,-12.0,11.0,-988.0
1777477029.3481102,init_hover,none,-,0,,,4,1.3848277492346885,0.7917071054204876,2.0542126814709367,2.1798305198488643,50,249242.99999999997,30,59.0,0,0,2,0,0,0,6.0,-1.0,-976.0
1777477029.398101,init_hover,none,-,0,,,4,1.3607376678751002,0.7754231209904539,2.040965380799932,2.171436974602715,50,249242.99999999997,30,59.0,0,0,2,0,0,0,6.0,-1.0,-976.0
1777477029.448659,init_hover,none,-,0,,,4,1.4057689015421104,0.7875336805690849,2.055179112084307,2.1741789564563287,50,249242.99999999997,30,58.5,0,0,2,0,0,0,0.0,8.0,-979.0
1777477029.498612,init_hover,none,-,0,,,4,1.3439474072758637,0.7801182475632578,2.0210954479842234,2.1586388527063005,50,249242.99999999997,30,58.5,0,0,2,0,0,0,0.0,8.0,-979.0
1777477029.5477288,init_hover,none,-,0,,,4,1.3695324211100424,0.794966332678122,2.023339949415373,2.1557811398378948,50,249242.0,30,58.5,0,0,2,0,0,0,0.0,12.0,-982.0
1777477029.597706,init_hover,none,-,0,,,4,1.3698234826408866,0.7974757043285865,2.0163436932061103,2.1495932795983577,50,249242.0,30,58.5,0,0,2,0,0,0,0.0,12.0,-982.0
1777477029.648458,init_hover,none,-,0,,,4,1.398421441454852,0.8339360068456603,2.0149106540944697,2.1471055316685805,50,249234.0,30,58.5,0,0,2,0,0,0,-28.0,16.0,-1011.0
1777477029.697946,init_hover,none,-,0,,,4,1.3785657463767886,0.8143324176195117,1.9991444327797858,2.1341111374483477,50,249234.0,30,58.5,0,0,2,0,0,0,-28.0,16.0,-1011.0
1777477029.749365,init_hover,none,-,0,,,4,1.3975119586211338,0.8124978468684774,1.9994564022134156,2.128608047064534,50,249240.0,30,58.5,0,0,2,0,0,0,-6.0,15.0,-990.0
1777477029.798597,init_hover,none,-,0,,,4,1.3793257809178658,0.8153586929191645,1.9863133587800714,2.122074477789341,50,249251.00000000003,30,58.5,2,-1,2,0,0,0,-10.0,10.0,-997.0
1777477029.8488781,init_hover,none,-,0,,,4,1.4255247955231738,0.8300655448774319,1.9880766892586308,2.113628883182422,50,249251.00000000003,30,58.5,2,-1,2,0,0,0,-10.0,10.0,-997.0
1777477029.898746,init_hover,none,-,0,,,4,1.4268498330833035,0.8290161310625674,1.983076686603112,2.108352223775076,50,249242.99999999997,30,58.5,2,-1,2,0,0,0,0.0,-1.0,-985.0
1777477029.947933,init_hover,none,-,0,,,4,1.4261959429145272,0.829796979085353,1.9824568491290657,2.1081061875098674,50,249242.99999999997,30,58.5,2,-1,2,0,0,0,0.0,-1.0,-985.0
1777477029.9975748,init_hover,none,-,0,,,4,1.4096040065020738,0.8310973238685442,1.9651387862230572,2.0967076050091618,50,249244.0,30,58.5,1,-1,2,0,0,0,5.0,4.0,-989.0
1777477030.046308,init_hover,none,-,0,,,4,1.4469492892020623,0.8281005757669091,1.9774126190608445,2.0974498462912363,50,249244.0,30,58.5,1,-1,2,0,0,0,5.0,4.0,-989.0
1777477030.096283,init_hover,none,-,0,,,4,1.4166390101768997,0.8493079082273027,1.9472776722738723,2.0818448486328975,60,249244.99999999997,30,58.5,0,-1,2,0,0,0,-11.0,20.0,-993.0
1777477030.1460328,init_hover,none,-,0,,,4,1.4353282936438916,0.8450629053915094,1.9543717383565975,2.082427433886146,60,249244.99999999997,30,58.5,0,-1,2,0,0,0,-11.0,20.0,-993.0
1777477030.196152,init_hover,none,-,0,,,4,1.4323636505315482,0.8282886475878084,1.9502732648067038,2.075863193543896,60,249244.99999999997,30,58.5,0,0,2,0,0,0,3.0,0.0,-995.0
1777477030.244894,init_hover,none,-,0,,,4,1.4358960405123526,0.8466797785213336,1.9421438829531477,2.0711491891560683,60,249244.99999999997,30,58.5,0,0,2,0,0,0,3.0,0.0,-995.0
1777477030.295837,init_hover,none,-,0,,,4,1.423429266212242,0.8468546722545174,1.9278436161587897,2.0612360169423702,60,249238.0,29,58.5,1,-1,2,0,0,0,-2.0,16.0,-989.0
1777477030.343658,init_hover,none,-,0,,,4,1.4076571621362461,0.847809734504738,1.9168147007114262,2.0556220938560483,60,249238.0,29,58.5,1,-1,2,0,0,0,-2.0,16.0,-989.0
1777477030.391907,init_hover,none,-,0,,,4,1.4435107992676146,0.8428706817148052,1.9239587556861684,2.051202565529737,60,249246.0,29,58.5,1,-1,2,0,0,0,1.0,3.0,-982.0
1777477030.438793,init_hover,none,-,0,,,4,1.4293616764359154,0.8447158908738782,1.9137196301035615,2.0459039915302695,60,249246.0,29,58.5,1,-1,2,0,0,0,1.0,3.0,-982.0
1777477030.4896262,init_hover,none,-,0,,,4,1.4320302949279524,0.8432580396907585,1.9039574944343753,2.035711525792136,60,249235.0,29,58.5,1,-1,2,0,0,0,16.0,0.0,-986.0
1777477030.5397718,init_hover,none,-,0,,,4,1.4509857665577521,0.8600375119794781,1.9063701961852877,2.036491705324129,60,249235.0,29,58.5,1,-1,2,0,0,0,16.0,0.0,-986.0
1777477030.592185,init_hover,none,-,0,,,4,1.4353026445207293,0.8406656706460073,1.9002224582011755,2.030742407895028,60,249246.99999999997,29,58.5,1,-1,2,0,0,0,7.0,1.0,-993.0
1777477030.6432781,init_hover,none,-,0,,,4,1.4407938427791582,0.8568730281556078,1.8884732017931714,2.0218248005256854,60,249246.99999999997,29,58.5,1,-1,2,0,0,0,7.0,1.0,-993.0
1777477030.694087,init_hover,none,-,0,,,4,1.4766334802100962,0.8558046815841616,1.8989967351366213,2.0218454495461766,60,249240.0,29,58.5,1,0,2,0,0,0,5.0,1.0,-972.0
1777477030.743985,init_hover,none,-,0,,,4,1.4976268750678043,0.8719595167216097,1.89618030162824,2.017578815898204,60,249240.0,29,58.5,1,0,2,0,0,0,5.0,1.0,-972.0
1777477030.794176,init_hover,none,-,0,,,4,1.4807915935960747,0.8520957522601029,1.890423821497006,2.0118822439137625,60,249246.0,29,58.5,0,0,2,0,0,0,-1.0,21.0,-979.0
1777477030.844216,init_hover,none,-,0,,,4,1.4666861303176422,0.851388039507624,1.8812714793387157,2.0068276519869332,60,249246.0,29,58.5,0,0,2,0,0,0,-1.0,21.0,-979.0
1777477030.895485,init_hover,none,-,0,,,4,1.4674733160319384,0.8336339522314048,1.8798734785490232,2.0013863617547343,60,249244.0,29,58.5,0,0,2,0,0,0,-2.0,10.0,-996.0
1777477030.9468968,init_hover,none,-,0,,,4,1.4878685973253898,0.8495869939988483,1.8771608995217586,1.997032819327645,60,249244.0,29,58.5,0,0,2,0,0,0,-2.0,10.0,-996.0
1777477030.996293,init_hover,none,-,0,,,4,1.4736665048032505,0.8308006098423548,1.871827602486626,1.991570909367126,60,249237.0,29,58.5,0,0,2,0,0,0,-12.0,16.0,-981.0
1777477031.0455182,init_hover,none,-,0,,,4,1.4593875697367964,0.8310781139987538,1.8618669329831066,1.9861114309775594,60,249237.0,29,58.5,0,0,2,0,0,0,-12.0,16.0,-981.0
1777477031.0941288,init_hover,none,-,0,,,4,1.4998842754069817,0.8439368069780259,1.861057816237224,1.977557033805273,60,249237.0,29,58.5,0,0,2,0,0,0,-12.0,16.0,-981.0
1777477031.1418428,init_hover,none,-,0,,,4,1.4837744355745126,0.825958061471867,1.8550969781800857,1.9721343519020627,60,249242.99999999997,29,58.5,0,0,2,0,0,0,-1.0,11.0,-1009.0
1777477031.190337,init_hover,none,-,0,,,4,1.5093689892502518,0.8397060902418838,1.8497470563151133,1.9635743955479634,60,249242.99999999997,29,58.5,0,0,2,0,0,0,-1.0,11.0,-1009.0
1777477031.2424178,init_hover,none,-,0,,,4,1.5122365309929824,0.8380967917835198,1.845912627817401,1.95888627291237,60,249241.0,29,58.5,0,0,2,0,0,0,-1.0,15.0,-982.0
1777477031.293525,init_hover,none,-,0,,,4,1.499976335052216,0.818220060458936,1.8316483997234678,1.9441881453932461,60,249241.0,29,58.5,0,0,2,0,0,0,-1.0,15.0,-982.0
1777477031.3438668,init_hover,none,-,0,,,4,1.5057133808359695,0.8353442656953465,1.8200589520007315,1.9355770406564625,50,249229.0,29,58.5,1,-1,2,0,0,0,-3.0,-12.0,-1005.0
1777477031.394229,init_hover,none,-,0,,,4,1.528516394371038,0.8307778239905802,1.8177980224662271,1.9267215612280544,50,249229.0,29,58.5,1,-1,2,0,0,0,-3.0,-12.0,-1005.0
1777477031.444438,init_hover,none,-,0,,,4,1.512018014813051,0.8137975173978214,1.8116106084310193,1.9212724429011632,50,249236.0,29,59.0,1,-1,2,0,0,0,-20.0,11.0,-1014.0
1777477031.495384,init_hover,none,-,0,,,4,1.53778303805223,0.8104634772641757,1.8046056762054379,1.907544608304852,50,249236.0,29,59.0,1,-1,2,0,0,0,-20.0,11.0,-1014.0
1777477031.545429,init_hover,none,-,0,,,4,1.53778303805223,0.8104634772641757,1.8046056762054379,1.907544608304852,50,249242.0,29,59.0,1,-1,2,0,0,0,-11.0,11.0,-1014.0
1777477031.5955899,init_hover,none,-,0,,,4,1.5411140207832217,0.8107683674633529,1.795367556251952,1.898065240099074,50,249242.0,29,59.0,1,-1,2,0,0,0,-11.0,11.0,-1014.0
1777477031.6458309,init_hover,none,-,0,,,4,1.5441011432845082,0.7912968182621705,1.795515910193793,1.8933658788769896,50,249242.99999999997,29,59.0,0,0,2,0,0,0,0.0,13.0,-1008.0
1777477031.696127,init_hover,none,-,0,,,4,1.5669812436208044,0.8068837318928689,1.7885607300710484,1.8846774524590502,50,249242.99999999997,29,59.0,0,0,2,0,0,0,0.0,13.0,-1008.0
1777477031.745746,init_hover,none,-,0,,,4,1.568829302228146,0.8062867939659083,1.7844555745106427,1.8802283975544758,50,249232.00000000003,29,59.0,0,0,2,0,0,0,-9.0,8.0,-1017.0
1777477031.796142,init_hover,none,-,0,,,4,1.6185706726377642,0.578037442429427,1.8270369692376374,1.8748999305669278,50,249232.00000000003,29,59.0,0,0,2,0,0,0,-9.0,8.0,-1017.0
1777477031.846998,init_hover,none,-,0,,,4,1.5805449445666517,0.4539277083412327,1.829514586848382,1.8777578024725492,50,249242.0,29,59.0,0,0,2,0,0,0,2.0,15.0,-997.0
1777477031.898835,init_hover,none,-,0,,,,,,,,50,249242.0,29,59.0,0,0,2,0,0,0,2.0,15.0,-997.0
1777477031.947851,init_hover,none,-,0,,,,,,,,50,249231.0,29,59.0,0,0,2,0,0,0,-19.0,4.0,-1006.0
1777477031.998467,init_hover,none,-,0,,,,,,,,50,249231.0,29,59.0,0,0,2,0,0,0,-19.0,4.0,-1006.0
1777477032.048596,init_hover,none,-,0,,,,,,,,50,249221.0,29,59.0,0,0,2,0,0,0,-11.0,16.0,-996.0
1777477032.098081,init_hover,none,-,0,,,,,,,,50,249221.0,29,59.0,0,0,2,0,0,0,-11.0,16.0,-996.0
1777477032.148339,init_hover,none,-,0,,,,,,,,50,249221.99999999997,29,59.0,0,0,2,0,0,0,-10.0,9.0,-986.0
1777477032.198559,init_hover,none,-,0,,,,,,,,50,249221.99999999997,29,59.0,0,0,2,0,0,0,-10.0,9.0,-986.0
1777477032.248706,init_hover,none,-,0,,,,,,,,50,249226.00000000003,29,59.0,0,0,2,0,0,0,10.0,-7.0,-985.0
1777477032.298374,init_hover,none,-,0,,,,,,,,50,249226.00000000003,29,59.0,0,0,2,0,0,0,10.0,-7.0,-985.0
1777477032.347243,init_hover,none,-,0,,,,,,,,50,249214.0,28,59.0,0,0,2,0,0,0,-4.0,0.0,-980.0
1777477032.615492,recenter,right,-,1,,,4,1.7175602697944887,0.813614461144274,1.5973068952394671,1.673988781696513,60,249240.0,28,59.5,0,0,2,0,0,0,0.0,-15.0,-982.0
1777477032.665217,recenter,right,-,1,,,4,1.7200829534225275,0.8102618382955621,1.5846718106841218,1.660678498838111,60,249227.0,28,59.5,0,0,2,0,0,0,-18.0,15.0,-998.0
1777477032.7155042,recenter,right,-,1,,,4,1.7393637360991634,0.8211657139126655,1.559981438167221,1.6367204734046747,60,249227.0,28,59.5,0,0,2,0,0,0,-18.0,15.0,-998.0
1777477032.765304,recenter,right,-,1,,,4,1.758843162645418,0.8079655025276987,1.556163270553263,1.626725728595503,60,249223.99999999997,28,59.5,0,0,2,0,0,0,-5.0,-13.0,-996.0
1777477032.815649,recenter,right,-,1,,,4,1.7741389970032304,0.8286176483716583,1.522323117452377,1.5975587485599023,60,249223.99999999997,28,59.5,0,0,2,0,0,0,-5.0,-13.0,-996.0
1777477032.8659651,recenter,right,-,1,,,4,1.7806260875215287,0.8134257247228358,1.5152885902197115,1.5859209485307757,60,249232.00000000003,28,59.5,-1,0,2,0,0,0,-16.0,2.0,-983.0
1777477032.9167192,recenter,right,-,1,,,4,1.7891769850748684,0.7943207333332076,1.4977192400280732,1.5630413002569157,60,249232.00000000003,28,59.5,-1,0,2,0,0,0,-16.0,2.0,-983.0
1777477032.9671192,recenter,right,-,1,,,4,1.802819162952339,0.803864738152799,1.4784093588646219,1.545212361327901,60,249227.0,28,59.5,-1,0,2,0,0,0,-17.0,12.0,-1002.0
1777477033.015893,recenter,right,-,1,,,4,1.826575706681044,0.824834790243552,1.4441436064719475,1.515292493424377,60,249227.0,28,59.5,-1,0,2,0,0,0,-17.0,12.0,-1002.0
1777477033.066189,recenter,right,-,1,,,4,1.830301381057793,0.8186357486471838,1.4303087798120722,1.4999455713204328,60,249225.0,28,59.5,-1,0,2,0,0,0,-15.0,-3.0,-985.0
1777477033.115118,recenter,right,-,1,,,4,1.8644361049037037,0.8296194344145785,1.3978142077300295,1.4686166917927603,60,249234.0,28,59.5,-1,0,2,0,0,0,-4.0,0.0,-999.0
1777477033.16516,recenter,right,-,1,,,4,1.8684277990610356,0.8234641799822104,1.3851985954337926,1.4544443284566382,60,249234.0,28,59.5,-1,0,2,0,0,0,-4.0,0.0,-999.0
1777477033.2154062,recenter,right,-,1,,,4,1.8895238240685275,0.806016333590637,1.3628693516619803,1.4263474745973967,50,249238.0,28,59.5,0,0,3,2,1,1,0.0,-15.0,-928.0
1777477033.265298,recenter,right,-,1,,,4,1.9019978935829778,0.8035025330233272,1.3473406487123238,1.4098742960600992,50,249238.0,28,59.5,0,0,3,2,1,1,0.0,-15.0,-928.0
1777477033.315733,recenter,right,-,1,,,4,1.8500919987059006,0.7053337488599061,1.3352959413452081,1.377939170652254,50,249239.0,28,59.5,5,-2,2,1,1,1,-44.0,-16.0,-1048.0
1777477033.3660119,recenter,right,-,1,,,4,1.8726507270478594,0.7200553676984833,1.314323166383393,1.358712133384448,50,249239.0,28,59.5,5,-2,2,1,1,1,-44.0,-16.0,-1048.0
1777477033.415648,recenter,right,-,1,,,4,1.9755708740430067,0.7749565616907188,1.2868121966950188,1.3405501985800488,50,249236.0,28,59.0,3,-2,2,1,0,1,-30.0,8.0,-1026.0
1777477033.4657018,recenter,right,-,1,,,4,1.9912143610280757,0.7762585870458956,1.271338679641304,1.3258769739798684,50,249236.0,28,59.0,3,-2,2,1,0,1,-30.0,8.0,-1026.0
1777477033.514956,recenter,right,-,1,,,4,1.9958733073292632,0.796636007138045,1.2385617268998508,1.300527701777994,50,249234.0,28,59.0,3,-2,2,1,0,0,-13.0,-12.0,-1011.0
1777477033.565064,recenter,right,-,1,,,4,2.006367589383562,0.78500073925146,1.2345181739974538,1.2931748672738488,50,249234.0,28,59.0,3,-2,2,1,0,0,-13.0,-12.0,-1011.0
1777477033.614895,recenter,right,-,1,,,4,2.0321091602536225,0.8009713537841536,1.2083906165986111,1.273584275582602,50,249246.0,28,59.0,2,-2,2,0,0,0,-19.0,1.0,-1026.0
1777477033.6646988,recenter,right,-,1,,,4,2.0405265434916915,0.8108170936507876,1.1940613671039089,1.263406361220775,50,249246.0,28,59.0,2,-2,2,0,0,0,-19.0,1.0,-1026.0
1777477033.715013,recenter,right,-,1,,,4,2.065900104471507,0.797506523316526,1.1845225851353702,1.251178650131278,50,249242.0,28,59.0,2,-2,2,0,0,0,-13.0,3.0,-1011.0
1777477033.764792,recenter,right,-,1,,,4,2.06128679298615,0.806914061080533,1.1734954789000835,1.243554085312945,50,249242.0,28,59.0,2,-2,2,0,0,0,-13.0,3.0,-1011.0
1777477033.814892,recenter,right,-,1,,,4,2.0725542945335436,0.8131589965782081,1.1557763967592738,1.2295460794189954,50,249248.0,28,59.0,2,-2,2,0,0,0,-24.0,21.0,-1021.0
1777477033.865053,recenter,right,-,1,,,4,2.0815590011595333,0.815809337860115,1.1508594726836818,1.2263877045973555,50,249248.0,28,59.0,2,-2,2,0,0,0,-24.0,21.0,-1021.0
1777477033.91328,recenter,right,-,1,,,4,2.0959078061963483,0.8272357865183768,1.1330240125688569,1.2146901405827766,50,249241.0,28,59.0,2,-2,2,0,0,0,0.0,3.0,-983.0
1777477033.9631932,recenter,right,-,1,,,4,2.0976894515818327,0.8321294687939607,1.1250669872653782,1.2091545941627582,50,249241.0,28,59.0,2,-2,2,0,0,0,0.0,3.0,-983.0
1777477034.012785,recenter,right,-,1,,,4,2.1121422774221355,0.8370232523426447,1.114180680892858,1.2020664720174332,50,249248.0,28,59.0,2,-2,2,0,0,0,-20.0,18.0,-997.0
1777477034.0622232,recenter,right,-,1,,,4,2.11799986643695,0.8352179170205298,1.109891613569729,1.1979974948418062,50,249248.0,28,59.0,2,-2,2,0,0,0,-20.0,18.0,-997.0
1777477034.111995,recenter,right,-,1,,,4,2.123024238148144,0.8569991581871647,1.0904712421202718,1.1887433380032197,60,249246.0,28,59.0,2,-2,2,0,0,0,6.0,6.0,-999.0
1777477034.161362,recenter,right,-,1,,,4,2.130656914443106,0.8529683004251005,1.0892399613488053,1.186884663259638,60,249246.0,28,59.0,2,-2,2,0,0,0,6.0,6.0,-999.0
1777477034.21057,recenter,right,-,1,,,4,2.1586357987067726,0.8976139744486604,1.0649884869208373,1.1861641798131748,60,249246.0,28,59.0,2,-2,2,0,0,0,6.0,6.0,-999.0
1777477034.2608929,recenter,right,-,1,,,4,2.169854634472299,0.9016537783004657,1.0582345364249344,1.1833712199548148,60,249244.99999999997,27,59.0,2,-2,2,0,0,0,-5.0,14.0,-979.0
1777477034.311148,recenter,right,-,1,,,4,2.1716597651668144,0.9353865213879761,1.0256958761808341,1.169682791476139,60,249244.99999999997,27,59.0,2,-2,2,0,0,0,-5.0,14.0,-979.0
1777477034.360342,recenter,right,-,1,,,4,2.152891080809992,0.9171958502795948,1.0341320091542001,1.1663173849750261,60,249240.0,27,59.0,3,-2,2,0,0,0,6.0,10.0,-974.0
1777477035.2457411,recenter,right,-,1,,,4,2.1461495749002433,0.8580219980493176,1.0204393283963549,1.12802494293283,60,249242.99999999997,27,59.0,2,-1,2,-1,0,0,33.0,-4.0,-1005.0
1777477035.2954502,recenter,right,-,1,,,4,2.1435321663085696,0.8568492873532301,1.020581493494901,1.1273417134944788,60,249242.99999999997,27,59.0,2,-1,2,-1,0,0,33.0,-4.0,-1005.0
1777477035.34674,recenter,right,-,1,,,4,2.139577088719257,0.8523919125306971,1.0221900765865453,1.1265046643891594,60,249242.99999999997,27,59.0,2,-1,2,-1,0,0,27.0,-14.0,-978.0
1777477035.39655,recenter,right,-,1,,,4,2.1426133428438745,0.8493064073987759,1.0236668273280611,1.126990943467869,60,249242.99999999997,27,59.0,2,-1,2,-1,0,0,27.0,-14.0,-978.0
1777477035.446576,recenter,right,-,1,,,4,2.141389713464356,0.8423326320009431,1.026846372476845,1.1269705768454072,60,249252.0,27,59.5,2,-1,2,-1,0,0,27.0,-10.0,-992.0
1777477035.4959779,recenter,right,-,1,,,4,2.13891212018804,0.8467829924861119,1.0234913809938675,1.125364930357578,60,249252.0,27,59.5,2,-1,2,-1,0,0,27.0,-10.0,-992.0
1777477035.5449102,recenter,right,-,1,,,4,2.1384203031338407,0.8415173543970181,1.027326164420557,1.1267194871202235,60,249246.0,27,59.5,2,-1,2,-1,0,0,0.0,20.0,-1009.0
1777477035.593941,recenter,right,-,1,,,4,2.1361221659523117,0.8316821070386018,1.0340375727932523,1.1287658692346239,60,249246.0,27,59.5,2,-1,2,-1,0,0,0.0,20.0,-1009.0
1777477035.644012,recenter,right,-,1,,,4,2.13642614826702,0.8350692359514336,1.0325789155202962,1.128767713384561,60,249242.99999999997,27,59.5,2,-1,2,-1,0,0,2.0,22.0,-1016.0
1777477035.694262,recenter,right,-,1,,,4,2.137304138423145,0.8287109120046021,1.0357540297492247,1.1293502037196865,60,249242.99999999997,27,59.5,2,-1,2,-1,0,0,2.0,22.0,-1016.0
1777477035.74455,recenter,right,-,1,,,4,2.1386627879712545,0.8233112311717731,1.0408456649539486,1.1321569968240053,50,249251.00000000003,27,59.5,2,-1,2,-1,0,0,10.0,9.0,-1015.0
1777477035.795491,recenter,right,-,1,,,4,2.13166447413476,0.8258490521004368,1.0393479862423256,1.1308966289763185,50,249251.00000000003,27,59.5,2,-1,2,-1,0,0,10.0,9.0,-1015.0
1777477035.846405,recenter,right,-,1,,,4,2.130037218955301,0.8265790376077484,1.0413200251039738,1.1327959870702768,50,249234.0,27,59.5,2,-1,2,-1,0,0,17.0,1.0,-988.0
1777477035.897235,recenter,right,-,1,,,4,2.125566299151253,0.8292970642844366,1.040701587051518,1.1327500422323211,50,249234.0,27,59.5,2,-1,2,-1,0,0,17.0,1.0,-988.0
1777477035.947499,recenter,right,-,1,,,4,2.1297392533032826,0.8224352685171383,1.0471731685205685,1.1365982028862471,50,249234.0,27,59.5,2,-1,2,-1,0,0,17.0,1.0,-988.0
1777477035.99667,recenter,right,-,1,,,4,2.126882488426741,0.8193483209632035,1.0515008058312196,1.1391251576660593,50,249251.00000000003,27,59.5,2,-1,2,-1,0,0,10.0,16.0,-1017.0
1777477036.0457668,recenter,right,-,1,,,4,2.129487567447417,0.8181366708987617,1.0531102208624177,1.1404588738567643,50,249251.00000000003,27,59.5,2,-1,2,-1,0,0,10.0,16.0,-1017.0
1777477036.095267,recenter,right,-,1,,,4,2.124411267962525,0.8222960391292498,1.053562110278072,1.1418429088424904,50,249241.0,27,59.5,1,-1,2,-1,0,0,33.0,-3.0,-999.0
1777477036.145012,recenter,right,-,1,,,4,2.1184534051500865,0.8162115830235345,1.0605999542072058,1.1454848553773787,50,249241.0,27,59.5,1,-1,2,-1,0,0,33.0,-3.0,-999.0
1777477036.194328,recenter,right,-,1,,,4,2.124117335902145,0.8178967307556475,1.0596205585809078,1.1457916559370724,50,249250.0,27,59.5,2,-1,2,-1,0,0,31.0,12.0,-1008.0
1777477036.2447958,recenter,right,-,1,,,4,2.11829293156597,0.8226229715597264,1.0610986166782492,1.1482742129234371,50,249250.0,27,59.5,2,-1,2,-1,0,0,31.0,12.0,-1008.0
1777477036.294774,recenter,right,-,1,,,4,2.119627340562681,0.816523726871434,1.0657868219746036,1.1505234745765487,50,249242.99999999997,26,59.5,2,-1,2,-1,0,0,28.0,13.0,-990.0
1777477036.3445601,recenter,right,-,1,,,4,2.1253845080264724,0.807747245529816,1.0714382685250066,1.1532385071398095,50,249242.99999999997,26,59.5,2,-1,2,-1,0,0,28.0,13.0,-990.0
1777477036.394229,recenter,right,-,1,,,4,2.1198507496060044,0.8115194327270894,1.0724880156957257,1.1549644970751707,50,249240.0,26,59.5,1,-1,2,-1,0,0,12.0,13.0,-998.0
1777477036.4431539,recenter,right,-,1,,,4,2.1147024102362977,0.8084574625613102,1.0766593196731462,1.1572335253850374,50,249240.0,26,59.5,1,-1,2,-1,0,0,12.0,13.0,-998.0
1777477036.4943051,recenter,right,-,1,,,4,2.1203640081839477,0.8056351531325049,1.0779152662326645,1.1579847551243374,50,249235.0,26,59.5,1,-1,2,-1,0,0,12.0,9.0,-986.0
1777477036.5445251,recenter,right,-,1,,,4,2.1149573943958617,0.8018121570741624,1.0827077829575773,1.1605707024459084,50,249235.0,26,59.5,1,-1,2,-1,0,0,12.0,9.0,-986.0
1777477036.593502,recenter,right,-,1,,,4,2.116159763739145,0.8139576354817262,1.0780889787595025,1.1606592354383187,50,249244.99999999997,26,59.5,1,-1,2,-1,0,0,14.0,1.0,-994.0
1777477036.643977,recenter,right,-,1,,,4,2.1121326334315227,0.8104297999093596,1.0828760904051955,1.1634633536580197,50,249244.99999999997,26,59.5,1,-1,2,-1,0,0,14.0,1.0,-994.0
1777477036.694574,recenter,right,-,1,,,4,2.1087080985442928,0.8065830115025672,1.0862068786668826,1.1648916598529084,50,249239.0,26,59.5,1,-1,2,-1,0,0,7.0,2.0,-992.0
1777477036.7452202,recenter,right,-,1,,,4,2.113050743135532,0.8032771028889509,1.0878698628923362,1.1657073950298988,50,249239.0,26,59.5,1,-1,2,-1,0,0,7.0,2.0,-992.0
1777477036.796114,recenter,right,-,1,,,4,2.1139851023203167,0.8036912428540749,1.08906396799411,1.1670559324604441,50,249252.0,26,59.5,1,-1,2,-1,0,0,0.0,11.0,-1008.0
1777477036.846293,recenter,right,-,1,,,4,2.1181611473174504,0.8015374737779095,1.0918430015690157,1.1693226841460655,50,249252.0,26,59.5,1,-1,2,-1,0,0,0.0,11.0,-1008.0
1777477036.896693,recenter,right,-,1,,,4,2.1093273039806033,0.7999188493498222,1.0942614151009686,1.1701690433607135,50,249252.0,26,59.5,1,-1,2,-1,0,0,-5.0,17.0,-1012.0
1777477036.947277,recenter,right,-,1,,,4,2.1145214815354842,0.7968140461739806,1.0958270756677035,1.1710736683661191,50,249252.0,26,59.5,1,-1,2,-1,0,0,-5.0,17.0,-1012.0
1777477036.996833,recenter,right,-,1,,,4,2.1100633981048142,0.7996922756011835,1.0960235980734057,1.1718086850298584,50,249241.0,26,59.5,1,-1,2,-1,0,0,24.0,7.0,-1003.0
1777477037.046303,recenter,right,-,1,,,4,2.1150143079513715,0.7964538168907422,1.0962978291842342,1.1714405022171785,50,249241.0,26,59.5,1,-1,2,0,0,0,13.0,21.0,-1010.0
1777477037.0959759,recenter,right,-,1,,,4,2.1176423538706355,0.7893945570382718,1.1015658674690374,1.1742722021950738,50,249241.0,26,59.5,1,-1,2,0,0,0,13.0,21.0,-1010.0
1777477037.145504,recenter,right,-,1,,,4,2.11928802252161,0.8007985635401412,1.0948354644487155,1.17197858985034,50,249241.0,26,59.5,1,-1,2,0,0,0,36.0,-17.0,-982.0
1777477037.195301,recenter,right,-,1,,,4,2.1142432848571904,0.8041680677291683,1.0947725664596808,1.1725742310743514,50,249241.0,26,59.5,1,-1,2,0,0,0,36.0,-17.0,-982.0
1777477037.244064,recenter,right,-,1,,,4,2.1170176933669964,0.7958269290401754,1.0976031293483426,1.1726485952192083,50,249246.0,26,59.5,2,-1,2,0,0,0,34.0,-5.0,-997.0
1777477037.294244,recenter,right,-,1,,,4,2.1256746208807162,0.7969436421418065,1.0955891029802287,1.1720383304053397,50,249246.0,26,59.5,2,-1,2,0,0,0,34.0,-5.0,-997.0
1777477037.34428,recenter,right,-,1,,,4,2.1168454564714896,0.8028415097637771,1.0943994236006187,1.1720256998309195,50,249235.0,26,59.5,2,-1,2,0,0,0,33.0,-4.0,-1013.0
1777477037.394523,recenter,right,-,1,,,4,2.120597104535768,0.8074566718043719,1.0924730802190956,1.1722039208361763,50,249235.0,26,59.5,2,-1,2,0,0,0,33.0,-4.0,-1013.0
1777477037.443605,recenter,right,-,1,,,4,2.1277186911935644,0.7963386846544533,1.0968724881853327,1.1732543084820535,50,249239.0,26,60.0,2,-1,2,0,0,0,27.0,7.0,-988.0
1777477037.494689,recenter,right,-,1,,,4,2.129699000630412,0.7963903839855998,1.0969792648073695,1.1735888013687317,50,249239.0,26,60.0,2,-1,2,0,0,0,27.0,7.0,-988.0
1777477037.545299,recenter,right,-,1,,,4,2.122244264462923,0.805409719818954,1.092929044246388,1.172089841639747,50,249233.0,26,60.0,2,-1,2,0,0,0,16.0,13.0,-960.0
1777477037.5958688,recenter,right,-,1,,,4,2.117164879968394,0.8075663599876431,1.0920443128467856,1.1714942288003782,50,249233.0,26,60.0,2,-1,2,0,0,0,16.0,13.0,-960.0
1777477037.6463308,recenter,right,-,1,,,4,2.125547236706946,0.8077376842298365,1.0907455521467821,1.1712121871436654,50,249242.0,26,60.0,2,-1,2,0,0,0,2.0,24.0,-967.0
1777477037.696824,recenter,right,-,1,,,4,2.1206080061457078,0.8096569808347568,1.089966233007922,1.1706372291152247,50,249242.0,26,60.0,2,-1,2,0,0,0,2.0,24.0,-967.0
1777477037.74676,recenter,right,-,1,,,4,2.1317196577665447,0.7936147070318393,1.095161523325043,1.1711794772815673,50,249244.0,26,60.0,2,-1,2,0,0,0,12.0,13.0,-928.0
1777477037.795691,recenter,right,-,1,,,4,2.1338637714712076,0.7959868599837389,1.0926201107201194,1.1698477716960969,50,249244.0,26,60.0,2,-1,2,0,0,0,12.0,13.0,-928.0
1777477037.845311,recenter,right,-,1,,,4,2.128998961287629,0.7977778358550827,1.0870415821386652,1.1647005366227718,50,249248.0,26,60.0,1,-1,2,0,0,1,48.0,10.0,-917.0
1777477037.8951948,recenter,right,-,1,,,4,2.1279886241466217,0.7954630782973675,1.0866563166636785,1.1634406236471406,50,249248.0,26,60.0,1,-1,2,0,0,1,48.0,10.0,-917.0
1777477037.9441001,recenter,right,-,1,,,4,2.140091105833278,0.771286906933746,1.0899104423435755,1.15990700382556,50,249246.99999999997,26,60.0,0,0,3,0,0,2,25.0,13.0,-914.0
1777477037.994003,recenter,right,-,1,,,4,2.134470675151461,0.7738587871326216,1.0830542095655937,1.1536286993871632,50,249246.99999999997,26,60.0,0,0,3,0,0,2,25.0,13.0,-914.0
1777477038.043551,recenter,right,-,1,,,4,2.1255308753675104,0.7696530144026924,1.076936049932628,1.1455097587415057,50,249251.00000000003,26,60.0,1,-1,3,0,0,2,9.0,30.0,-935.0
1777477038.093554,recenter,right,-,1,,,4,2.1312011151549966,0.7567763224047324,1.0756825767409048,1.1408751389834528,50,249251.00000000003,26,60.0,1,-1,3,0,0,2,9.0,30.0,-935.0
1777477038.143106,recenter,right,-,1,,,4,2.132929085386247,0.741713360644358,1.0696673323833539,1.1307636201048414,40,249242.0,26,60.0,1,-1,3,0,0,3,21.0,24.0,-950.0
1777477038.193023,recenter,right,-,1,,,4,2.1437619823841487,0.726067948940637,1.066952468090613,1.1248890541160161,40,249242.0,26,60.0,1,-1,3,0,0,3,21.0,24.0,-950.0
1777477038.242825,recenter,right,-,1,,,4,2.146263077938692,0.6872986962479725,1.0678812632037298,1.1154836713889982,40,249227.0,25,60.0,2,-1,3,0,0,4,22.0,22.0,-948.0
1777477038.292843,recenter,right,-,1,,,4,2.137317416905514,0.6981672394545841,1.0578825396571119,1.1076440057080392,40,249227.0,25,60.0,2,-1,3,0,0,4,22.0,22.0,-948.0
1777477038.342937,recenter,right,-,1,,,4,2.1560170540499914,0.6513930223067805,1.0562936837602337,1.0969485490079924,40,249227.0,25,60.0,2,-1,3,0,0,4,22.0,22.0,-948.0
1777477038.423869,pre_hover,right,x,1,,,,,,,,40,249211.0,25,60.0,2,-1,3,0,0,4,34.0,6.0,-952.0
1777477038.472576,pre_hover,right,x,1,,,,,,,,30,249210.0,25,60.5,2,-1,3,0,0,5,24.0,14.0,-978.0
1777477038.522144,pre_hover,right,x,1,,,,,,,,30,249210.0,25,60.5,2,-1,3,0,0,5,24.0,14.0,-978.0
1777477038.570109,pre_hover,right,x,1,,,,,,,,30,249203.00000000003,25,60.5,2,-1,3,0,0,5,41.0,17.0,-1001.0
1777477038.6194072,pre_hover,right,x,1,,,,,,,,30,249203.00000000003,25,60.5,2,-1,3,0,0,5,41.0,17.0,-1001.0
1777477038.668725,pre_hover,right,x,1,,,,,,,,20,249196.0,25,60.5,2,-1,2,0,0,5,32.0,22.0,-1001.0
1777477038.718789,pre_hover,right,x,1,,,,,,,,20,249196.0,25,60.5,2,-1,2,0,0,5,32.0,22.0,-1001.0
1777477038.7675772,pre_hover,right,x,1,,,,,,,,20,249212.0,25,60.5,2,-1,3,0,0,5,21.0,20.0,-1029.0
1777477038.816958,pre_hover,right,x,1,,,,,,,,20,249212.0,25,60.5,2,-1,3,0,0,5,21.0,20.0,-1029.0
1777477038.866606,pre_hover,right,x,1,,,,,,,,10,249205.00000000003,25,60.5,3,-1,2,0,0,5,31.0,16.0,-1013.0
1777477038.916589,pre_hover,right,x,1,,,,,,,,10,249205.00000000003,25,60.5,3,-1,2,0,0,5,31.0,16.0,-1013.0
1777477038.965821,pre_hover,right,x,1,,,,,,,,10,249200.0,25,60.5,2,-1,2,0,0,5,18.0,12.0,-995.0
1777477039.015124,pre_hover,right,x,1,,,,,,,,10,249200.0,25,60.5,2,-1,2,0,0,5,18.0,12.0,-995.0
1777477039.06483,pre_hover,right,x,1,,,,,,,,0,249181.0,25,60.5,2,-1,2,0,0,4,21.0,10.0,-1011.0
1777477039.113939,pre_hover,right,x,1,,,,,,,,0,249181.0,25,60.5,2,-1,2,0,0,4,21.0,10.0,-1011.0
1777477039.162264,pre_hover,right,x,1,,,,,,,,0,249166.0,25,60.5,2,-1,2,0,0,4,10.0,19.0,-1055.0
1777477039.21195,pre_hover,right,x,1,,,,,,,,0,249166.0,25,60.5,2,-1,2,0,0,4,10.0,19.0,-1055.0
1777477039.261355,pre_hover,right,x,1,,,,,,,,0,249166.0,25,60.5,2,-1,2,0,0,4,10.0,19.0,-1055.0
1777477039.311758,pre_hover,right,x,1,,,,,,,,0,249104.0,25,60.5,2,-1,2,0,0,4,12.0,6.0,-1029.0
1777477039.361867,pre_hover,right,x,1,,,,,,,,0,249104.0,25,60.5,2,-1,2,0,0,4,12.0,6.0,-1029.0
1777477039.41168,pre_hover,right,x,1,,,,,,,,0,249051.00000000003,25,60.5,2,-1,2,0,0,4,10.0,5.0,-1066.0
1777477039.4605608,pre_hover,right,x,1,,,,,,,,0,249051.00000000003,25,60.5,2,-1,2,0,0,4,10.0,5.0,-1066.0
1777477039.511007,pre_hover,right,x,1,,,,,,,,-10,248951.00000000003,25,61.0,2,-2,2,0,0,3,-17.0,3.0,-1053.0
1777477039.560608,pre_hover,right,x,1,,,,,,,,-10,248951.00000000003,25,61.0,2,-2,2,0,0,3,-17.0,3.0,-1053.0
1777477039.609544,pre_hover,right,x,1,,,,,,,,-10,248746.99999999997,25,61.0,1,-1,2,0,0,3,22.0,0.0,-1068.0
1777477039.657762,pre_hover,right,x,1,,,,,,,,-10,248746.99999999997,25,61.0,1,-1,2,0,0,3,22.0,0.0,-1068.0
1777477039.708075,pre_hover,right,x,1,,,,,,,,-10,248775.0,25,61.0,1,-1,2,0,0,2,-531.0,-468.0,-2661.0
1777477039.7574751,pre_hover,right,x,1,,,,,,,,-10,248775.0,25,61.0,1,-1,2,0,0,2,-531.0,-468.0,-2661.0
1777477039.806027,pre_hover,right,x,1,,,,,,,,-20,248827.0,25,61.0,0,0,2,-1,-1,0,20.0,-8.0,-874.0
1777477039.854542,pre_hover,right,x,1,,,,,,,,-20,248827.0,25,61.0,0,0,2,-1,-1,0,20.0,-8.0,-874.0
1777477039.903185,pre_hover,right,x,1,,,,,,,,-20,248790.0,25,61.0,-1,1,2,-1,-1,0,-8.0,-7.0,-986.0
1777477039.953514,pre_hover,right,x,1,,,,,,,,-20,248790.0,25,61.0,-1,1,2,-1,-1,0,-8.0,-7.0,-986.0
1777477040.003017,pre_hover,right,x,1,,,,,,,,-20,248819.99999999997,25,61.0,1,0,2,-1,-1,0,-4.0,-12.0,-932.0
1777477040.051293,pre_hover,right,x,1,,,,,,,,-20,248819.99999999997,25,61.0,1,0,2,-1,-1,0,-4.0,-12.0,-932.0
1777477040.099731,pre_hover,right,x,1,,,,,,,,-20,248882.00000000003,25,61.0,0,0,2,-1,-1,0,-33.0,32.0,-1171.0
1777477040.148105,pre_hover,right,x,1,,,,,,,,-20,248882.00000000003,25,61.0,0,0,2,-1,-1,0,-33.0,32.0,-1171.0
1777477040.197503,pre_hover,right,x,1,,,,,,,,-20,248877.0,25,61.0,1,-1,2,-2,-1,0,7.0,-7.0,-1033.0
1777477040.246082,pre_hover,right,x,1,,,,,,,,-20,248877.0,25,61.0,1,-1,2,-2,-1,0,7.0,-7.0,-1033.0
1777477040.296903,pre_hover,right,x,1,,,,,,,,-20,248917.0,24,61.0,1,-1,2,-2,-2,0,7.0,-3.0,-999.0
1777477040.3463712,pre_hover,right,x,1,,,,,,,,-20,248917.0,24,61.0,1,-1,2,-2,-2,0,7.0,-3.0,-999.0
1777477040.3964858,pre_hover,right,x,1,,,,,,,,-20,248887.0,24,61.0,1,-1,3,-2,-2,0,-20.0,0.0,-988.0
1777477040.4464939,pre_hover,right,x,1,,,,,,,,-20,248887.0,24,61.0,1,-1,3,-2,-2,0,-20.0,0.0,-988.0
1777477040.4960482,pre_hover,right,x,1,,,,,,,,-20,248936.0,24,61.0,1,-1,3,-2,-2,0,0.0,19.0,-1005.0
1777477040.54336,pre_hover,right,x,1,,,,,,,,-20,248936.0,24,61.0,1,-1,3,-2,-2,0,0.0,19.0,-1005.0
1777477040.590362,pre_hover,right,x,1,,,,,,,,-20,248936.0,24,61.0,1,-1,3,-2,-2,0,0.0,19.0,-1005.0
1777477040.6374059,pre_hover,right,x,1,,,,,,,,-20,248950.0,24,61.0,1,-1,3,-2,-2,0,-14.0,13.0,-995.0
1777477040.688496,pre_hover,right,x,1,,,,,,,,-20,248950.0,24,61.0,1,-1,3,-2,-2,0,-14.0,13.0,-995.0
1777477040.737705,pre_hover,right,x,1,,,,,,,,-20,248969.99999999997,24,61.0,1,-1,2,-3,-3,0,30.0,-26.0,-1000.0
1777477040.78762,pre_hover,right,x,1,,,,,,,,-20,248969.99999999997,24,61.0,1,-1,2,-3,-3,0,30.0,-26.0,-1000.0
1777477040.837164,pre_hover,right,x,1,,,,,,,,-20,248985.0,24,61.0,1,-1,2,-3,-3,0,8.0,-3.0,-1006.0
1777477040.886611,pre_hover,right,x,1,,,,,,,,-20,249021.0,24,61.0,1,-1,2,-3,-3,0,5.0,8.0,-1009.0
1777477040.9362938,pre_hover,right,x,1,,,,,,,,-20,249021.0,24,61.0,1,-1,2,-3,-3,0,5.0,8.0,-1009.0
1777477040.984981,pre_hover,right,x,1,,,,,,,,-20,249023.99999999997,24,61.0,1,-1,2,-3,-3,0,-4.0,5.0,-1001.0
1777477041.033535,pre_hover,right,x,1,,,,,,,,-20,249023.99999999997,24,61.0,1,-1,2,-3,-3,0,-4.0,5.0,-1001.0
1777477041.083128,pre_hover,right,x,1,,,,,,,,-20,249036.0,24,61.0,1,-1,2,-3,-3,0,-8.0,-12.0,-1004.0
1777477041.132403,pre_hover,right,x,1,,,,,,,,-20,249036.0,24,61.0,1,-1,2,-3,-3,0,-8.0,-12.0,-1004.0
1777477041.1805701,pre_hover,right,x,1,,,,,,,,-20,249050.0,24,61.0,1,-1,2,-3,-4,0,6.0,3.0,-1001.0
1777477041.2285461,pre_hover,right,x,1,,,,,,,,-20,249050.0,24,61.0,1,-1,2,-3,-4,0,6.0,3.0,-1001.0
1777477041.2768488,pre_hover,right,x,1,,,,,,,,0,249060.0,24,61.0,1,-1,2,-4,-4,0,0.0,6.0,-993.0
1777477041.325075,pre_hover,right,x,1,,,,,,,,0,249060.0,24,61.0,1,-1,2,-4,-4,0,0.0,6.0,-993.0
1777477041.3724318,pre_hover,right,x,1,,,,,,,,0,249094.99999999997,24,61.0,1,-1,2,-4,-4,0,3.0,0.0,-1003.0
1777477041.419418,pre_hover,right,x,1,,,,,,,,0,249094.99999999997,24,61.0,1,-1,2,-4,-4,0,3.0,0.0,-1003.0
1777477041.468714,response,right,x,1,1777477041.468544,0.00016999244689941406,,,,,,0,249105.00000000003,24,60.5,1,-1,2,-4,-4,0,-1.0,3.0,-1003.0
1777477041.519365,response,right,x,1,1777477041.468544,0.05082106590270996,,,,,,0,249105.00000000003,24,60.5,1,-1,2,-4,-4,0,-1.0,3.0,-1003.0
1777477041.567251,response,right,x,1,1777477041.468544,0.09870696067810059,,,,,,0,249113.0,24,60.5,1,-1,2,-4,-4,-1,5.0,0.0,-1004.0
1777477041.61622,response,right,x,1,1777477041.468544,0.1476759910583496,,,,,,0,249113.0,24,60.5,1,-1,2,-4,-4,-1,5.0,0.0,-1004.0
1777477041.66626,response,right,x,1,1777477041.468544,0.19771599769592285,,,,,,0,249119.0,24,60.5,1,-1,2,-4,-4,-1,3.0,2.0,-1006.0
1777477041.715693,response,right,x,1,1777477041.468544,0.24714899063110352,,,,,,0,249119.0,24,60.5,1,-1,2,-4,-4,-1,3.0,2.0,-1006.0
1777477041.765198,response,right,x,1,1777477041.468544,0.29665398597717285,,,,,,0,249130.00000000003,24,60.5,0,0,2,0,0,0,5.0,6.0,-1003.0
1777477041.8148448,response,right,x,1,1777477041.468544,0.3463008403778076,,,,,,0,249130.00000000003,24,60.5,0,0,2,0,0,0,5.0,6.0,-1003.0
1777477041.8638709,response,right,x,1,1777477041.468544,0.3953268527984619,,,,,,0,249130.00000000003,24,60.5,0,0,2,0,0,0,5.0,6.0,-1003.0
1777477041.9126809,response,right,x,1,1777477041.468544,0.4441368579864502,,,,,,0,249136.0,24,60.5,0,0,2,0,0,0,0.0,3.0,-1006.0
1777477041.962036,response,right,x,1,1777477041.468544,0.49349188804626465,,,,,,0,249136.0,24,60.5,0,0,2,0,0,0,0.0,3.0,-1006.0
1777477042.011132,response,right,x,1,1777477041.468544,0.5425879955291748,,,,,,0,249128.00000000003,24,60.5,0,0,2,0,0,0,10.0,0.0,-1007.0
1777477042.059541,response,right,x,1,1777477041.468544,0.5909969806671143,,,,,,0,249128.00000000003,24,60.5,0,0,2,0,0,0,10.0,0.0,-1007.0
1777477042.108585,response,right,x,1,1777477041.468544,0.6400408744812012,,,,,,0,249138.0,24,60.5,0,0,2,0,0,0,10.0,-1.0,-1003.0
1777477042.15825,response,right,x,1,1777477041.468544,0.6897060871124268,,,,,,0,249138.0,24,60.5,0,0,2,0,0,0,10.0,-1.0,-1003.0
1777477042.208098,response,right,x,1,1777477041.468544,0.7395539283752441,,,,,,0,249131.0,24,60.5,0,0,2,0,0,0,5.0,0.0,-1003.0
1777477042.25826,response,right,x,1,1777477041.468544,0.7897160053253174,,,,,,0,249131.0,24,60.5,0,0,2,0,0,0,5.0,0.0,-1003.0
1777477042.307586,response,right,x,1,1777477041.468544,0.8390419483184814,,,,,,0,249139.0,23,60.5,0,0,2,0,0,0,6.0,1.0,-1002.0
1777477042.3566751,response,right,x,1,1777477041.468544,0.8881311416625977,,,,,,0,249139.0,23,60.5,0,0,2,0,0,0,6.0,1.0,-1002.0
1777477042.4061189,response,right,x,1,1777477041.468544,0.9375748634338379,,,,,,0,249148.99999999997,23,60.5,0,0,2,0,0,0,6.0,0.0,-1003.0
1777477042.4552882,response,right,x,1,1777477041.468544,0.9867441654205322,,,,,,0,249148.99999999997,23,60.5,0,0,2,0,0,0,6.0,0.0,-1003.0
1777477042.50464,response,right,x,1,1777477041.468544,1.0360960960388184,,,,,,0,249142.99999999997,23,60.5,0,0,2,0,0,0,5.0,2.0,-1001.0
1777477042.553287,response,right,x,1,1777477041.468544,1.0847430229187012,,,,,,0,249142.99999999997,23,60.5,0,0,2,0,0,0,5.0,2.0,-1001.0
1777477042.601239,response,right,x,1,1777477041.468544,1.132694959640503,,,,,,0,249144.0,23,60.5,0,0,3,0,0,0,37.0,-9.0,-984.0
1777477042.649827,response,right,x,1,1777477041.468544,1.1812829971313477,,,,,,0,249144.0,23,60.5,0,0,3,0,0,0,37.0,-9.0,-984.0
1777477042.69843,response,right,x,1,1777477041.468544,1.2298860549926758,,,,,,0,249141.0,23,60.5,-15,0,14,0,-1,-2,-8.0,10.0,-1034.0
1777477042.746569,response,right,x,1,1777477041.468544,1.2780249118804932,,,,,,0,249141.0,23,60.5,-15,0,14,0,-1,-2,-8.0,10.0,-1034.0
1777477042.794899,response,right,x,1,1777477041.468544,1.32635498046875,,,,,,0,249151.00000000003,23,60.5,-13,-5,-3,-1,-2,-6,-360.0,-34.0,-1359.0
1777477042.854708,response,right,x,1,1777477041.468544,1.3861639499664307,,,,,,0,249151.00000000003,23,60.5,-13,-5,-3,-1,-2,-6,-360.0,-34.0,-1359.0
1777477042.903082,response,right,x,1,1777477041.468544,1.4345378875732422,,,,,,10,249153.00000000003,23,60.5,-27,-1,-17,-3,-4,-10,-386.0,389.0,-1046.0
1777477042.951932,response,right,x,1,1777477041.468544,1.4833879470825195,,,,,,10,249153.00000000003,23,60.5,-27,-1,-17,-3,-4,-10,-386.0,389.0,-1046.0
1777477043.000314,response,right,x,1,1777477041.468544,1.5317699909210205,,,,,,40,249167.0,23,60.5,-34,1,-33,-2,-5,-14,-324.0,-103.0,-1547.0
1777477043.0498838,response,right,x,1,1777477041.468544,1.5813398361206055,,,,,,40,249167.0,23,60.5,-34,1,-33,-2,-5,-14,-324.0,-103.0,-1547.0
1777477043.0997279,response,right,x,1,1777477041.468544,1.6311838626861572,,,,,,70,249178.00000000003,23,60.5,-38,2,-44,-4,-6,-15,-467.0,-194.0,-1213.0
1777477043.1492229,response,right,x,1,1777477041.468544,1.6806788444519043,,,,,,70,249178.00000000003,23,60.5,-38,2,-44,-4,-6,-15,-467.0,-194.0,-1213.0
1777477043.199471,response,right,x,1,1777477041.468544,1.7309269905090332,,,,,,100,249190.0,23,60.5,-34,2,-48,-5,-7,-16,-670.0,-93.0,-629.0
1777477043.249399,response,right,x,1,1777477041.468544,1.7808549404144287,,,,,,100,249190.0,23,60.5,-34,2,-48,-5,-7,-16,-670.0,-93.0,-629.0
1777477043.299384,response,right,x,1,1777477041.468544,1.8308401107788086,,,,,,130,249198.99999999997,23,60.5,-27,-2,-44,-7,-8,-14,-514.0,-222.0,-903.0
1777477043.347347,response,right,x,1,1777477041.468544,1.878803014755249,,,,,,130,249198.99999999997,23,60.5,-27,-2,-44,-7,-8,-14,-514.0,-222.0,-903.0
1777477043.397034,response,right,x,1,1777477041.468544,1.9284899234771729,,,,,,160,249203.00000000003,23,60.5,-19,2,-43,-10,-10,-12,-444.0,-218.0,-591.0
1777477043.44768,response,right,x,1,1777477041.468544,1.9791359901428223,,,,,,160,249203.00000000003,23,60.5,-19,2,-43,-10,-10,-12,-444.0,-218.0,-591.0
1777477043.497071,response,right,x,1,1777477041.468544,2.028527021408081,,,,,,160,249203.00000000003,23,60.5,-19,2,-43,-10,-10,-12,-444.0,-218.0,-591.0
1777477043.5465548,response,right,x,1,1777477041.468544,2.0780107975006104,,,,,,190,249210.0,23,60.5,-23,8,-41,-16,-10,-13,-500.0,-604.0,-910.0
1777477043.595331,response,right,x,1,1777477041.468544,2.126786947250366,,,,,,190,249210.0,23,60.5,-23,8,-41,-16,-10,-13,-500.0,-604.0,-910.0
1777477043.644341,response,right,x,1,1777477041.468544,2.1757969856262207,,,,,,210,249208.0,23,60.5,-26,21,-61,-18,-12,-15,-357.0,-331.0,-854.0
1777477043.693037,response,right,x,1,1777477041.468544,2.2244930267333984,,,,,,210,249208.0,23,60.5,-26,21,-61,-18,-12,-15,-357.0,-331.0,-854.0
1777477043.743797,response,right,x,1,1777477041.468544,2.2752530574798584,,,,,,230,249208.0,23,60.5,-22,33,-77,-17,-13,-14,-320.0,-367.0,-635.0
1777477043.79393,response,right,x,1,1777477041.468544,2.3253860473632812,,,,,,230,249208.0,23,60.5,-22,33,-77,-17,-13,-14,-320.0,-367.0,-635.0
1777477043.84589,response,right,x,1,1777477041.468544,2.3773460388183594,,,,,,250,249209.0,23,60.5,-21,39,-87,-15,-13,-13,-644.0,-343.0,-890.0
1777477043.896584,response,right,x,1,1777477041.468544,2.428040027618408,,,,,,250,249209.0,23,60.5,-21,39,-87,-15,-13,-13,-644.0,-343.0,-890.0
1777477043.947179,response,right,x,1,1777477041.468544,2.47863507270813,,,,,,270,249208.0,23,60.5,-15,36,-100,-14,-12,-17,-401.0,-887.0,-1092.0
1777477043.997674,response,right,x,1,1777477041.468544,2.529129981994629,,,,,,270,249208.0,23,60.5,-15,36,-100,-14,-12,-17,-401.0,-887.0,-1092.0
1777477044.047918,response,right,x,1,1777477041.468544,2.579374074935913,,,,,,280,249209.0,23,60.5,-12,38,-106,-14,-11,-19,-299.0,-565.0,-755.0
1777477044.098366,response,right,x,1,1777477041.468544,2.629822015762329,,,,,,280,249209.0,23,60.5,-12,38,-106,-14,-11,-19,-299.0,-565.0,-755.0
1777477044.147999,response,right,x,1,1777477041.468544,2.679455041885376,,,,,,300,249211.0,23,60.5,-8,42,-109,-13,-10,-18,-221.0,-251.0,-671.0
1777477044.197751,response,right,x,1,1777477041.468544,2.7292070388793945,,,,,,300,249211.0,23,60.5,-8,42,-109,-13,-10,-18,-221.0,-251.0,-671.0
1777477044.248387,response,right,x,1,1777477041.468544,2.7798430919647217,,,,,,310,249214.0,23,60.5,-1,44,-111,-9,-10,-14,-263.0,-276.0,-825.0
1777477044.299671,response,right,x,1,1777477041.468544,2.8311269283294678,,,,,,320,249212.0,22,60.5,1,44,-108,-4,-8,-14,-273.0,-379.0,-953.0
1777477044.350848,response,right,x,1,1777477041.468544,2.8823039531707764,,,,,,320,249212.0,22,60.5,1,44,-108,-4,-8,-14,-273.0,-379.0,-953.0
1777477044.402849,response,right,x,1,1777477041.468544,2.93430495262146,,,,,,330,249215.0,22,60.5,-1,42,-102,-2,-8,-13,-21.0,-636.0,-920.0
1777477044.45451,response,right,x,1,1777477041.468544,2.9859659671783447,,,,,,330,249215.0,22,60.5,-1,42,-102,-2,-8,-13,-21.0,-636.0,-920.0
1777477044.505731,response,right,x,1,1777477041.468544,3.037187099456787,,,,,,330,249215.0,22,60.5,-1,42,-102,-2,-8,-13,-21.0,-636.0,-920.0
1777477044.556522,response,right,x,1,1777477041.468544,3.087977886199951,,,,,,330,249219.0,22,61.5,1,37,-105,-1,-10,-13,299.0,-581.0,-747.0
1777477044.606297,response,right,x,1,1777477041.468544,3.1377530097961426,,,,,,340,249207.00000000003,22,61.5,0,35,-97,0,0,-10,142.0,-615.0,-649.0
1777477044.655475,response,right,x,1,1777477041.468544,3.1869308948516846,,,,,,340,249207.00000000003,22,61.5,0,35,-97,0,0,-10,142.0,-615.0,-649.0
1777477044.705893,response,right,x,1,1777477041.468544,3.237349033355713,,,,,,340,249219.0,22,61.5,0,34,-93,0,0,-9,24.0,-689.0,-720.0
1777477044.757736,response,right,x,1,1777477041.468544,3.289191961288452,,,,,,340,249219.0,22,61.5,0,34,-93,0,0,-9,24.0,-689.0,-720.0
1777477044.80948,response,right,x,1,1777477041.468544,3.3409359455108643,,,,,,340,249203.00000000003,22,61.5,0,31,-93,0,0,-9,-133.0,-730.0,-1040.0
1777477044.861328,response,right,x,1,1777477041.468544,3.3927838802337646,,,,,,340,249203.00000000003,22,61.5,0,31,-93,0,0,-9,-133.0,-730.0,-1040.0
1777477044.9122932,response,right,x,1,1777477041.468544,3.443749189376831,,,,,,330,249212.0,22,61.5,-2,30,-89,0,0,-10,-186.0,-388.0,-911.0
1777477044.9640331,response,right,x,1,1777477041.468544,3.4954891204833984,,,,,,330,249212.0,22,61.5,-2,30,-89,0,0,-10,-186.0,-388.0,-911.0
1777477045.014312,response,right,x,1,1777477041.468544,3.5457680225372314,,,,,,330,249213.0,22,61.5,-1,24,-86,0,0,-9,-11.0,-569.0,-940.0
1777477045.065541,response,right,x,1,1777477041.468544,3.596997022628784,,,,,,330,249213.0,22,61.5,-1,24,-86,0,0,-9,-11.0,-569.0,-940.0
1777477045.1161091,response,right,x,1,1777477041.468544,3.6475651264190674,,,,,,330,249201.00000000003,22,61.5,0,24,-83,0,0,-8,-72.0,-263.0,-795.0
1777477045.166322,response,right,x,1,1777477041.468544,3.6977779865264893,,,,,,330,249201.00000000003,22,61.5,0,24,-83,0,0,-8,-72.0,-263.0,-795.0
1777477045.21616,response,right,x,1,1777477041.468544,3.7476160526275635,,,,,,330,249202.0,22,61.5,2,22,-82,0,0,-6,86.0,-252.0,-905.0
1777477045.267663,response,right,x,1,1777477041.468544,3.799118995666504,,,,,,330,249202.0,22,61.5,2,22,-82,0,0,-6,86.0,-252.0,-905.0
1777477045.319207,response,right,x,1,1777477041.468544,3.85066294670105,,,,,,320,249198.0,22,61.5,2,23,-79,0,0,-5,-108.0,-203.0,-1187.0
1777477045.370537,response,right,x,1,1777477041.468544,3.9019930362701416,,,,,,320,249198.0,22,61.5,2,23,-79,0,0,-5,-108.0,-203.0,-1187.0
1777477045.419244,response,right,x,1,1777477041.468544,3.950700044631958,,,,,,310,249205.00000000003,22,61.5,4,19,-76,0,0,-5,192.0,-516.0,-1061.0
1777477045.468673,response,right,x,1,1777477041.468544,4.000128984451294,,,,,,310,249205.00000000003,22,61.5,4,19,-76,0,0,-5,192.0,-516.0,-1061.0
1777477045.519708,response,right,x,1,1777477041.468544,4.051163911819458,,,,,,310,249210.0,22,61.0,5,17,-76,0,0,-5,135.0,-202.0,-912.0
1777477045.5683699,response,right,x,1,1777477041.468544,4.099825859069824,,,,,,310,249210.0,22,61.0,5,17,-76,0,0,-5,135.0,-202.0,-912.0
1777477045.6187031,response,right,x,1,1777477041.468544,4.150159120559692,,,,,,300,249211.0,22,61.0,6,13,-73,0,0,-3,238.0,-285.0,-874.0
1777477045.667695,response,right,x,1,1777477041.468544,4.199151039123535,,,,,,300,249211.0,22,61.0,6,13,-73,0,0,-3,238.0,-285.0,-874.0
1777477045.718674,response,right,x,1,1777477041.468544,4.25012993812561,,,,,,300,249209.0,22,61.0,6,12,-66,0,0,-2,162.0,-328.0,-965.0
1777477045.769175,response,right,x,1,1777477041.468544,4.300631046295166,,,,,,300,249209.0,22,61.0,6,12,-66,0,0,-2,162.0,-328.0,-965.0
1777477045.8199239,response,right,x,1,1777477041.468544,4.351379871368408,,,,,,290,249207.00000000003,22,61.0,6,11,-61,0,0,-2,30.0,-133.0,-944.0
1777477045.870573,response,right,x,1,1777477041.468544,4.402029037475586,,,,,,290,249207.00000000003,22,61.0,6,11,-61,0,0,-2,30.0,-133.0,-944.0
1777477045.920674,response,right,x,1,1777477041.468544,4.452130079269409,,,,,,280,249209.0,22,61.0,4,9,-56,0,0,0,-9.0,-10.0,-884.0
1777477045.9701362,response,right,x,1,1777477041.468544,4.50159215927124,,,,,,280,249209.0,22,61.0,4,9,-56,0,0,0,-9.0,-10.0,-884.0
1777477046.020397,response,right,x,1,1777477041.468544,4.5518529415130615,,,,,,270,249204.0,22,61.0,2,6,-50,0,0,0,11.0,81.0,-1018.0
1777477046.06974,response,right,x,1,1777477041.468544,4.601196050643921,,,,,,270,249204.0,22,61.0,2,6,-50,0,0,0,11.0,81.0,-1018.0
1777477046.1180391,response,right,x,1,1777477041.468544,4.6494951248168945,,,,,,0,249207.00000000003,22,61.0,4,3,-46,0,0,0,-35.0,0.0,-1022.0
1777477046.166049,response,right,x,1,1777477041.468544,4.697504997253418,,,,,,0,249207.00000000003,22,61.0,4,3,-46,0,0,0,-35.0,0.0,-1022.0
1777477046.214582,response,right,x,1,1777477041.468544,4.74603796005249,,,,,,0,249210.0,22,61.0,8,0,-45,0,0,0,164.0,-4.0,-978.0
1777477046.263644,response,right,x,1,1777477041.468544,4.795099973678589,,,,,,0,249210.0,22,61.0,8,0,-45,0,0,0,164.0,-4.0,-978.0
1777477046.312136,response,right,x,1,1777477041.468544,4.843591928482056,,,,,,0,249217.0,21,61.0,12,2,-46,0,0,1,247.0,31.0,-1010.0
1777477046.361901,response,right,x,1,1777477041.468544,4.893357038497925,,,,,,0,249217.0,21,61.0,12,2,-46,0,0,1,247.0,31.0,-1010.0
1777477046.411805,response,right,x,1,1777477041.468544,4.943260908126831,,,,,,0,249203.00000000003,21,61.0,12,-1,-50,0,0,1,404.0,-62.0,-1782.0
1777477046.461726,response,right,x,1,1777477041.468544,4.993181943893433,,,,,,0,249203.00000000003,21,61.0,12,-1,-50,0,0,1,404.0,-62.0,-1782.0
1777477046.511978,response,right,x,1,1777477041.468544,5.043433904647827,,,,,,0,249203.00000000003,21,61.0,12,-1,-50,0,0,1,404.0,-62.0,-1782.0
1777477046.5595589,response,right,x,1,1777477041.468544,5.091014862060547,,,,,,0,249207.00000000003,21,62.0,0,-2,-53,0,0,2,79.0,96.0,-1728.0
1777477046.6077151,response,right,x,1,1777477041.468544,5.139171123504639,,,,,,0,249207.00000000003,21,62.0,0,-2,-53,0,0,2,79.0,96.0,-1728.0
1777477046.6575942,response,right,x,1,1777477041.468544,5.189050197601318,,,,,,0,249209.0,21,62.0,0,-2,-53,0,0,1,42.0,-13.0,-1000.0
1777477046.7065978,response,right,x,1,1777477041.468544,5.238053798675537,,,,,,0,249209.0,21,62.0,0,-2,-53,0,0,1,42.0,-13.0,-1000.0
1777477046.755357,response,right,x,1,1777477041.468544,5.286813020706177,,,,,,0,249215.0,21,62.0,0,-2,-53,0,0,1,0.0,32.0,-996.0
1777477046.805425,response,right,x,1,1777477041.468544,5.336880922317505,,,,,,0,249215.0,21,62.0,0,-2,-53,0,0,1,0.0,32.0,-996.0
1777477046.85454,response,right,x,1,1777477041.468544,5.385996103286743,,,,,,0,249215.0,21,62.0,0,-2,-53,0,0,1,-37.0,-17.0,-1006.0
1777477046.9036212,response,right,x,1,1777477041.468544,5.43507719039917,,,,,,0,249215.0,21,62.0,0,-2,-53,0,0,1,-37.0,-17.0,-1006.0
1777477046.951276,response,right,x,1,1777477041.468544,5.482732057571411,,,,,,0,249205.00000000003,21,62.0,0,-2,-53,0,0,0,2.0,-34.0,-1006.0
1777477046.999767,response,right,x,1,1777477041.468544,5.5312230587005615,,,,,,0,249205.00000000003,21,62.0,0,-2,-53,0,0,0,2.0,-34.0,-1006.0
1777477047.047926,response,right,x,1,1777477041.468544,5.579381942749023,,,,,,0,249205.00000000003,21,62.0,0,-2,-53,0,0,0,-10.0,22.0,-1008.0
1777477047.097044,response,right,x,1,1777477041.468544,5.628499984741211,,,,,,0,249205.00000000003,21,62.0,0,-2,-53,0,0,0,-10.0,22.0,-1008.0
1777477047.146218,response,right,x,1,1777477041.468544,5.677674055099487,,,,,,0,249205.00000000003,21,62.0,0,-2,-53,0,0,0,9.0,15.0,-994.0
1777477047.1954272,response,right,x,1,1777477041.468544,5.726883172988892,,,,,,0,249205.00000000003,21,62.0,0,-2,-53,0,0,0,9.0,15.0,-994.0
1777477047.244021,response,right,x,1,1777477041.468544,5.775476932525635,,,,,,0,249207.00000000003,21,62.0,0,-2,-53,0,0,0,-1.0,19.0,-1003.0
1777477047.294101,response,right,x,1,1777477041.468544,5.825556993484497,,,,,,0,249207.00000000003,21,62.0,0,-2,-53,0,0,0,-1.0,19.0,-1003.0
1777477047.3437922,response,right,x,1,1777477041.468544,5.875248193740845,,,,,,0,249204.0,21,62.0,0,-2,-53,0,0,0,9.0,27.0,-1001.0
1777477047.3930829,response,right,x,1,1777477041.468544,5.924538850784302,,,,,,0,249204.0,21,62.0,0,-2,-53,0,0,0,9.0,27.0,-1001.0
1777477047.4419782,response,right,x,1,1777477041.468544,5.973434209823608,,,,,,0,249212.0,21,62.0,0,-2,-53,0,0,0,-10.0,29.0,-999.0
1777477047.492064,response,right,x,1,1777477041.468544,6.023519992828369,,,,,,0,249212.0,21,62.0,0,-2,-53,0,0,0,-10.0,29.0,-999.0
1777477047.541377,response,right,x,1,1777477041.468544,6.072833061218262,,,,,,0,249209.0,21,61.0,0,-1,-53,0,0,0,10.0,1.0,-1004.0
1777477047.591815,response,right,x,1,1777477041.468544,6.1232709884643555,,,,,,0,249209.0,21,61.0,0,-1,-53,0,0,0,10.0,1.0,-1004.0
1777477047.6441998,response,right,x,1,1777477041.468544,6.175655841827393,,,,,,0,249213.0,21,61.0,0,-1,-53,0,0,0,-8.0,9.0,-999.0
1777477047.691832,response,right,x,1,1777477041.468544,6.223288059234619,,,,,,0,249213.0,21,61.0,0,-1,-53,0,0,0,-8.0,9.0,-999.0
1777477047.742941,response,right,x,1,1777477041.468544,6.274396896362305,,,,,,0,249210.0,21,61.0,0,-1,-53,0,0,0,0.0,12.0,-1002.0
1777477047.793441,response,right,x,1,1777477041.468544,6.324897050857544,,,,,,0,249210.0,21,61.0,0,-1,-53,0,0,0,2.0,25.0,-1001.0
1777477047.847383,response,right,x,1,1777477041.468544,6.378839015960693,,,,,,0,249210.0,21,61.0,0,-1,-53,0,0,0,2.0,25.0,-1001.0
1777477047.896629,response,right,x,1,1777477041.468544,6.428085088729858,,,,,,0,249207.00000000003,21,61.0,0,-1,-53,0,0,0,0.0,23.0,-1001.0
1777477047.9465191,response,right,x,1,1777477041.468544,6.477975130081177,,,,,,0,249207.00000000003,21,61.0,0,-1,-53,0,0,0,0.0,23.0,-1001.0
1777477047.996263,response,right,x,1,1777477041.468544,6.527719020843506,,,,,,0,249206.0,21,61.0,0,-1,-53,0,0,0,-1.0,13.0,-1004.0
1777477048.046308,response,right,x,1,1777477041.468544,6.57776403427124,,,,,,0,249206.0,21,61.0,0,-1,-53,0,0,0,-1.0,13.0,-1004.0
1777477048.095411,response,right,x,1,1777477041.468544,6.626867055892944,,,,,,0,249206.0,21,61.0,0,-1,-53,0,0,0,-1.0,13.0,-1004.0
1777477048.146014,response,right,x,1,1777477041.468544,6.677469968795776,,,,,,0,249204.0,21,61.0,0,-1,-53,0,0,0,-3.0,12.0,-1005.0
1777477048.195498,response,right,x,1,1777477041.468544,6.726953983306885,,,,,,0,249206.0,20,61.0,0,-1,-53,0,0,0,-5.0,17.0,-1001.0
1777477048.245522,response,right,x,1,1777477041.468544,6.776978015899658,,,,,,0,249206.0,20,61.0,0,-1,-53,0,0,0,-5.0,17.0,-1001.0
1777477048.295079,response,right,x,1,1777477041.468544,6.826534986495972,,,,,,0,249212.0,20,61.0,0,-1,-53,0,0,0,0.0,17.0,-1003.0
1777477048.343509,response,right,x,1,1777477041.468544,6.874964952468872,,,,,,0,249212.0,20,61.0,0,-1,-53,0,0,0,0.0,17.0,-1003.0
1777477048.3927522,response,right,x,1,1777477041.468544,6.924208164215088,,,,,,0,249212.0,20,61.0,0,-1,-53,0,0,0,0.0,17.0,-1003.0
1777477048.4426,response,right,x,1,1777477041.468544,6.974056005477905,,,,,,0,249208.0,20,61.0,0,-1,-53,0,0,0,0.0,15.0,-1003.0
1777477048.492348,response,right,x,1,1777477041.468544,7.023803949356079,,,,,,0,249208.0,20,61.0,0,-1,-53,0,0,0,0.0,15.0,-1003.0
1777477048.5418172,response,right,x,1,1777477041.468544,7.073273181915283,,,,,,0,249206.0,20,61.5,0,-1,-53,0,0,0,-3.0,15.0,-1004.0
1777477048.592254,response,right,x,1,1777477041.468544,7.1237099170684814,,,,,,0,249206.0,20,61.5,0,-1,-53,0,0,0,-3.0,15.0,-1004.0
1777477048.642588,response,right,x,1,1777477041.468544,7.174043893814087,,,,,,0,249207.00000000003,20,61.5,0,-1,-53,0,0,0,-1.0,15.0,-1001.0
1777477048.6923609,response,right,x,1,1777477041.468544,7.223816871643066,,,,,,0,249207.00000000003,20,61.5,0,-1,-53,0,0,0,-1.0,15.0,-1001.0
1777477048.741243,response,right,x,1,1777477041.468544,7.272698879241943,,,,,,0,249210.0,20,61.5,0,-1,-53,0,0,0,-3.0,15.0,-999.0
1777477048.7912161,response,right,x,1,1777477041.468544,7.322672128677368,,,,,,0,249210.0,20,61.5,0,-1,-53,0,0,0,-3.0,15.0,-999.0
1777477048.8410282,response,right,x,1,1777477041.468544,7.37248420715332,,,,,,0,249207.00000000003,20,61.5,0,-1,-53,0,0,0,-2.0,19.0,-1000.0
