timestamp,elapsed,target_x,target_y,target_z,pos_x,pos_y,pos_z,marker_id,publish_count,err_x_cm,err_y_cm,err_z_cm,err_3d_cm,cmd_lr,cmd_fb,cmd_ud,vel_x_pub,vel_y_pub,vel_z_pub,tello_height_cm,tello_baro_cm,tello_battery,tello_temp_c,tello_pitch,tello_roll,tello_yaw,tello_vgx,tello_vgy,tello_vgz
1778025738.319105,7.867813110351562e-06,0.030483943364920836,1.3803941192185232,2.655989851400564,0.05448140247005512,1.3671448453848787,2.6567022438962398,0,0,-2.399745910513428,1.3249273833644493,-0.07123924956755623,2.7421320239721934,-13,0,7,0.0,0.0,0.0,130,250400.0,74,89.5,0,0,0,0,0,0
1778025738.390872,0.07177495956420898,0.030483943364920836,1.3803941192185232,2.655989851400564,0.05441177372025166,1.4102994751114504,2.6317135609571607,0,3,-2.3927830355330824,-2.99053558929272,2.4276290443403514,4.534544799964613,-1,-10,-17,-0.0009702044224523237,0.6013150132408851,-0.348191383116713,130,250409.0,74,89.0,0,0,0,0,0,0
1778025738.463339,0.1442420482635498,0.030483943364920836,1.3803941192185232,2.655989851400564,0.051403116438785326,1.4097955811173564,2.6316728681132138,0,7,-2.091917307386449,-2.940146189883319,2.4316983287350435,4.35129111882912,0,-1,-1,-0.04151756798108686,-0.0069534184846947,-0.0005615355146355057,130,250402.0,74,89.0,0,0,0,0,0,0
1778025738.53291,0.21381306648254395,0.030483943364920836,1.3803941192185232,2.655989851400564,0.05371863730301341,1.4089426120828725,2.631722685235567,0,10,-2.3234693938092574,-2.854849286434935,2.4267166164997356,4.408812539564632,-2,-1,-1,0.03328283707073742,-0.012260407513353966,0.0007160614236845926,130,250402.0,74,89.0,0,0,0,0,0,0
1778025738.603012,0.28391504287719727,0.030483943364920836,1.3803941192185232,2.655989851400564,0.05300886333332906,1.4123101219407848,2.6392720576671933,0,14,-2.252491996840823,-3.1916002722261583,1.67177937333709,4.2491032897096535,-1,1,-3,-0.010124878158763081,0.04803730267109947,0.10769129231286903,130,250402.0,74,89.0,0,0,0,0,0,0
1778025738.673783,0.35468602180480957,0.030483943364920836,1.3803941192185232,2.655989851400564,0.053023993459043635,1.4075935747826152,2.6317312513040902,0,17,-2.25400500941228,-2.719945556409198,2.425860009647396,4.285258358453111,-1,-4,0,0.00021378997357163234,-0.0666452157316334,-0.10655224044330558,130,250402.0,74,89.0,0,0,0,0,0,0
1778025738.7437818,0.4246847629547119,0.030483943364920836,1.3803941192185232,2.655989851400564,0.053023993459043635,1.4075935747826152,2.6317312513040902,0,21,-2.25400500941228,-2.719945556409198,2.425860009647396,4.285258358453111,-1,-1,-2,0.0,0.0,0.0,130,250402.0,74,89.0,0,0,0,0,0,0
1778025738.81338,0.49428296089172363,0.030483943364920836,1.3803941192185232,2.655989851400564,0.053283642090875064,1.3181981390554092,2.6820328284464314,0,24,-2.279969872595423,6.219598016311401,-2.604297704586722,7.117866860131845,-1,19,30,0.0037306803843745757,-1.284450436606294,0.7227425225559071,130,250394.0,74,89.0,0,0,0,0,0,0
1778025738.883996,0.5648989677429199,0.030483943364920836,1.3803941192185232,2.655989851400564,0.026473602873000088,1.3840224555352334,2.639999208211107,0,28,0.40103404919207486,-0.36283363167102234,1.5990643189457199,1.6880412462402434,9,-15,-23,-0.37965951932640035,0.9321444161878308,-0.5952421003342578,130,250394.0,74,89.0,0,0,0,0,0,0
1778025738.955232,0.6361348628997803,0.030483943364920836,1.3803941192185232,2.655989851400564,0.026473602873000088,1.3840224555352334,2.639999208211107,0,31,0.40103404919207486,-0.36283363167102234,1.5990643189457199,1.6880412462402434,0,-1,0,0.0,0.0,0.0,130,250396.99999999997,74,89.0,0,0,0,0,0,0
1778025739.027306,0.7082090377807617,0.030483943364920836,1.3803941192185232,2.655989851400564,0.05094133757215315,1.3634386367821427,2.6560449238878436,0,35,-2.045739420723231,1.6955482436380453,-0.005507248727942837,2.6570592680242635,-9,5,8,0.3394799141239906,-0.28559215262722665,0.2226278095203097,130,250390.0,74,89.0,0,0,0,0,0,0
1778025739.0977879,0.7786908149719238,0.030483943364920836,1.3803941192185232,2.655989851400564,0.03071197906947249,1.425501814499945,2.6143631034578068,0,39,-0.022803570455165456,-4.510769528142178,4.162674794275745,6.138030887975403,7,-17,-25,-0.2870154429820091,0.8805563677753644,-0.5913843562285127,130,250390.0,74,89.0,0,0,0,0,0,0
1778025739.167435,0.8483378887176514,0.030483943364920836,1.3803941192185232,2.655989851400564,0.047493764873454546,1.4080884628326809,2.6303271751897754,0,42,-1.700982150853371,-2.769434361415768,2.566267621078877,4.141115364573893,-7,4,4,0.24095464319506352,-0.25002273219457855,0.229213818663099,130,250406.0,74,89.0,0,0,0,0,0,0
1778025739.2381399,0.9190428256988525,0.030483943364920836,1.3803941192185232,2.655989851400564,0.05049082354562059,1.4085780579503644,2.6303804762751644,0,46,-2.000688018069975,-2.818393873184122,2.5609375125399847,4.301685427037296,-2,-1,-2,0.042388251798638775,0.0069244827672176705,0.0007538523852032467,130,250404.0,74,89.0,0,0,0,0,0,0
1778025739.30884,0.9897429943084717,0.030483943364920836,1.3803941192185232,2.655989851400564,0.05129829355775046,1.3622435858283015,2.6477360423941505,0,49,-2.0814350192829623,1.8150533390221657,0.8253809006413704,2.882367775655379,-1,5,17,0.011421047898604451,-0.655365793791881,0.24548125499979112,130,250404.0,74,89.0,0,0,0,0,0,0
1778025739.379536,1.060438871383667,0.030483943364920836,1.3803941192185232,2.655989851400564,0.05129829355775046,1.3622435858283015,2.6477360423941505,0,53,-2.0814350192829623,1.8150533390221657,0.8253809006413704,2.882367775655379,-1,0,1,0.0,0.0,0.0,130,250394.99999999997,74,88.5,0,0,0,0,0,0
1778025739.4503949,1.1312978267669678,0.030483943364920836,1.3803941192185232,2.655989851400564,0.05129829355775046,1.3622435858283015,2.6477360423941505,0,56,-2.0814350192829623,1.8150533390221657,0.8253809006413704,2.882367775655379,-1,0,1,0.0,0.0,0.0,130,250398.0,74,88.5,0,0,0,0,0,0
1778025739.5200698,1.2009727954864502,0.030483943364920836,1.3803941192185232,2.655989851400564,0.029151681661023263,1.3857188792664241,2.638454502336133,0,60,0.13322617038975734,-0.5324760047900945,1.7535349064431216,1.8374342372635897,7,-4,-8,-0.31785607232765917,0.3369257836718407,-0.13321197308872593,130,250407.00000000003,74,88.5,0,0,0,0,0,0
1778025739.5917141,1.2726171016693115,0.030483943364920836,1.3803941192185232,2.655989851400564,0.05017863926523422,1.4053109508357835,2.622176265309731,0,63,-1.9694695900313384,-2.4916831617260327,3.381358609083307,4.639060410008587,-8,-7,-8,0.2934909795977758,0.2734630651506843,-0.22720908183344116,130,250407.00000000003,74,88.5,0,0,0,0,0,0
1778025739.662125,1.3430280685424805,0.030483943364920836,1.3803941192185232,2.655989851400564,0.025381154121887156,1.3878186315167467,2.6386119723485835,0,67,0.510278924303368,-0.7424512298223496,1.7377879051980738,1.9574282139341999,8,4,5,-0.3521821421372426,-0.2484317443125826,0.2334253848332735,130,250407.00000000003,74,88.5,0,0,0,0,0,0
1778025739.73214,1.4130430221557617,0.030483943364920836,1.3803941192185232,2.655989851400564,0.05066184079100591,1.3641891171249214,2.6470638446472075,0,70,-2.0177897426085076,1.6205002093601761,0.8926006753356752,2.737559559082174,-10,2,9,0.36107553264626063,-0.3374923951580386,0.12071524527898475,130,250398.99999999997,74,88.5,0,0,0,0,0,0
1778025739.802973,1.4838759899139404,0.030483943364920836,1.3803941192185232,2.655989851400564,0.026710916911474196,1.3838686310979504,2.630179372579072,0,74,0.377302645344664,-0.34745118794272667,2.581047882149212,2.631518151967382,8,-7,-7,-0.3381324351861034,0.2778298664573,-0.2383702476758897,130,250398.99999999997,74,88.5,0,0,0,0,0,0
1778025739.873206,1.5541088581085205,0.030483943364920836,1.3803941192185232,2.655989851400564,0.028103013230233762,1.4299923550798104,2.6128570899784695,0,77,0.23809301346870737,-4.95982358612872,4.313276142209466,6.577301070160521,0,-8,-20,0.01982115147145586,0.6567256210308001,-0.24664068328536962,130,250402.0,74,88.5,0,0,0,0,0,0
1778025739.94434,1.6252429485321045,0.030483943364920836,1.3803941192185232,2.655989851400564,0.05148697446372315,1.4076373360994214,2.6213766547457116,0,81,-2.1003031098802314,-2.7243216880898258,3.461319665485263,4.879952421924232,-9,0,5,0.328730726635349,-0.31426590046025665,0.11976767702391859,130,250396.99999999997,74,88.5,0,0,0,0,0,0
1778025740.015451,1.6963539123535156,0.030483943364920836,1.3803941192185232,2.655989851400564,0.05148697446372315,1.4076373360994214,2.6213766547457116,0,84,-2.1003031098802314,-2.7243216880898258,3.461319665485263,4.879952421924232,-1,-2,-2,0.0,0.0,0.0,130,250396.99999999997,74,88.5,0,0,0,0,0,0
1778025740.086676,1.7675788402557373,0.030483943364920836,1.3803941192185232,2.655989851400564,0.026596370079141556,1.4259973190653112,2.6056783275569906,0,88,0.38875732857792805,-4.560319984678807,5.0311523843573625,6.801481084132245,8,-8,-9,-0.34946478877102793,0.2577746795489156,-0.22040495724013678,130,250396.0,74,88.5,0,0,0,0,0,0
1778025740.158504,1.839406967163086,0.030483943364920836,1.3803941192185232,2.655989851400564,0.026596370079141556,1.4259973190653112,2.6056783275569906,0,92,0.38875732857792805,-4.560319984678807,5.0311523843573625,6.801481084132245,0,-3,-3,0.0,0.0,0.0,130,250398.0,74,88.5,0,0,0,0,0,0
1778025740.229564,1.9104669094085693,0.030483943364920836,1.3803941192185232,2.655989851400564,0.07705268146317207,1.3396686256682893,2.653972070437144,0,95,-4.6568738098251234,4.0725493550233915,0.20177809634200905,6.189737177772575,-20,16,30,0.7100528059778649,-1.2148714264189973,0.6796197879435105,130,250398.99999999997,74,88.5,0,0,0,0,0,0
1778025740.2992032,1.9801061153411865,0.030483943364920836,1.3803941192185232,2.655989851400564,0.025918002539129223,1.4246900620718814,2.605667045518247,0,99,0.45659408257916134,-4.429594285335825,5.03228058823173,6.719645199533975,18,-20,-30,-0.7342800400900708,1.220884633375326,-0.6936469804902298,130,250398.99999999997,74,88.5,0,0,0,0,0,0
1778025740.368852,2.0497548580169678,0.030483943364920836,1.3803941192185232,2.655989851400564,0.048911454101713936,1.4057954955615282,2.621517037077188,0,102,-1.84275107367931,-2.540137634300499,3.4472814323376344,4.66173572765293,-9,3,4,0.33013448167500314,-0.27128366980447177,0.22757039036186977,130,250394.99999999997,74,88.0,0,0,0,0,0,0
1778025740.438613,2.119515895843506,0.030483943364920836,1.3803941192185232,2.655989851400564,0.048925473359191,1.4011203420251448,2.6140734729059,0,106,-1.8441529994270165,-2.072622280662162,4.191637849466412,5.02657848488137,-1,-5,0,0.0002009611369590517,-0.0670166855603297,-0.10670088065198105,130,250407.00000000003,74,88.0,0,0,0,0,0,0
1778025740.5093162,2.1902191638946533,0.030483943364920836,1.3803941192185232,2.655989851400564,0.027117204075142627,1.3824813770242286,2.6303553422024026,0,109,0.3366739289778209,-0.20872578057054003,2.563450919816157,2.593876713383742,7,3,6,-0.3084478254706989,-0.2636223970217699,0.23028453627806963,130,250407.00000000003,74,88.0,0,0,0,0,0,0
1778025740.580991,2.2618939876556396,0.030483943364920836,1.3803941192185232,2.655989851400564,0.024718998845309967,1.3830396903904105,2.629473803315722,0,113,0.576494451961087,-0.2645571171887351,2.6516048084842314,2.7264160324084483,0,-2,0,-0.03345952042839956,0.007789532459036877,-0.01229914271739833,130,250401.00000000003,74,88.0,0,0,0,0,0,0
1778025740.6515882,2.332491159439087,0.030483943364920836,1.3803941192185232,2.655989851400564,0.024033104484605307,1.4238681167100968,2.6049742943051033,0,116,0.6450838880315529,-4.347399749157366,5.101555709546091,6.733638575033096,0,-12,-17,-0.0097156067782517,0.5783294895286335,-0.3470324432509764,130,250403.00000000003,74,88.0,0,0,0,0,0,0
1778025740.721578,2.4024808406829834,0.030483943364920836,1.3803941192185232,2.655989851400564,0.04869855202858332,1.3580227572006294,2.6380114230668914,0,120,-1.8214608663662486,2.2371362017893803,1.7978428333672802,3.3992259304951165,-10,10,24,0.3524154861918162,-0.9407866751101909,0.4720285644202607,130,250403.00000000003,74,88.0,0,0,0,0,0,0
1778025740.792894,2.473796844482422,0.030483943364920836,1.3803941192185232,2.655989851400564,0.02265624876428023,1.3779117315187142,2.622158433913212,0,123,0.7827694600640607,0.24823876998090189,3.383141748735241,3.481378836979101,9,-8,-7,-0.3651677306196473,0.2788851486129034,-0.22229216878532432,130,250396.99999999997,74,88.0,0,0,0,0,0,0
1778025740.8648791,2.5457820892333984,0.030483943364920836,1.3803941192185232,2.655989851400564,0.0440744733571078,1.399775979768608,2.613367749111641,0,127,-1.3590529992186962,-1.938186055008484,4.262210228892327,4.8754513917984115,-8,-6,-9,0.29753631687884213,0.30373235967357387,-0.1221178705716855,130,250404.0,74,88.0,0,0,0,0,0,0
1778025740.93664,2.6175429821014404,0.030483943364920836,1.3803941192185232,2.655989851400564,0.04634398671818168,1.3989319882249365,2.613433671099715,0,130,-1.5860043353260842,-1.85378690064133,4.255618030084918,4.905325722380356,-2,-3,-1,0.031626046867159106,-0.01176116279968144,0.0009186338887297909,130,250404.0,74,88.0,0,0,0,0,0,0
1778025741.0060658,2.6869688034057617,0.030483943364920836,1.3803941192185232,2.655989851400564,0.04729158761754046,1.355243030620084,2.638018068665585,0,134,-1.6807644252619622,2.5151088598439175,1.7971782734979236,3.518606453814425,-1,7,17,0.01364911327739381,-0.6292897481665533,0.35411028784386495,130,250400.0,74,88.0,0,0,0,0,0,0
1778025741.076708,2.757611036300659,0.030483943364920836,1.3803941192185232,2.655989851400564,0.04275014897606018,1.3971399711327779,2.613370853580354,0,137,-1.2266205611139342,-1.6745851914254706,4.261899782021006,4.740529856068796,0,-11,-16,-0.06428786938596773,0.593086299735581,-0.34890198221652063,130,250396.99999999997,74,88.0,0,0,0,0,0,0
1778025741.1467898,2.827692747116089,0.030483943364920836,1.3803941192185232,2.655989851400564,0.04275014897606018,1.3971399711327779,2.613370853580354,0,141,-1.2266205611139342,-1.6745851914254706,4.261899782021006,4.740529856068796,-1,-3,-1,0.0,0.0,0.0,130,250398.99999999997,74,88.0,0,0,0,0,0,0
1778025741.213485,2.89438796043396,0.030483943364920836,1.3803941192185232,2.655989851400564,0.04653465162479289,1.3084990851147906,2.663778464323582,0,144,-1.605070825987205,7.189503410373255,-0.7788612923017801,7.4075526698667415,-2,18,30,0.056743242287803655,-1.3290441938542503,0.7557905318179866,130,250398.99999999997,74,88.0,0,0,0,0,0,0
1778025741.284777,2.965679883956909,0.030483943364920836,1.3803941192185232,2.655989851400564,0.045896600400874024,1.3528537342076694,2.63876532277001,0,148,-1.5412657035953188,2.7540385010853763,1.7224528630554126,3.5954237441486017,0,-10,-13,-0.008949838809068904,0.6221553143898664,-0.3508551925313121,130,250404.0,74,88.0,0,0,0,0,0,0
1778025741.3550131,3.0359160900115967,0.030483943364920836,1.3803941192185232,2.655989851400564,0.045896600400874024,1.3528537342076694,2.63876532277001,0,151,-1.5412657035953188,2.7540385010853763,1.7224528630554126,3.5954237441486017,-1,-1,1,0.0,0.0,0.0,130,250396.99999999997,74,88.5,0,0,0,0,0,0
1778025741.427953,3.108855962753296,0.030483943364920836,1.3803941192185232,2.655989851400564,0.04625186694742278,1.3958190914204462,2.614092372832883,0,155,-1.5767923582501946,-1.542497220192307,4.189747856768111,4.734929663535689,-1,-11,-16,0.00487067680809997,0.5890517161296587,-0.338264230656131,130,250396.99999999997,74,88.5,0,0,0,0,0,0
1778025741.495726,3.176629066467285,0.030483943364920836,1.3803941192185232,2.655989851400564,0.021768108446547974,1.373366029040179,2.6228056343318853,0,158,0.8715834918372862,0.702809017834416,3.318421706867891,3.5022165728870425,9,0,8,-0.3612606942748151,-0.3312975376636414,0.12856518325873378,130,250403.00000000003,74,88.5,0,0,0,0,0,0
1778025741.563369,3.244271993637085,0.030483943364920836,1.3803941192185232,2.655989851400564,0.022487562658190314,1.3746990758703825,2.6228187564412413,0,162,0.7996380706730523,0.5695043348140638,3.317109495932291,3.4593310971119706,0,-2,0,0.010636059699727949,0.01970711330775585,0.00019399085617719008,130,250394.0,74,88.5,0,0,0,0,0,0
1778025741.635068,3.3159708976745605,0.030483943364920836,1.3803941192185232,2.655989851400564,0.04860117306185436,1.3547126384410082,2.638676803310021,0,165,-1.8117229696933523,2.5681480777514976,1.7313048090543237,3.588194672816379,-10,3,8,0.36421212784528734,-0.27875513158371046,0.2211755825513175,130,250394.0,74,88.5,0,0,0,0,0,0
1778025741.7053921,3.3862950801849365,0.030483943364920836,1.3803941192185232,2.655989851400564,0.04465272187418554,1.3979764680257203,2.6140232243493866,0,169,-1.4168778509264706,-1.7582348807197112,4.19666270511776,4.765596562944852,0,-12,-16,-0.05614642142603283,0.6152055813564378,-0.3505704308329051,130,250396.0,74,88.5,0,0,0,0,0,0
1778025741.776684,3.4575870037078857,0.030483943364920836,1.3803941192185232,2.655989851400564,0.04355749643533961,1.3550834837953283,2.638677453776196,0,172,-1.3073553070418777,2.5310635423194894,1.7312397624368092,3.333564409030025,0,6,16,-0.015362545779724566,-0.6016527835244134,0.34582079159181595,130,250389.0,74,88.5,0,0,0,0,0,0
1778025741.8479528,3.528855800628662,0.030483943364920836,1.3803941192185232,2.655989851400564,0.04888605954619033,1.3505977752211296,2.6318926761272117,0,176,-1.8402116181269497,2.9796343997393615,2.4097175273352534,4.251039698373361,-3,-4,3,0.07476712588222925,-0.06294070852893886,-0.09519983417885555,130,250389.0,74,88.5,0,0,0,0,0,0
1778025741.918132,3.5990350246429443,0.030483943364920836,1.3803941192185232,2.655989851400564,0.0458946976061969,1.3974934370423393,2.6146843034701632,0,180,-1.5410754241276068,-1.709931782381613,4.130554793040098,4.728663982728669,0,-9,-18,-0.042624608379606105,0.6682271353081073,-0.24520608340648442,130,250398.0,74,88.5,0,0,0,0,0,0
1778025741.988984,3.669887065887451,0.030483943364920836,1.3803941192185232,2.655989851400564,0.023740821936004075,1.3741670687744652,2.6235129831287467,0,183,0.6743121428916761,0.6227050444058024,3.2476868271817505,3.3748967637291463,7,0,8,-0.31267801577855625,-0.3292264818084214,0.12460727317814516,130,250392.99999999997,74,88.5,0,0,0,0,0,0
1778025742.059011,3.7399139404296875,0.030483943364920836,1.3803941192185232,2.655989851400564,0.0701461914115599,1.3736818354770368,2.6225046812267556,0,187,-3.9662248046639057,0.6712283741486358,3.3485170173808587,5.233932837463876,-19,-3,0,0.6626794324165742,-0.00692924395955538,-0.014398784874840163,130,250392.99999999997,74,88.5,0,0,0,0,0,0
1778025742.130095,3.81099796295166,0.030483943364920836,1.3803941192185232,2.655989851400564,0.04919217561800503,1.352795145596244,2.63934757893713,0,190,-1.8708232253084192,2.7598973622279255,1.6642272463434082,3.7264816271998202,5,4,9,-0.2947781379012113,-0.29383100645910476,0.2369435087212211,130,250396.0,74,88.5,0,0,0,0,0,0
1778025742.201477,3.8823800086975098,0.030483943364920836,1.3803941192185232,2.655989851400564,0.04385806150982949,1.3935668631476297,2.6146922829296995,0,194,-1.337411814490865,-1.31727439291065,4.129756847086474,4.536383339601658,0,-11,-15,-0.07472627118543576,0.5711760867228488,-0.3453991231242375,130,250402.0,74,88.5,0,0,0,0,0,0
1778025742.2722628,3.9531657695770264,0.030483943364920836,1.3803941192185232,2.655989851400564,-0.0022174112259016367,1.393831039278055,2.614288989874613,0,197,3.2701354590822476,-1.3436920059531898,4.170086152595109,5.467075328516615,17,-3,-1,-0.6509144235117498,0.0037320518582126686,-0.005697375433638276,130,250398.99999999997,74,88.5,0,0,0,0,0,0
1778025742.343725,4.024627923965454,0.030483943364920836,1.3803941192185232,2.655989851400564,0.04317602406869683,1.3922732941774387,2.6146940549640503,0,201,-1.2692080703775996,-1.187917495891555,4.129579643651393,4.4805652697195315,-17,-3,0,0.6352094431391685,-0.021798182743684568,0.005668246261307182,130,250398.99999999997,74,88.5,0,0,0,0,0,0
1778025742.41327,4.094172954559326,0.030483943364920836,1.3803941192185232,2.655989851400564,0.0470471310995777,1.3029731118342607,2.665133416778084,0,204,-1.6563187734656863,7.74210073842625,-0.9143565377519813,7.969916160249426,-2,17,30,0.055663316240196846,-1.284062737202199,0.7252762905316514,130,250389.0,74,88.0,0,0,0,0,0,0
1778025742.48518,4.166082859039307,0.030483943364920836,1.3803941192185232,2.655989851400564,0.02160567613404266,1.4140158233528224,2.606251451754021,0,208,0.8878267230878176,-3.3621704134299213,4.973839964654303,6.068896948636111,9,-24,-30,-0.35379625587762914,1.544192171044751,-0.8188296932094442,130,250398.0,74,88.0,0,0,0,0,0,0
1778025742.555944,4.236846923828125,0.030483943364920836,1.3803941192185232,2.655989851400564,0.04476125909960681,1.3901500788128298,2.6147672001476128,0,211,-1.4277315734685971,-0.975595959430664,4.122265125295144,4.470265616846626,-9,0,7,0.3272223413771877,-0.33725796576574935,0.12034001182669755,130,250398.0,74,88.0,0,0,0,0,0,0
1778025742.6271958,4.308098793029785,0.030483943364920836,1.3803941192185232,2.655989851400564,0.020909712648923693,1.4127760443254926,2.606236289879699,0,215,0.9574230715997143,-3.2381925106969467,4.97535615208653,6.013045693695542,8,-6,-10,-0.33474976471392526,0.31754907999151333,-0.11972893291780606,130,250396.99999999997,74,88.0,0,0,0,0,0,0
1778025742.6989498,4.379852771759033,0.030483943364920836,1.3803941192185232,2.655989851400564,0.016992062552873565,1.3720571770312082,2.630845026257973,0,219,1.349188081204727,0.8336942187314955,2.51448251425912,2.972873499381714,1,6,14,-0.05459836744151488,-0.5674788773446339,0.3429598861845858,130,250394.0,74,88.0,0,0,0,0,0,0
1778025742.770192,4.45109486579895,0.030483943364920836,1.3803941192185232,2.655989851400564,0.017102565610989908,1.3262682178767307,2.6558786744310448,0,222,1.3381377753930928,5.4125901341792515,0.011117696951945533,5.575559906389138,0,7,19,0.0015510922244147967,-0.6427233754361849,0.35138843840055256,130,250408.0,74,88.0,0,0,0,0,0,0
1778025742.840928,4.521831035614014,0.030483943364920836,1.3803941192185232,2.655989851400564,0.043541006126247166,1.3503737354092384,2.6471240892401595,0,226,-1.305706276132633,3.0020383809284734,0.8865762160404689,3.391625083488509,-10,-4,-6,0.37376126788288605,0.34078064440767103,-0.12376391333844766,130,250405.00000000003,74,88.0,0,0,0,0,0,0
1778025742.9114501,4.592353105545044,0.030483943364920836,1.3803941192185232,2.655989851400564,0.043541006126247166,1.3503737354092384,2.6471240892401595,0,229,-1.305706276132633,3.0020383809284734,0.8865762160404689,3.391625083488509,-1,-1,1,0.0,0.0,0.0,130,250405.00000000003,74,88.0,0,0,0,0,0,0
1778025742.9826,4.663502931594849,0.030483943364920836,1.3803941192185232,2.655989851400564,0.043541006126247166,1.3503737354092384,2.6471240892401595,0,233,-1.305706276132633,3.0020383809284734,0.8865762160404689,3.391625083488509,-1,-1,1,0.0,0.0,0.0,130,250401.00000000003,74,88.0,0,0,0,0,0,0
1778025743.054015,4.734917879104614,0.030483943364920836,1.3803941192185232,2.655989851400564,0.06647539127231211,1.3299646079961445,2.6627090349696942,0,236,-3.5991447907391274,5.042951122237871,-0.6719183569130038,6.231907695428541,-10,4,10,0.32114264514342444,-0.2857822924297904,0.21823086444758033,130,250400.0,74,88.0,0,0,0,0,0,0
1778025743.125634,4.806536912918091,0.030483943364920836,1.3803941192185232,2.655989851400564,0.019470864023513116,1.3767993110754344,2.6376674629692016,0,240,1.101307934140772,0.3594808143088768,1.832238843136258,2.1677649318952645,16,-10,-16,-0.6563133394289683,0.6539421238391107,-0.3496496764492869,130,250400.0,74,88.0,0,0,0,0,0,0
1778025743.196405,4.877307891845703,0.030483943364920836,1.3803941192185232,2.655989851400564,0.018345527181048395,1.3776555081785529,2.637804893335497,0,243,1.213841618387244,0.2738611039970307,1.8184958065067036,2.203483237307219,0,-2,0,-0.015901106068007976,0.012098138475577927,0.0019419028587426106,130,250404.0,74,88.0,0,0,0,0,0,0
1778025743.267114,4.948016881942749,0.030483943364920836,1.3803941192185232,2.655989851400564,0.04388587021865658,1.3131987613299245,2.6793883502395945,0,247,-1.3401926853735744,6.719535788859865,-2.3398498839030335,7.240385012614898,-10,15,27,0.3612036178505004,-0.911577817193591,0.5880929263312256,130,250404.0,74,88.0,0,0,0,0,0,0
1778025743.3393412,5.020244121551514,0.030483943364920836,1.3803941192185232,2.655989851400564,0.04107792229081861,1.4042570041438043,2.6283463025845495,0,251,-1.0593978925897771,-2.3862884925281103,2.764354881601472,3.802414308808238,0,-20,-30,-0.0388765781863998,1.260718854923953,-0.7066869498478132,130,250392.99999999997,74,88.0,0,0,0,0,0,0
1778025743.41048,5.09138298034668,0.030483943364920836,1.3803941192185232,2.655989851400564,0.016954712303026236,1.342249134574382,2.669996476659725,0,254,1.35292310618946,3.8144984644141067,-1.4006625259160632,4.282832588110874,8,14,24,-0.339100322894575,-0.8716455481520275,0.5854771187024655,130,250392.99999999997,74,88.0,0,0,0,0,0,0
1778025743.482303,5.163205862045288,0.030483943364920836,1.3803941192185232,2.655989851400564,0.04050609400623921,1.3648802622374139,2.653516025333552,0,255,-1.0022150641318375,1.5513856981109297,0.2473826067012297,1.8634459405022235,-9,-6,-6,0.32790917248408447,0.31509634712234413,-0.22945962256610827,130,250402.0,74,88.0,0,0,0,0,0,0
1778025743.552999,5.2339019775390625,0.030483943364920836,1.3803941192185232,2.655989851400564,0.04187489600118719,1.3676803650225262,2.6535072142368907,0,255,-1.1390952636266354,1.2713754195996962,0.24826371636734734,1.7249835796445905,-1,-1,0,0.019361770945795734,0.03960759039665928,-0.0001246333918014553,130,250400.0,74,88.0,0,0,0,0,0,0
1778025743.624871,5.305773973464966,0.030483943364920836,1.3803941192185232,2.655989851400564,0.07341575611029802,1.3485199513554187,2.668253864063332,0,255,-4.2931812745377185,3.1874167863104486,-1.2264012662767776,5.485899314754166,-13,4,8,0.4388477000364368,-0.2665908107917445,0.2051793558320595,130,250400.0,74,88.0,0,0,0,0,0,0
1778025743.696206,5.377109050750732,0.030483943364920836,1.3803941192185232,2.655989851400564,0.024330105754904657,1.438243482296334,2.6191910463924217,0,255,0.6153837610016178,-5.7849363077810745,3.6798805008142477,6.883727606367144,17,-20,-30,-0.6880997711512589,1.2577757585021592,-0.6877796946145552,130,250394.0,74,88.0,0,0,0,0,0,0
1778025743.765474,5.4463770389556885,0.030483943364920836,1.3803941192185232,2.655989851400564,0.021817216358325994,1.4007870928512483,2.6441260759118763,0,255,0.8666727006594842,-2.0392973632725075,1.1863775488687889,2.5134333081222824,0,7,11,-0.036277788076409995,-0.5407460273605247,0.3599791211731845,130,250404.0,74,88.0,0,0,0,0,0,0
1778025743.8355231,5.516426086425781,0.030483943364920836,1.3803941192185232,2.655989851400564,0.026967307567748587,1.4435956997672208,2.6192390588724392,0,255,0.3516635797172249,-6.320158054869762,3.6750792528124965,7.319444830469557,-2,-12,-19,0.07352121685339702,0.6111233266126788,-0.3552798780035162,130,250404.0,74,88.0,0,0,0,0,0,0
1778025743.90502,5.585922956466675,0.030483943364920836,1.3803941192185232,2.655989851400564,0.048425632432239796,1.3863056538277356,2.660410040379275,0,255,-1.794168906731896,-0.5911534609212454,-0.44201889787109927,1.9400735002359768,-9,14,20,0.30876678117826944,-0.8243543328753423,0.5924149027518795,130,250407.00000000003,74,88.0,0,0,0,0,0,0
1778025743.974198,5.65510106086731,0.030483943364920836,1.3803941192185232,2.655989851400564,0.049133069743376265,1.430216635800694,2.63523869408119,0,255,-1.864912637845543,-4.982251658217085,2.075115731937416,5.7102395775954164,-1,-11,-19,0.010226318244273511,0.6347526049377479,-0.36386290888095196,130,250392.99999999997,74,88.0,0,0,0,0,0,0
1778025744.044841,5.725744009017944,0.030483943364920836,1.3803941192185232,2.655989851400564,0.0497630492921389,1.3892763633361649,2.6603984733007735,0,255,-1.9279105927218063,-0.8882244117641713,-0.44086219002092975,2.1679809339043565,-1,8,13,0.00891779809952587,-0.5795379940433767,0.35615415095551023,130,250392.99999999997,74,88.0,0,0,0,0,0,0
1778025744.116072,5.7969748973846436,0.030483943364920836,1.3803941192185232,2.655989851400564,0.05042915451390281,1.3907728154491021,2.6603920746757765,0,255,-1.9945211148981976,-1.0378696230578965,-0.4402223275212336,2.291087848575279,-1,0,-1,0.009351353563566117,0.021008471847683015,-8.982935835393893e-05,130,250408.0,74,88.0,0,0,0,0,0,0
1778025744.186885,5.867788076400757,0.030483943364920836,1.3803941192185232,2.655989851400564,0.05109382407700862,1.3922763980903898,2.660385343115714,0,255,-2.060988071208778,-1.1882278871866658,-0.43954917151496353,2.4192479855799114,-1,0,-1,0.009386240984246189,0.02123309053736393,-9.506083692653792e-05,130,250411.0,74,88.0,0,0,0,0,0,0
1778025744.258081,5.938983917236328,0.030483943364920836,1.3803941192185232,2.655989851400564,0.04971317799558572,1.4354516716683912,2.6353433289883292,0,255,-1.9229234630664886,-5.505755244986799,2.064652241223497,6.186579373102755,-1,-11,-19,-0.019392229450755905,0.6064297165576819,-0.3517342282004901,130,250408.0,74,88.0,0,0,0,0,0,0
1778025744.329908,6.010810852050781,0.030483943364920836,1.3803941192185232,2.655989851400564,0.029052445432676367,1.4137550861404558,2.6443869105908866,0,255,0.14314979322444693,-3.3360966921932578,1.1602940809677609,3.5350127803576354,6,1,5,-0.2876460288369701,-0.30206754031733496,0.1259079428339687,130,250408.0,74,88.0,0,0,0,0,0,0
1778025744.400533,6.081435918807983,0.030483943364920836,1.3803941192185232,2.655989851400564,0.02830445797313665,1.4611982044988054,2.626044230814434,0,255,0.21794853917841867,-8.080408528028226,2.994562058613015,8.620203331038423,0,-9,-22,-0.010590962867492648,0.6717603329346457,-0.2597191141710603,130,250406.0,74,86.5,0,0,0,0,0,0
1778025744.4717262,6.152629137039185,0.030483943364920836,1.3803941192185232,2.655989851400564,0.02830445797313665,1.4611982044988054,2.626044230814434,0,255,0.21794853917841867,-8.080408528028226,2.994562058613015,8.620203331038423,0,-2,-5,0.0,0.0,0.0,130,250405.00000000003,74,86.5,0,0,0,0,0,0
1778025744.543177,6.224079847335815,0.030483943364920836,1.3803941192185232,2.655989851400564,0.008391881255706585,1.4834581925591706,2.6171187447751967,0,255,2.209206210921425,-10.306407334064737,3.8871106625367524,11.234422705277032,7,-6,-15,-0.2786896958023524,0.3115432718296538,-0.12491808691869982,130,250405.00000000003,74,86.5,0,0,0,0,0,0
1778025744.6127381,6.293641090393066,0.030483943364920836,1.3803941192185232,2.655989851400564,0.053996322013576556,1.4432986437140811,2.6422191688924603,0,255,-2.351237864865572,-6.2904524495557945,1.377068250810387,6.855248243841363,-18,7,9,0.6556012910858444,-0.5773264979183441,0.3608392118094447,130,250409.0,74,86.5,0,0,0,0,0,0
1778025744.68257,6.363472938537598,0.030483943364920836,1.3803941192185232,2.655989851400564,0.03036023286466582,1.465325065554822,2.6336900275452146,0,255,0.012371050025501706,-8.493094633629884,2.2299823855349565,8.780981205905615,7,-5,-14,-0.33847148223817636,0.31542086348842885,-0.12213827320727495,130,250406.0,74,86.5,0,0,0,0,0,0
1778025744.753802,6.434705018997192,0.030483943364920836,1.3803941192185232,2.655989851400564,0.02742256266195958,1.3809454570320052,2.6845264533783593,0,255,0.3061380702961258,-0.05513378134820446,-2.853660197779506,2.870563842927267,0,18,29,-0.04124083115012466,-1.1845731302299922,0.7136731863669318,130,250406.0,74,86.5,0,0,0,0,0,0
1778025744.825283,6.506186008453369,0.030483943364920836,1.3803941192185232,2.655989851400564,0.028460523154180867,1.4245899100655404,2.6590399320741915,0,255,0.20234202107399685,-4.419579084701719,-0.3050080673627331,4.434709855287214,0,-9,-18,0.01452079077413495,0.6105742710835375,-0.3565496434516046,130,250403.00000000003,74,86.5,0,0,0,0,0,0
1778025744.8973272,6.578230142593384,0.030483943364920836,1.3803941192185232,2.655989851400564,0.0007695659707551879,1.4432472704254313,2.642129561374753,0,255,2.9714377394165647,-6.285315120690815,1.3860290025811128,7.0891258136394795,11,-7,-11,-0.3843610241690115,0.25897126230473105,-0.23472238095850922,130,250404.0,74,86.5,0,-1,0,0,0,0
1778025744.9677892,6.6486921310424805,0.030483943364920836,1.3803941192185232,2.655989851400564,0.027794697604942787,1.4231143617077677,2.6590317978329145,0,255,0.2689245759978049,-4.272024248924455,-0.304194643235034,4.29127556700185,-9,5,3,0.38354199518100685,-0.28572722911741366,0.2398773697732363,130,250404.0,74,86.5,0,-1,0,0,0,0
1778025745.038068,6.718971014022827,0.030483943364920836,1.3803941192185232,2.655989851400564,0.027771345347935912,1.4629525569489759,2.6330200415977254,0,255,0.2712598016984924,-8.255843773045267,2.2969809802838803,8.573719140999064,0,-11,-20,-0.00033227985443942394,0.5668586857356396,-0.37012193609370925,130,250407.00000000003,74,86.5,0,0,0,0,0,0
1778025745.108871,6.789773941040039,0.030483943364920836,1.3803941192185232,2.655989851400564,0.0029223411991344504,1.446809527627074,2.6490981171566594,0,255,2.7561602165786385,-6.641540840855087,0.6891734243904768,7.223672465518008,9,4,0,-0.35096012545866595,-0.2279994627620057,0.22708207465809313,130,250394.99999999997,74,86.5,0,0,0,0,0,0
1778025745.179334,6.860236883163452,0.030483943364920836,1.3803941192185232,2.655989851400564,0.025753982862871113,1.4221289154562609,2.6583713937628444,0,255,0.4729960502049723,-4.173479623773768,-0.23815423622801646,4.206943649943233,-8,2,5,0.3240233940806493,-0.3502637191558942,0.1316050157250481,130,250398.0,74,86.5,0,0,0,0,0,0
1778025745.2501462,6.931049108505249,0.030483943364920836,1.3803941192185232,2.655989851400564,0.02583677596105173,1.4619975770078577,2.632364892306495,0,255,0.4647167403869106,-8.160345778933454,2.3624959094069364,8.508148553152877,0,-11,-20,0.001169192152640188,0.5630194695782904,-0.3672600505184125,130,250398.0,74,86.5,0,0,0,0,0,0
1778025745.321315,7.002218008041382,0.030483943364920836,1.3803941192185232,2.655989851400564,0.005585147640560333,1.4831171983112559,2.623237490113458,0,255,2.4898795724360503,-10.27230790927327,3.2752361287106346,11.065576431752842,8,-6,-15,-0.2845572778627769,0.29675351791375715,-0.12824987111684863,130,250396.0,74,86.5,0,0,0,0,0,0
1778025745.391884,7.072787046432495,0.030483943364920836,1.3803941192185232,2.655989851400564,0.02307212987139406,1.4196969692647947,2.6577049143768594,0,255,0.7411813493526774,-3.9302850046271542,-0.17150629762952008,4.003236742980849,-6,11,18,0.24779963889993795,-0.8986976511564261,0.48842133957350353,130,250396.0,74,87.0,0,0,0,0,0,0
1778025745.46352,7.144423007965088,0.030483943364920836,1.3803941192185232,2.655989851400564,0.046995651415609324,1.4385447580240385,2.647868526338781,0,255,-1.6511708050688487,-5.81506388055153,0.8121325061783313,6.09925341086909,-9,-5,-11,0.33395966261066506,0.2631051270341144,-0.13731075604538617,130,250396.0,74,87.0,0,0,0,0,0,0
1778025745.533719,7.2146220207214355,0.030483943364920836,1.3803941192185232,2.655989851400564,0.017264902881921777,1.4154103808736505,2.65686601624547,0,255,1.3219040482999058,-3.501626165512728,-0.08761648449056025,3.743860676396697,11,2,4,-0.4235208924786365,-0.32955416667588566,0.12817117439981845,130,250398.99999999997,74,87.0,0,0,0,0,0,0
1778025745.604637,7.285539865493774,0.030483943364920836,1.3803941192185232,2.655989851400564,0.018454273357459222,1.4130329762319036,2.6569995704137184,0,255,1.2029670007461615,-3.263885701338043,-0.10097190131541645,3.479982011611323,0,-1,-2,0.01677110294814476,-0.03352336283454209,0.001883223731309077,130,250401.00000000003,74,87.0,0,0,0,0,0,0
1778025745.675353,7.356256008148193,0.030483943364920836,1.3803941192185232,2.655989851400564,0.015387707408052039,1.3659491136968644,2.682415080733504,0,255,1.5096235956868798,1.4445005521658727,-2.6425229332939892,3.368749426544925,1,9,16,-0.043364440342753316,-0.6658149153458804,0.3594018192421522,130,250401.00000000003,74,87.0,0,0,0,0,0,0
1778025745.745564,7.426466941833496,0.030483943364920836,1.3803941192185232,2.655989851400564,0.037327070756121725,1.385416369014819,2.6658400154386745,0,255,-0.6843127391200888,-0.502224979629573,-0.9850164038110343,1.300296570349544,-8,-6,-8,0.3124778748336494,0.27726814466262456,-0.23607527239449333,130,250402.0,74,87.0,0,0,0,0,0,0
1778025745.81543,7.496332883834839,0.030483943364920836,1.3803941192185232,2.655989851400564,0.014667944902352101,1.3639853706527085,2.681662871546382,0,255,1.5815998462568734,1.6408748565814646,-2.5673020145817738,3.432924118403528,8,6,7,-0.32432291334931307,-0.30674457036160035,0.22647452613468363,130,250396.0,74,87.0,0,0,0,0,0,0
1778025745.885031,7.5659339427948,0.030483943364920836,1.3803941192185232,2.655989851400564,0.03610659472045683,1.3821028670860582,2.665139675007459,0,255,-0.5622651355535996,-0.17087478675350543,-0.914982360689498,1.087443329916594,-8,-6,-7,0.30802189131113134,0.26030489627711073,-0.23739863711596654,130,250396.0,74,87.0,0,0,0,0,0,0
1778025745.956434,7.63733696937561,0.030483943364920836,1.3803941192185232,2.655989851400564,0.01187494562641363,1.4047264061410347,2.656337021703147,0,255,1.8608997738507205,-2.433228692251155,-0.03471703025827999,3.063454766975005,9,-4,-10,-0.3393644535028074,0.31684285860589184,-0.1232812350657119,130,250401.00000000003,74,87.0,0,0,0,0,0,0
1778025746.029772,7.710675001144409,0.030483943364920836,1.3803941192185232,2.655989851400564,0.032793454597074514,1.3787898761573207,2.6652348722535044,0,255,-0.23095112321536784,0.16042430612024372,-0.9245020852940211,0.9663221435016354,-7,2,7,0.28523412022574246,-0.3536572956509109,0.12132655234610402,130,250394.0,74,87.0,0,0,0,0,0,0
1778025746.101485,7.782387971878052,0.030483943364920836,1.3803941192185232,2.655989851400564,0.03224006826263938,1.376984016170646,2.664527155415586,0,255,-0.1756124897718543,0.34101030478772554,-0.8537304015021618,0.9359398340621738,0,0,0,-0.007716684008120809,-0.025181776297933202,-0.009868742441966399,130,250394.0,74,87.0,0,0,0,0,0,0
1778025746.172343,7.853245973587036,0.030483943364920836,1.3803941192185232,2.655989851400564,0.005517642439857024,1.3958852984543708,2.647911913917448,0,255,2.4966300925063813,-1.549117923584764,0.8077937483116138,3.047205096443513,10,-7,-8,-0.3771264384865388,0.266748734481011,-0.23448645315143063,130,250394.0,74,87.0,0,0,0,0,0,0
1778025746.242917,7.9238200187683105,0.030483943364920836,1.3803941192185232,2.655989851400564,0.008046712130215307,1.3976427312372302,2.655514783919246,0,255,2.2437231234705526,-1.7248612018706977,0.04750674813180922,2.8304940402045258,0,1,-2,0.03583569120718798,0.024901970382245286,0.10772898141617838,130,250381.0,74,87.0,0,0,0,0,0,0
1778025746.314618,7.995521068572998,0.030483943364920836,1.3803941192185232,2.655989851400564,0.03208404375416325,1.4143290923235337,2.638594459736816,0,255,-0.16001003892424162,-3.393497310501048,1.739539166374815,3.816729453378425,-8,-8,-9,0.3352437891694089,0.23272129392466193,-0.23598432977649209,130,250403.00000000003,74,87.0,0,0,0,0,0,0
1778025746.385476,8.066379070281982,0.030483943364920836,1.3803941192185232,2.655989851400564,0.0017279916083653875,1.39110525360383,2.6472054530033184,0,255,2.875595175655545,-1.0711134385306798,0.8784398397245763,3.191862804769309,12,1,6,-0.42840683357782156,-0.32775181573825046,0.12152464166104988,130,250403.00000000003,74,87.0,0,0,0,0,0,0
1778025746.456788,8.137691020965576,0.030483943364920836,1.3803941192185232,2.655989851400564,0.0025195750125053262,1.3444817866227505,2.6725086767894597,0,255,2.796436835241551,3.5912332595772645,-1.6518825388895486,4.8420792249278515,1,8,17,0.011100290996836423,-0.6537959841814533,0.3548244514921478,130,250400.0,74,87.5,0,0,0,0,0,0
1778025746.5277581,8.208661079406738,0.030483943364920836,1.3803941192185232,2.655989851400564,0.02541636017682495,1.3635926116348867,2.655451548365388,0,255,0.5067583188095887,1.6801507583636521,0.0538303035176213,1.7557358189914207,-8,-7,-6,0.3226259871732,0.26928010814560616,-0.24034260079147252,130,250392.0,74,87.5,0,0,0,0,0,0
1778025746.59842,8.279322862625122,0.030483943364920836,1.3803941192185232,2.655989851400564,0.0016923305972017383,1.3819264003071172,2.6389243306673333,0,255,2.8791612767719097,-0.15322810885940452,1.7065520733230866,3.3504281054770906,9,-7,-7,-0.33574060120026844,0.259458335711244,-0.2338918853346293,130,250392.0,74,87.5,0,0,0,0,0,0
1778025746.669775,8.350677967071533,0.030483943364920836,1.3803941192185232,2.655989851400564,0.025033923384995372,1.312974072914038,2.6801449713077097,0,255,0.5450019979925464,6.742004630448517,-2.4155119907145473,7.182363941773688,-8,14,28,0.3271187530154,-0.9663264867738167,0.577683137880258,130,250394.0,74,87.5,0,0,0,0,0,0
1778025746.739297,8.420199871063232,0.030483943364920836,1.3803941192185232,2.655989851400564,0.0005361930460941397,1.3803778795225976,2.6381619472464837,0,255,2.9947750318826696,0.0016239695925568398,1.7827904154080532,3.4852577801557096,10,-17,-25,-0.35237427245701175,0.969533380682547,-0.6038819659806598,130,250396.99999999997,74,87.5,0,0,0,0,0,0
1778025746.809901,8.490803956985474,0.030483943364920836,1.3803941192185232,2.655989851400564,-1.076264260429019e-05,1.376033835020733,2.6298546539868752,0,255,3.0494706007525125,0.43602841977901097,2.613519741368897,4.039786772372253,1,-5,0,-0.007746799375050498,-0.06152681456210327,-0.11766023383912308,130,250394.0,74,87.5,0,0,0,0,0,0
1778025746.879606,8.560508966445923,0.030483943364920836,1.3803941192185232,2.655989851400564,-0.0032673667985537273,1.3314288585470955,2.6550007976689827,0,255,3.375131016347456,4.89652606714277,0.09890537315815351,5.947878544200345,2,7,18,-0.04671980078845326,-0.6399106293636838,0.36075088256569876,130,250390.0,74,87.5,0,0,0,0,0,0
1778025746.9491909,8.630093812942505,0.030483943364920836,1.3803941192185232,2.655989851400564,-0.0032673667985537273,1.3314288585470955,2.6550007976689827,0,255,3.375131016347456,4.89652606714277,0.09890537315815351,5.947878544200345,1,-1,2,0.0,0.0,0.0,130,250390.0,74,87.5,0,0,0,0,0,0
1778025747.018754,8.699656963348389,0.030483943364920836,1.3803941192185232,2.655989851400564,0.0179297855346852,1.3045146321533259,2.6641848345946695,0,255,1.2554157830235637,7.5879487065197315,-0.8194983194105276,7.7346371509306,-7,2,14,0.3047181188540022,-0.38690350044142274,0.1320244536381723,130,250394.0,74,87.5,0,0,0,0,0,0
1778025747.0891032,8.77000617980957,0.030483943364920836,1.3803941192185232,2.655989851400564,-0.029104650036437186,1.3519832338329003,2.637637077356085,0,255,5.9588593401358025,2.8410885385622864,1.8352774044479325,6.851863386754791,19,-11,-15,-0.6685850665739221,0.6747566507121995,-0.3773710436879354,130,250388.0,74,87.5,0,0,0,0,0,0
1778025747.1621811,8.84308409690857,0.030483943364920836,1.3803941192185232,2.655989851400564,0.01908886857127736,1.3491305907067561,2.6382906085466993,0,255,1.1395074793643476,3.126352851176706,1.7699242853864927,3.7689775034601745,-16,-1,2,0.659481284098814,-0.039035638115953744,0.00894293675241258,130,250388.0,74,87.5,0,0,0,0,0,0
1778025747.232176,8.913079023361206,0.030483943364920836,1.3803941192185232,2.655989851400564,0.01908886857127736,1.3491305907067561,2.6382906085466993,0,255,1.1395074793643476,3.126352851176706,1.7699242853864927,3.7689775034601745,0,-2,1,0.0,0.0,0.0,130,250398.0,74,87.5,0,0,0,0,0,0
1778025747.303982,8.984884977340698,0.030483943364920836,1.3803941192185232,2.655989851400564,-0.005372506927945532,1.3247930636444676,2.646490609111909,0,255,3.5856450292866366,5.560105557405559,0.9499242288655285,6.683859672833199,10,1,11,-0.34065943203274024,-0.3389346664656714,0.11419666630362665,130,250389.0,74,87.5,0,0,0,0,0,0
1778025747.375059,9.055961847305298,0.030483943364920836,1.3803941192185232,2.655989851400564,0.01941827845818469,1.3445811407741473,2.630778770558596,0,255,1.1065664906736148,3.581297844437592,2.5211080841968325,4.517318853153681,-8,-8,-5,0.3487883667144806,0.2784038905980986,-0.22105417080322254,130,250394.0,74,87.0,0,0,0,0,0,0
1778025747.445696,9.126599073410034,0.030483943364920836,1.3803941192185232,2.655989851400564,-0.0060442951394086356,1.3235107603250906,2.646460654645092,0,255,3.6528238504329473,5.6883358893432545,0.9529196755472036,6.827030333924647,11,3,10,-0.36046961356946633,-0.29829003219654776,0.2220059443337172,130,250394.0,74,87.0,0,0,0,0,0,0
1778025747.517662,9.198565006256104,0.030483943364920836,1.3803941192185232,2.655989851400564,-0.008996716684620328,1.3234491692642298,2.647244536294817,0,255,3.9480660049541165,5.694494995429333,0.8745315105747054,6.984218195004517,3,-1,3,-0.04102526610093054,-0.0008558363440174926,0.010892398927165392,120,250398.0,74,87.0,0,0,0,0,0,0
1778025747.588704,9.269607067108154,0.030483943364920836,1.3803941192185232,2.655989851400564,-0.03433604777132459,1.3026161721676432,2.6621989542132134,0,255,6.481999113624543,7.7777947050879925,-0.6209102812649192,10.14376323466319,12,4,12,-0.356680687226612,-0.2932487718785709,0.21050090240962588,120,250398.0,74,87.0,0,0,0,0,0,0
1778025747.6606421,9.341545104980469,0.030483943364920836,1.3803941192185232,2.655989851400564,0.017426050151108326,1.3410747155728582,2.631457348238315,0,255,1.305789321381251,3.9319403645664996,2.453250316224942,4.814943187245143,-17,-13,-10,0.7195372497413318,0.5346065105845179,-0.42733450736400475,120,250398.0,74,87.0,0,0,0,0,0,0
1778025747.732221,9.413123846054077,0.030483943364920836,1.3803941192185232,2.655989851400564,-0.007894470689800169,1.3168625396033016,2.6393135666081995,0,255,3.8378414054721004,6.35315796152216,1.6676284792364715,7.607406094219568,11,0,12,-0.35374359008172546,-0.33825931563476197,0.10975630825646568,120,250396.99999999997,74,87.0,0,0,0,0,0,0
1778025747.801884,9.482786893844604,0.030483943364920836,1.3803941192185232,2.655989851400564,0.0451558374585667,1.3182979851931207,2.6479912203506695,0,255,-1.4671894093645867,6.209613402540248,0.7998631049894733,6.430530643631402,-20,1,3,0.76152723475272,0.020605552518107122,0.1245660937569538,120,250394.99999999997,74,87.0,0,0,0,0,0,0
1778025747.871854,9.552757024765015,0.030483943364920836,1.3803941192185232,2.655989851400564,-0.007963001967156678,1.31986842002752,2.6484228835517736,0,255,3.8446945332077513,6.052569919100326,0.7566967848790629,7.210261347796071,21,-1,3,-0.7591644995797587,0.022444360382654835,0.006169249584442167,120,250394.99999999997,74,87.0,0,0,0,0,0,0
1778025747.943197,9.624099969863892,0.030483943364920836,1.3803941192185232,2.655989851400564,0.02043824805163856,1.33816825303933,2.632480988834771,0,255,1.0045695313282275,4.222586617919322,2.35088625657931,4.936199335569607,-9,-8,-3,0.3980947237240185,0.256505152491919,-0.22345439615519067,120,250398.0,74,87.0,0,0,0,0,0,0
1778025748.013502,9.69440484046936,0.030483943364920836,1.3803941192185232,2.655989851400564,-0.0017497695918159868,1.362061334333334,2.624214045291616,0,255,3.2233712956736826,1.833278488518908,3.1775806108948146,4.883446637875126,9,-6,-7,-0.3155971620795306,0.33984958777728813,-0.11758706718268241,120,250398.0,74,87.0,0,0,0,0,0,0
1778025748.0841658,9.765068769454956,0.030483943364920836,1.3803941192185232,2.655989851400564,0.020612541715116683,1.3409578912909148,2.6405880228686835,0,255,0.9871401649804153,3.943622792760837,1.5401828531880657,4.3472715187982995,-7,3,9,0.3164600614196113,-0.2986451977036412,0.2317162067284031,120,250389.0,74,87.0,0,0,0,0,0,0
1778025748.15446,9.835362911224365,0.030483943364920836,1.3803941192185232,2.655989851400564,-0.006293735528819112,1.3175437026218528,2.6496612412698424,0,255,3.677767889373995,6.285041659667034,0.6328610130721835,7.30946224928533,11,1,12,-0.3827669926207841,-0.3330887621598566,0.12907502919549596,120,250389.0,74,87.0,0,0,0,0,0,0
1778025748.226339,9.907242059707642,0.030483943364920836,1.3803941192185232,2.655989851400564,0.021772184334096247,1.3404618056445665,2.641198681296897,0,255,0.8711759030824588,3.9932313573956657,1.4791170103667373,4.3465654554091095,-9,-5,-5,0.39045982673883883,0.31884216085344813,-0.11773316951458411,120,250391.0,74,87.0,0,0,0,0,0,0
1778025748.297717,9.978620052337646,0.030483943364920836,1.3803941192185232,2.655989851400564,-0.0031533679349652656,1.3655874216322679,2.6329485457005646,0,255,3.3637311299886106,1.4806697586255302,2.3041305699999626,4.337751460442495,10,-5,-8,-0.3492050049413082,0.3520078817282317,-0.11558374356501834,120,250403.00000000003,74,87.0,0,0,0,0,0,0
1778025748.368186,10.049088954925537,0.030483943364920836,1.3803941192185232,2.655989851400564,0.022849784862884494,1.3447422643655025,2.6495613334491046,0,255,0.7634158502036341,3.5651854853020692,0.64285179514596,3.7022438784435945,-8,4,9,0.36900181275588845,-0.29580646925453075,0.23574636667315954,120,250403.00000000003,74,87.0,0,0,0,0,0,0
1778025748.439403,10.120306015014648,0.030483943364920836,1.3803941192185232,2.655989851400564,0.02206511814911466,1.3437120797000315,2.6502974254203093,0,255,0.8418825215806176,3.6682039518491694,0.5692425980254878,3.8063793226518565,0,-1,2,-0.011017959921232492,-0.014465419720808026,0.010335893819313473,120,250384.0,73,86.0,0,0,0,0,0,0
1778025748.5100951,10.190998077392578,0.030483943364920836,1.3803941192185232,2.655989851400564,0.02401479503149439,1.3442405633985985,2.6501840337056746,0,255,0.6469148333426447,3.615355581992463,0.5805817694889637,3.718382709849235,0,-1,2,0.027579855740471722,0.007475856281313644,-0.0016040232922976624,120,250390.0,73,86.0,0,0,0,0,0,0
1778025748.579226,10.26012897491455,0.030483943364920836,1.3803941192185232,2.655989851400564,0.027408797514298165,1.3474243605374574,2.6585427921198295,0,255,0.3075145850622671,3.2969758681065775,-0.2552940719265262,3.321112789121135,0,1,1,0.04909530476911604,0.046054618889432394,0.12091204821256862,120,250390.0,73,86.0,0,0,0,0,0,0
1778025748.65028,10.331182956695557,0.030483943364920836,1.3803941192185232,2.655989851400564,0.023429985998523292,1.2963026701892026,2.6760166655889046,0,255,0.7053957366397544,8.409144902932052,-2.0026814188340403,8.673063703739341,1,6,23,-0.055997023897096904,-0.7194767846482686,0.2459239163109963,120,250396.0,73,86.0,0,0,0,0,0,0
1778025748.7214458,10.402348756790161,0.030483943364920836,1.3803941192185232,2.655989851400564,0.02480691202810522,1.30035122300328,2.6846370053761244,0,255,0.5677031336815617,8.004289621524308,-2.864715397556017,8.52041862247555,0,3,4,0.019348142334541404,0.0568890226582923,0.12113037127047387,120,250387.0,73,86.0,0,0,0,0,0,0
1778025748.8056161,10.48651909828186,0.030483943364920836,1.3803941192185232,2.655989851400564,0.02601542610919496,1.3477672583999354,2.6590736199742304,0,255,0.4468517255725876,3.262686081858779,-0.30837685736662124,3.3075509398286678,0,-8,-11,0.014357956254804101,0.5633342404976627,-0.3037101305382608,120,250391.0,73,86.0,0,0,0,0,0,0
1778025748.876332,10.5572350025177,0.030483943364920836,1.3803941192185232,2.655989851400564,0.05450345922671111,1.277245287288833,2.7015858397040367,0,255,-2.4019515861790275,10.314883192969027,-4.559598830347245,11.53066035405808,-11,16,30,0.4028518538419255,-0.9972575741364971,0.6011691456002117,120,250391.0,73,86.0,0,0,0,0,0,0
1778025748.946749,10.627651929855347,0.030483943364920836,1.3803941192185232,2.655989851400564,0.05450345922671111,1.277245287288833,2.7015858397040367,0,255,-2.4019515861790275,10.314883192969027,-4.559598830347245,11.53066035405808,-1,1,7,0.0,0.0,0.0,120,250394.99999999997,73,86.0,0,0,0,0,0,0
1778025749.0175822,10.698485136032104,0.030483943364920836,1.3803941192185232,2.655989851400564,0.05376137250446188,1.3725981739271678,2.6506313302863056,0,255,-2.327742913954104,0.7795945291355411,0.5358521114258608,2.512626551766331,-1,-19,-30,-0.01047653723872707,1.3461608161628378,-0.7193590713736537,120,250384.0,73,86.0,0,0,0,0,0,0
1778025749.0890298,10.769932746887207,0.030483943364920836,1.3803941192185232,2.655989851400564,0.02702618347138893,1.3523284171020025,2.6683147503605555,0,255,0.3457759893531906,2.8065702116520708,-1.2324898959991337,3.0847088568430383,9,5,9,-0.37419290460660115,-0.2837009744982635,0.24750190891774315,120,250384.0,73,86.0,0,0,0,0,0,0
1778025749.160901,10.841804027557373,0.030483943364920836,1.3803941192185232,2.655989851400564,0.05587861673709406,1.3321860682675921,2.684458316646829,0,255,-2.539467337217322,4.820805095093106,-2.8468465246264785,6.147649246374352,-11,6,10,0.40144593218139024,-0.2802558775437475,0.22461776297489422,120,250391.0,73,86.0,0,0,0,0,0,0
1778025749.231999,10.912901878356934,0.030483943364920836,1.3803941192185232,2.655989851400564,0.009734389955930511,1.422102469371291,2.63382911967567,0,255,2.0749553408990327,-4.170835015276775,2.216073172489441,5.158709596130766,17,-20,-30,-0.6490242146876367,1.2646852203337569,-0.7121058710184265,120,250385.0,73,86.0,0,0,0,0,0,0
1778025749.300818,10.981720924377441,0.030483943364920836,1.3803941192185232,2.655989851400564,0.034623628679912595,1.3598901085168702,2.676706770299927,0,255,-0.4139685314991759,2.0504010701652975,-2.0716918899363,2.9440485356791286,-9,15,24,0.3616620712319259,-0.9039991754009737,0.6230491862889241,120,250385.0,73,86.0,0,0,0,0,0,0
1778025749.372176,11.053078889846802,0.030483943364920836,1.3803941192185232,2.655989851400564,0.034623628679912595,1.3598901085168702,2.676706770299927,0,255,-0.4139685314991759,2.0504010701652975,-2.0716918899363,2.9440485356791286,0,0,1,0.0,0.0,0.0,120,250386.0,73,86.0,0,0,0,0,0,0
1778025749.4436412,11.124544143676758,0.030483943364920836,1.3803941192185232,2.655989851400564,0.03200655061831635,1.3607620407006351,2.6766138265879738,0,255,-0.1522607253395515,1.9632078517888063,-2.062397518740955,2.85146487320377,0,0,1,-0.03662028638173317,0.012200784815507428,-0.0013005440682349254,120,250401.00000000003,73,86.5,0,0,0,0,0,0
1778025749.514912,11.195814847946167,0.030483943364920836,1.3803941192185232,2.655989851400564,0.058969246246261514,1.3395251801595403,2.693676037568286,0,255,-2.848530288134068,4.086893905898292,-3.7686186167722013,6.246544074859936,-11,7,10,0.3783138654842519,-0.29797461325508673,0.23940006143079337,120,250396.99999999997,73,86.5,0,0,0,0,0,0
1778025749.585551,11.266453981399536,0.030483943364920836,1.3803941192185232,2.655989851400564,0.03314653170163692,1.3652111661932533,2.685199579722382,0,255,-0.26625883367160863,1.518295302526984,-2.9209728321817785,3.3027559217307765,8,-2,-7,-0.36555820098884545,0.3636226094232755,-0.11999662837738198,120,250396.99999999997,73,86.5,0,0,0,0,0,0
1778025749.6554399,11.336342811584473,0.030483943364920836,1.3803941192185232,2.655989851400564,0.06341030082263255,1.2906242115248716,2.719370974475714,0,255,-3.2926357457711712,8.976990769365155,-6.338112307514976,11.47168170105282,-12,14,30,0.4330272668881861,-1.0672228233183076,0.4889392863338711,120,250396.99999999997,73,86.5,0,0,0,0,0,0
1778025749.725601,11.406503915786743,0.030483943364920836,1.3803941192185232,2.655989851400564,0.03307398427506772,1.3654568784034966,2.685966406800125,0,255,-0.25900409101468835,1.4937240815026565,-2.997655539956101,3.35920131683899,10,-11,-25,-0.43238083112413594,1.0665833687977122,-0.47611234252079704,120,250396.99999999997,73,86.5,0,0,0,0,0,0
1778025749.797965,11.478868007659912,0.030483943364920836,1.3803941192185232,2.655989851400564,0.06161291639029397,1.3440211517713907,2.70218285134499,0,255,-3.1128973025373132,3.6372967447132476,-4.619299994442594,6.652667860633282,-11,7,10,0.39437974520907204,-0.2962204883283254,0.2240951848506184,120,250396.99999999997,73,86.5,0,0,0,0,0,0
1778025749.868596,11.549499034881592,0.030483943364920836,1.3803941192185232,2.655989851400564,0.06161291639029397,1.3440211517713907,2.70218285134499,0,255,-3.1128973025373132,3.6372967447132476,-4.619299994442594,6.652667860633282,-1,1,2,0.0,0.0,0.0,130,250387.0,73,86.5,0,0,0,0,0,0
1778025749.939035,11.619937896728516,0.030483943364920836,1.3803941192185232,2.655989851400564,0.009440101294564867,1.3910434610387192,2.6766681849884377,0,255,2.104384207035597,-1.0649341820196057,-2.067833358787352,3.1366307564914915,19,-8,-17,-0.7406822558988801,0.6675620252001853,-0.36222428482732055,130,250394.99999999997,73,86.5,0,0,0,0,0,0
1778025750.009452,11.690355062484741,0.030483943364920836,1.3803941192185232,2.655989851400564,0.03404576916921387,1.3693522791633326,2.6936945204707428,0,255,-0.3561825804293033,1.10418400551906,-3.7704669070178554,3.944934605993132,-9,7,8,0.34942712633209916,-0.3080382693969607,0.24179239961528462,130,250394.99999999997,73,86.5,0,0,0,0,0,0
1778025750.079285,11.760187864303589,0.030483943364920836,1.3803941192185232,2.655989851400564,0.035333338562664594,1.3220462707112803,2.7205877688936133,0,255,-0.4849395197743758,5.834784850724284,-6.459791749304911,8.718302015671883,0,12,21,0.018437888211771773,-0.6774181648155566,0.38510911380348123,130,250390.0,73,86.5,0,0,0,0,0,0
1778025750.1506681,11.831571102142334,0.030483943364920836,1.3803941192185232,2.655989851400564,0.01064521951079018,1.349264449405565,2.7114714229057197,0,255,1.9838723854130658,3.112966981295817,-5.548157150515554,6.66395984644711,9,0,-6,-0.3458531694463752,0.3812964992673853,-0.1277098975040529,130,250389.0,73,86.5,0,0,0,0,0,0
1778025750.222004,11.902906894683838,0.030483943364920836,1.3803941192185232,2.655989851400564,0.03520889611962867,1.3738814589935422,2.7023909025724278,0,255,-0.4724952754707835,0.6512660224980982,-4.640105117186355,4.70934971263992,-8,-1,-7,0.34433873562906153,0.3450863684405659,-0.1272926256200048,130,250389.0,73,86.5,0,0,0,0,0,0
1778025750.2936718,11.97457480430603,0.030483943364920836,1.3803941192185232,2.655989851400564,0.06299927859492852,1.296608619177114,2.737083849193877,0,255,-3.251533523000768,8.378550004140916,-8.109399779331294,12.105161510864114,-11,16,30,0.38776605347917653,-1.0782069719039244,0.4840792316161894,130,250392.0,73,86.5,0,0,0,0,0,0
1778025750.3649569,12.045859813690186,0.030483943364920836,1.3803941192185232,2.655989851400564,0.03520889611962867,1.3738814589935422,2.7023909025724278,0,255,-0.4724952754707835,0.6512660224980982,-4.640105117186355,4.70934971263992,9,-10,-26,-0.3898488997250086,1.0839984519045858,-0.48667941438415097,130,250391.0,73,86.5,0,0,0,0,0,0
1778025750.435106,12.116008996963501,0.030483943364920836,1.3803941192185232,2.655989851400564,0.03439557048502438,1.372813655268037,2.7031665695727347,0,255,-0.3911627120103546,0.7580463950486171,-4.717671817217051,4.794170416169781,0,2,1,-0.011594228138557337,-0.015221898184399526,0.011057391748736415,130,250394.99999999997,73,86.5,0,0,0,0,0,0
1778025750.505617,12.186519861221313,0.030483943364920836,1.3803941192185232,2.655989851400564,0.06330035100740697,1.3511501225309726,2.7195648481020886,0,255,-3.281640764248613,2.924399668755062,-6.357499670152444,7.729106130994798,-12,8,10,0.40993371484848845,-0.3072368062013105,0.2325638566759878,130,250394.99999999997,73,86.5,0,0,0,0,0,0
1778025750.576428,12.257330894470215,0.030483943364920836,1.3803941192185232,2.655989851400564,0.06876612113067204,1.3000237504725152,2.7457950798862707,0,255,-3.8282177765751206,8.037036874600801,-8.980522848570649,12.64511778127346,-4,13,24,0.07718811423147642,-0.7220113831519414,0.3704257737912475,130,250396.99999999997,73,86.5,0,0,0,0,0,0
1778025750.648016,12.328918933868408,0.030483943364920836,1.3803941192185232,2.655989851400564,0.035364775989910266,1.3767641022103105,2.7109956145533087,0,255,-0.48808326249894296,0.3630017008212638,-5.5005763152744525,5.534106549940019,11,-9,-25,-0.4665771743653132,1.0719716922395843,-0.4861072551435203,130,250394.0,73,86.5,0,0,0,0,0,0
1778025750.719281,12.400183916091919,0.030483943364920836,1.3803941192185232,2.655989851400564,0.0667892797922258,1.3484416899759255,2.720172745692555,0,255,-3.630533642730497,3.195242924259767,-6.418289429199087,8.03646632998601,-13,6,12,0.4409529452172993,-0.3974239710824105,0.12877476220317854,130,250394.0,73,86.5,0,0,0,0,0,0
1778025750.791163,12.472065925598145,0.030483943364920836,1.3803941192185232,2.655989851400564,0.06312194016981573,1.347895717743237,2.720265700653726,0,255,-3.2637996804894898,3.2498401475286265,-6.427584925316188,7.9074456881476,0,3,3,-0.05101888007307936,-0.007595394681353622,0.0012931603026896377,130,250391.0,73,86.5,0,0,0,0,0,0
