timestamp,elapsed,master_age_s,master_seq,master_pos_x,master_pos_y,master_pos_z,master_state,pos_x,pos_y,pos_z,marker_id,received_count,crc_errors,target_x,target_y,target_z,err_x_cm,err_y_cm,err_z_cm,err_3d_cm,cmd_lr,cmd_fb,cmd_ud,feedback,tello_height_cm,tello_baro_cm,tello_battery,tello_temp_c,tello_pitch,tello_roll,tello_yaw,tello_vgx,tello_vgy,tello_vgz
1778078547.1670403,1.239776611328125e-05,0.0013654232025146484,1055,0.023002542555332184,1.2938387393951416,2.9485023021698,3,1.9006527683093037,1.3595965844902922,3.0403647728506327,4,1056,0,1.0230025425553322,1.2938387393951416,2.9485023021698,-87.76502257539715,-6.575784509515059,-9.186247068083286,88.48913642233954,-30,30,-30,ok,130,247980.00000000003,78,69.0,0,0,-6,0,0,0
1778078547.236794,0.06976604461669922,0.01122736930847168,1058,-0.017303651198744774,1.2653539180755615,2.96817684173584,3,1.9102539462487385,1.4790629696715176,2.977468359907822,4,1059,0,1.0028494456782937,1.2795963287353516,2.95833957195282,-90.74045005704447,-19.946664093616604,-1.912878795500239,92.92662584160058,-30,-28,-30,ok,130,247992.0,78,69.0,0,0,-5,0,0,0
1778078547.2955801,0.12855219841003418,0.010016202926635742,1061,-0.009192989207804203,1.391510009765625,2.906475067138672,3,1.972107343986401,1.4766821393416132,2.980048538403373,4,1062,0,0.998835300716261,1.3169008890787761,2.941051403681437,-97.32720432701399,-15.978125026283706,-3.8997134721936,98.70710686993664,-30,10,4,ok,130,247992.0,78,69.0,0,0,-5,0,0,0
1778078547.3574896,0.1904616355895996,-0.008083581924438477,1065,-0.01765952818095684,1.2673710584640503,2.9675283432006836,3,1.9390939109047556,1.4460991786681547,2.9902719374882,4,1066,0,0.9947115934919566,1.3045184314250946,2.947670638561249,-94.43823174127989,-14.158074724306013,-4.260129892695108,95.58859451326478,-30,3,-3,ok,130,247980.00000000003,78,69.0,0,0,-5,0,0,0
1778078547.42602,0.25899195671081543,0.0002911090850830078,1068,0.02145223692059517,1.3015738725662231,2.957728624343872,3,1.940207578088676,1.4473297531077134,2.9900782286287075,4,1069,0,1.0000597221776844,1.3039295196533203,2.9496822357177734,-94.01478559109917,-14.340023345439313,-4.03959929109341,95.18789073049521,-30,1,-11,ok,130,247980.00000000003,78,69.0,0,0,-5,0,0,0
1778078547.4926422,0.32561421394348145,0.0068111419677734375,1071,0.02145223692059517,1.3015738725662231,2.957728624343872,3,1.9388117757644021,1.3872138585187908,3.0226311095180254,4,1072,0,1.0036251413015027,1.3035369118054707,2.95102330048879,-93.51866344628993,-8.367694671332004,-7.160780902923536,94.1649377955126,-30,16,16,ok,130,247984.0,78,69.0,0,-1,-5,0,0,0
1778078547.5569665,0.3899385929107666,0.011296987533569336,1074,-0.014484018087387085,1.2723698616027832,2.976531982421875,3,1.938553194646111,1.384529572486833,3.0238805857903945,4,1075,0,1.0010381185316615,1.2990844760622298,2.954667397907802,-93.75150761144495,-8.54450964246032,-6.921318788259256,94.39416548822088,-30,3,-7,ok,130,247990.0,78,68.5,0,-2,-6,0,0,0
1778078547.6161792,0.44915127754211426,0.00947713851928711,1077,0.019894422963261604,1.2331688404083252,2.9879164695739746,3,1.9398954348045252,1.4369499538266495,2.9840189981806944,4,1078,0,1.0033951565856114,1.2908450216054916,2.9588235318660736,-93.65002782189138,-14.610493222115783,-2.5195466314620774,94.81636113278464,-30,-15,-30,ok,130,247990.0,78,68.5,0,-2,-6,0,0,0
1778078547.6798785,0.5128505229949951,0.013677120208740234,1080,-0.014160417020320892,1.3387582302093506,2.945704936981201,3,1.9012735476362437,1.3475334358102842,3.0349241930984774,4,1081,0,0.9987497866386548,1.2964599579572678,2.958473861217499,-90.25237609975889,-5.107347785301641,-7.645033188097861,90.71947379421617,-30,26,30,ok,130,247988.0,78,68.5,0,-3,-6,0,-1,0
1778078547.7393062,0.5722782611846924,0.013331413269042969,1083,0.020993156358599663,1.3034833669662476,2.9571073055267334,3,1.8915940731160035,1.3372175759307647,3.027494100749481,4,1084,0,1.0035368875833228,1.3012261390686035,2.9570901691913605,-88.80571855326806,-3.599143686216122,-7.040393155812064,89.15703347927573,-30,1,3,ok,130,247988.0,78,68.5,0,-3,-6,0,-1,0
1778078547.7976928,0.6306648254394531,-0.008154630661010742,1087,-0.013383951038122177,1.339977741241455,2.945739269256592,3,1.8936617105522466,1.3362660888032512,3.0405343641403606,4,1088,0,1.003013017354533,1.2947846055030823,2.9619981944561005,-89.06486931977136,-4.1481483300168875,-7.853616968426014,89.50663316761792,-30,8,-5,ok,130,247985.0,78,68.5,0,-3,-6,0,-1,0
1778078547.8641841,0.6971561908721924,-0.0014951229095458984,1090,0.024089287966489792,1.3683898448944092,2.9254777431488037,3,1.8918946536573957,1.3955371280264708,3.0136182802621314,4,1091,0,1.008231619372964,1.3074119538068771,2.9567418694496155,-88.36630342844319,-8.812517421959365,-5.687641081251593,88.98659059650036,-30,-4,-24,ok,130,247987.0,78,68.5,0,-3,-6,0,-2,0
1778078547.9311616,0.7641336917877197,0.0053064823150634766,1093,-0.011265367269515991,1.3423771858215332,2.9449944496154785,3,1.8939745189510342,1.3927230789746265,3.0153036541578033,4,1094,0,1.0041419188492,1.312512367963791,2.9551500976085663,-88.98326001018341,-8.021071101083566,-6.015355654923704,89.54631565454699,-30,5,-3,ok,130,247987.0,78,68.5,0,-3,-6,0,-2,0
1778078548.0001147,0.8330867290496826,-0.0062520503997802734,1097,0.02205723151564598,1.3108949661254883,2.9658796787261963,3,1.8797996323271469,1.3114061422923422,3.045690088651674,4,1098,0,1.0042175431735814,1.313677504658699,2.956168979406357,-87.55820891535654,0.22713623663568328,-8.95211092453172,88.0149523055051,-30,17,30,ok,130,247988.0,77,68.5,0,-2,-6,0,-2,0
1778078548.0645533,0.8975253105163574,-0.0016758441925048828,1100,0.017803028225898743,1.3076214790344238,2.9563536643981934,3,1.8868073150891564,1.4308090550488588,2.989453569885975,4,1101,0,1.008253423962742,1.3180839568376541,2.9536466896533966,-87.85538911264143,-11.272509821120469,-3.5806880232578386,88.64795655016981,-30,-17,-30,ok,130,247982.00000000003,77,68.5,0,-2,-6,0,-2,0
1778078548.130127,0.9630990028381348,0.004221200942993164,1103,0.02111142687499523,1.3694777488708496,2.925048589706421,3,1.8759027916232884,1.364040908748336,3.0281006822070506,4,1104,0,1.0084055494517088,1.3351225703954697,2.9457882046699524,-86.74972421715796,-2.891833835286639,-8.231247753709825,87.1873316157045,-30,22,27,ok,130,247982.00000000003,77,68.5,0,-2,-6,0,-2,0
1778078548.2003174,1.0332894325256348,-0.005615949630737305,1107,0.01967110112309456,1.3081823587417603,2.95478892326355,3,1.8250029002851806,1.3243213672974243,3.042050451702625,4,1108,0,1.0126344892196357,1.3313005864620209,2.946923702955246,-81.2368411065545,0.697921916459654,-9.51267487473788,81.79488022636579,-30,10,12,ok,130,247979.0,77,68.5,0,-2,-5,0,-3,0
1778078548.2689593,1.1019313335418701,0.002790689468383789,1110,-0.009947594255208969,1.399419903755188,2.904050827026367,3,1.7664836270935615,1.2856378070349403,3.0643265786471527,4,1111,0,1.0087668953929096,1.3432926535606384,2.9402916431427,-75.77167317006518,5.765484652569808,-12.403493550445255,76.99632407151742,-30,18,22,ok,130,247969.99999999997,77,68.5,0,-2,-5,0,-3,0
1778078548.335269,1.168241024017334,-0.011021137237548828,1114,0.0206346083432436,1.371237874031067,2.9244585037231445,3,1.8037791336325588,1.3972695509771542,2.9932206364245966,2,1115,0,1.0130192153155804,1.34720017015934,2.9376315474510193,-79.07599183169785,-5.006938081781431,-5.558908897357728,79.42910915559018,-30,-21,-30,ok,130,247969.99999999997,77,68.5,0,-2,-5,0,-3,0
1778078548.4027507,1.2357227802276611,-0.0035920143127441406,1117,0.019485153257846832,1.3092081546783447,2.9553027153015137,3,1.790772115206267,1.3565075218266367,3.0077428155288706,2,1118,0,1.012443698477,1.3398024588823318,2.941359668970108,-77.8328416729267,-1.670506294430485,-6.638314655876254,78.13327751754069,-30,8,10,ok,130,247975.0,77,68.5,0,-2,-5,0,-3,0
1778078548.4691374,1.3021094799041748,0.002608776092529297,1120,0.019485153257846832,1.3092081546783447,2.9553027153015137,3,1.7097947517018928,1.4424343094428158,2.9894927032388936,2,1121,0,1.0162875135429204,1.3356563299894333,2.9426482021808624,-69.35072381589724,-10.677797945338252,-4.684450105803117,70.32412342535159,-19,-3,-30,ok,130,247984.0,77,68.5,0,-2,-5,0,-3,0
1778078548.5341263,1.367098331451416,0.007307767868041992,1123,-0.011265367269515991,1.339229702949524,2.9343605041503906,3,1.6916329673983714,1.4139405813798684,3.0139815629067415,2,1124,0,1.012122188694775,1.3391981720924377,2.9387083053588867,-67.95107787035963,-7.47424092874307,-7.527325754785474,68.77407865048599,-30,16,6,ok,130,247984.0,77,68.5,0,-2,-5,0,-3,0
1778078548.5988257,1.431797742843628,0.012371540069580078,1126,-0.019314344972372055,1.2754385471343994,2.9650235176086426,3,1.6836537166335455,1.4469049918382013,2.987083756602218,2,1127,0,1.0074825170449913,1.3351753056049347,2.939792037010193,-67.61711995885543,-11.172968623326662,-4.729171959202505,68.69698106036242,-30,-8,-24,ok,130,247977.0,77,68.0,0,-2,-5,0,-3,0
1778078548.6585522,1.4915242195129395,-0.007855415344238281,1130,-0.019314344972372055,1.2754385471343994,2.9650235176086426,3,1.6657618147610544,1.4051376290998876,3.004066718003878,2,1131,0,1.0024292955640703,1.3234204053878784,2.9447889029979706,-66.33325191969841,-8.171722371200918,-5.927781500590745,67.09706364866427,-30,9,4,ok,130,247977.0,77,68.0,0,-2,-5,0,-3,0
1778078548.722783,1.5557551383972168,-0.0035011768341064453,1133,-0.01460570003837347,1.3455044031143188,2.9438939094543457,3,1.6494953083742845,1.3621800283691559,3.019927875437869,2,1134,0,0.9981446954188868,1.3280856609344482,2.94342702627182,-65.13506129553977,-3.4094367434707618,-7.650084916604882,65.67133520884676,-30,11,14,ok,130,247977.0,77,68.0,0,-1,-5,0,-3,0
1778078548.7892196,1.6221916675567627,0.0029892921447753906,1136,-0.01460570003837347,1.3455044031143188,2.9438939094543457,3,1.6430294720205925,1.366210355254057,3.03104394747926,2,1137,0,0.9975624321959913,1.3213462233543396,2.9484074115753174,-64.54670398246012,-4.4864131899717385,-8.263653590394249,65.2280067836855,-30,8,-8,ok,130,247977.0,77,68.0,0,-1,-5,0,-3,0
1778078548.8499684,1.6829404830932617,0.0034530162811279297,1139,-0.049516402184963226,1.3132526874542236,2.952674150466919,3,1.5884752375443922,1.4065811400638566,3.0069750537890845,2,1140,0,0.9887935558799654,1.3140980750322342,2.951934367418289,-59.96816816644268,-9.24830650316224,-5.504068637079529,60.9262434257756,-27,-7,-27,ok,130,247986.0,77,68.0,0,-1,-5,0,-4,0
1778078548.9084885,1.7414605617523193,0.002073526382446289,1142,-0.020128725096583366,1.2741007804870605,2.9649856090545654,3,1.5749033427730184,1.36897668393551,3.034999792332674,2,1143,0,0.9838418210856616,1.3097096532583237,2.9531447291374207,-59.10615216873567,-5.9267030677186305,-8.185506319525349,59.9638686806783,-30,15,7,ok,130,247986.0,77,68.0,0,-1,-5,0,-4,0
1778078548.9744804,1.8074524402618408,0.008028507232666016,1145,-0.020128725096583366,1.2741007804870605,2.9649856090545654,3,1.561222808102852,1.3621981744334983,3.024334717162158,2,1146,0,0.9788900862913579,1.3053212314844131,2.954355090856552,-58.23327218114942,-5.6876942949085185,-6.997962630560606,58.92737340400376,-30,0,-4,ok,130,247980.00000000003,77,68.0,0,-1,-5,0,-4,0
1778078549.037072,1.8700439929962158,0.010558366775512695,1148,0.01875758171081543,1.3078924417495728,2.955294609069824,3,1.4589689871359144,1.3863951809483614,3.0357271220525366,2,1149,0,0.9826429549138993,1.3014040738344193,2.9569718539714813,-47.63260322220151,-8.49911071139422,-7.875526808105526,49.021665568536186,0,9,-18,ok,130,247979.0,77,68.0,0,-1,-5,0,-4,0
1778078549.101602,1.9345741271972656,-0.004893302917480469,1152,0.01875758171081543,1.3078924417495728,2.955294609069824,3,1.462903992600278,1.4189792653857611,3.007260474942125,2,1153,0,0.9874019457492977,1.305460810661316,2.955755740404129,-47.55020468509803,-11.351845472444522,-5.1504734537995756,49.15703141996343,-30,-6,-20,ok,130,247979.0,77,68.0,0,-1,-5,0,-4,0
1778078549.1696863,2.0026583671569824,0.003264904022216797,1155,-0.01609078422188759,1.343016505241394,2.943826198577881,3,1.425541410397724,1.333700909181502,3.0561948343460696,2,1156,0,0.9878048908431083,1.3139080554246902,2.953106075525284,-43.77365195546157,-1.9792853756811724,-10.308875882078583,45.01469868907678,-24,26,30,ok,120,247973.0,77,68.0,0,-1,-5,0,-4,0
1778078549.2364306,2.0694026947021484,-0.010128498077392578,1159,-0.01609078422188759,1.343016505241394,2.943826198577881,3,1.409051738941886,1.3276142666746482,3.0586264179317713,2,1160,0,0.987619255320169,1.3135970681905746,2.9530976116657257,-42.14324836217169,-1.4017198484073567,-10.552880626604555,43.4670161222101,-30,8,0,ok,120,247978.00000000003,77,68.0,0,0,-5,0,-4,0
1778078549.3034685,2.1364405155181885,-0.0034024715423583984,1162,-0.019231311976909637,1.3440420627593994,2.9434726238250732,3,1.4156996658889045,1.358149471080743,3.022326320266615,2,1163,0,0.987041053827852,1.3134142756462097,2.9530449509620667,-42.86586120610525,-4.473519543453319,-6.928136930454842,43.65195889503551,-30,-9,-17,ok,120,247978.00000000003,77,68.0,0,0,-5,0,-4,0
1778078549.3631773,2.1961493492126465,-0.003388643264770508,1165,-0.019231311976909637,1.3440420627593994,2.9434726238250732,3,1.3421533925057845,1.3301351238077386,3.048468653490522,2,1166,0,0.9908266901038587,1.3172629475593567,2.951894760131836,-35.132670240192574,-1.2872176248381884,-9.657389335868594,36.45856025962018,-2,18,10,ok,120,247967.0,77,68.0,0,0,-5,0,-4,0
1778078549.4245381,2.257510185241699,-0.0021533966064453125,1168,-0.1263781487941742,1.5118340253829956,2.8358824253082275,3,1.3659972827699032,1.2617622632037309,3.074623331422562,2,1169,0,0.9775455121416599,1.3469796031713486,2.9357568621635437,-38.845177062824334,8.521733996761771,-13.886646925901847,42.123707032957086,-30,25,30,ok,120,247967.0,77,68.0,0,0,-5,0,-4,0
1778078549.4912736,2.3242456912994385,0.004485607147216797,1171,-0.1381358504295349,1.463668704032898,2.8635876178741455,3,1.2783154730311304,1.3422561460839213,3.0459176515705493,2,1172,0,0.9627946214750409,1.3706755936145782,2.923082113265991,-31.552085155608943,2.841944753065695,-12.283553830455807,33.97788136938472,-5,2,-20,ok,120,247984.0,77,68.0,0,0,-5,0,-3,0
1778078549.558071,2.391042947769165,-0.00862264633178711,1175,-0.146758034825325,1.5413371324539185,2.8208444118499756,3,1.247866012504484,1.2922589740732642,3.068015890637039,2,1176,0,0.9421051694080234,1.3998561799526215,2.90627583861351,-30.576084309646067,10.759720587935728,-16.1740052023529,36.22522550829424,-28,25,30,ok,120,247984.0,77,68.0,0,0,-5,0,-3,0
1778078549.6269245,2.4598965644836426,4.291534423828125e-05,1178,-0.146758034825325,1.5413371324539185,2.8208444118499756,3,1.2434076933193121,1.28992320271262,3.070235356102003,2,1179,0,0.9214157173410058,1.4290367662906647,2.889469563961029,-32.19919759783063,13.911356357804472,-18.07657921409738,39.45981345294863,-30,19,20,ok,120,247973.0,77,68.5,0,0,-5,0,-3,0
1778078549.6924715,2.5254435539245605,0.005158662796020508,1181,-0.146758034825325,1.5413371324539185,2.8208444118499756,3,1.2261536559039905,1.282737016507317,3.0767048583092556,2,1182,0,0.9050823110155761,1.4538268446922302,2.874096840620041,-32.10713448884144,17.108982818491313,-20.260801768921468,41.64235183665199,-30,22,23,ok,120,247977.0,77,68.5,0,0,-5,0,-3,0
1778078549.75334,2.5863120555877686,0.005918025970458984,1184,-0.146758034825325,1.5413371324539185,2.8208444118499756,3,1.245806034387618,1.1963287931013469,3.0994084411976255,2,1185,0,0.8887489046901464,1.4786169230937958,2.8587241172790527,-35.70571296974716,28.22881299924489,-24.068432391857275,51.48837985240663,-30,30,30,ok,120,247973.0,77,68.5,0,0,-5,0,-3,0
1778078549.8173027,2.6502747535705566,0.01019287109375,1187,-0.146758034825325,1.5413371324539185,2.8208444118499756,3,1.2151820254508314,1.267901980903745,3.0744015740801136,2,1188,0,0.8728080643340945,1.5032788068056107,2.8433955907821655,-34.23739611167369,23.53768259018656,-23.100598329794806,47.53797889496922,-29,11,-2,ok,120,247973.0,77,68.5,0,0,-5,0,-3,0
1778078549.8815415,2.7145135402679443,0.014334440231323242,1190,-0.146758034825325,1.5413371324539185,2.8208444118499756,3,1.1198925396839792,1.2441051279222854,3.0961874451917786,2,1191,0,0.8568672239780426,1.5279406905174255,2.8280670642852783,-26.302531570593658,28.38355625951401,-26.812038090650027,47.07796532915947,2,30,30,ok,120,247977.0,77,68.5,-1,-1,-5,0,-3,0
1778078549.9410355,2.774007558822632,-0.005883693695068359,1194,-0.146758034825325,1.5413371324539185,2.8208444118499756,3,1.147606468537244,1.2793158181454274,3.061564648216059,2,1195,0,0.8543197382241488,1.531628578901291,2.826187312602997,-29.328673031309528,25.23127607558635,-23.537733561306197,45.28590570346318,-30,2,4,ok,120,247977.0,77,68.5,-1,-1,-5,0,-3,0
1778078550.002708,2.8356800079345703,-0.004355192184448242,1197,-0.146758034825325,1.5413371324539185,2.8208444118499756,3,1.0644425598893625,1.1823062694923978,3.109665225246213,2,1198,0,0.853241965174675,1.5413371324539185,2.8208444118499756,-21.120059471468757,35.90308629615207,-28.88208133962373,50.687899346648415,5,30,30,ok,120,247980.00000000003,76,68.5,-2,-2,-5,0,-3,0
1778078550.0682344,2.9012064933776855,0.0010976791381835938,1200,-0.146758034825325,1.5413371324539185,2.8208444118499756,3,1.1274311611691543,1.2706515352074772,3.0751898226156213,2,1201,0,0.853241965174675,1.5413371324539185,2.8208444118499756,-27.418919599447932,27.068559724644125,-25.434541076564578,46.167303986079446,-30,4,-14,ok,120,247992.0,76,68.5,-2,-2,-5,0,-3,0
1778078550.1333358,2.9663078784942627,0.005289554595947266,1203,-0.146758034825325,1.5413371324539185,2.8208444118499756,3,1.0717197729799461,1.2906521070152657,3.0552376000565045,2,1204,0,0.853241965174675,1.5413371324539185,2.8208444118499756,-21.847780780527117,25.06850254386528,-23.439318820652886,40.68362092540391,-5,8,9,ok,120,247992.0,76,68.5,-2,-2,-5,0,-3,0
1778078550.1949856,3.0279576778411865,0.007787942886352539,1206,-0.146758034825325,1.5413371324539185,2.8208444118499756,3,1.0794753016250294,1.3898999062686124,3.0183620095378267,2,1207,0,0.853241965174675,1.5413371324539185,2.8208444118499756,-22.623333645035437,15.143722618530608,-19.751759768785114,33.634499757323375,-30,0,-27,ok,120,247977.0,76,68.5,-1,0,-5,1,-3,0
1778078550.2609787,3.0939507484436035,-0.00666499137878418,1210,-0.146758034825325,1.5413371324539185,2.8208444118499756,3,0.9973430844680345,1.370243006060559,3.0113159044570152,2,1211,0,0.853241965174675,1.5413371324539185,2.8208444118499756,-14.410111929335956,17.109412639335943,-19.047149260703968,29.379877835664914,5,11,19,ok,120,247980.00000000003,76,68.5,-1,0,-6,1,-3,-1
1778078550.3326468,3.165618896484375,0.005490541458129883,1213,-0.146758034825325,1.5413371324539185,2.8208444118499756,3,0.9817169969528129,1.2925700771266788,3.041630155132215,2,1214,0,0.853241965174675,1.5413371324539185,2.8208444118499756,-12.84750317781379,24.876705532723964,-22.078574328223954,35.656307442480696,-17,26,30,ok,120,247980.00000000003,76,68.5,-1,0,-6,1,-3,-1
1778078550.400859,3.2338311672210693,-0.006525516510009766,1217,-0.146758034825325,1.5413371324539185,2.8208444118499756,3,0.9678653130566321,1.350316313610712,3.008279461776529,2,1218,0,0.853241965174675,1.5413371324539185,2.8208444118499756,-11.462334788195715,19.102081884320654,-18.743504992655335,29.113461328424496,-17,2,-6,ok,120,247976.00000000003,76,68.5,0,0,-6,1,-3,-1
1778078550.4718049,3.304776906967163,0.004182100296020508,1220,-0.146758034825325,1.5413371324539185,2.8208444118499756,3,0.8775581910453314,1.2760989695990945,3.033779997504011,2,1221,0,0.853241965174675,1.5413371324539185,2.8208444118499756,-2.4316225870656405,26.523816285482393,-21.293558565403536,34.100458283287324,16,25,30,ok,130,247983.0,76,68.5,0,0,-6,1,-3,0
1778078550.5364156,3.369387626647949,-0.010777950286865234,1224,-0.0115074273198843,1.3941348791122437,2.9499552249908447,3,0.8373791539021359,1.3703882809347285,2.9859263215450778,2,1225,0,0.8701482911128551,1.522936850786209,2.8369832634925842,3.276913721071917,15.254856985148058,-14.894305805249353,21.570562593334337,7,-11,-30,ok,130,247983.0,76,68.5,0,0,-6,1,-3,0
1778078550.6035829,3.4365549087524414,-0.0039937496185302734,1227,0.06029944494366646,1.2593106031417847,3.013472080230713,3,0.7724839863125184,1.2678517590191327,3.0159504418860568,2,1228,0,0.896030476083979,1.4876835346221924,2.8610617220401764,12.354648977146066,21.98317756030597,-15.488871984588037,29.5939622617755,25,14,30,ok,130,247973.0,76,68.5,0,0,-5,1,-2,0
1778078550.6706994,3.503671407699585,0.003399372100830078,1230,0.02337604947388172,1.2960045337677002,3.0048513412475586,3,0.8560623486019894,1.3774301353181189,2.965981789399316,2,1231,0,0.9172972366213799,1.457016959786415,2.8840625882148743,6.123488801939048,7.958682446829624,-8.191920118444163,12.959370996461098,-30,-19,-30,ok,130,247981.0,76,68.5,0,0,-5,1,-2,0
1778078550.7371023,3.5700743198394775,0.009680747985839844,1233,-0.012713495641946793,1.3260642290115356,2.983867645263672,3,0.876333702890389,1.3324040118088152,2.9779805919358076,2,1234,0,0.9340528040193021,1.4301078468561172,2.9044404923915863,5.77191011289131,9.770383504730207,-7.354009954422125,13.52245549412313,-13,4,14,ok,130,247981.0,76,68.5,0,0,-5,1,-2,0
1778078550.8033147,3.636286735534668,-0.003998756408691406,1237,0.024788478389382362,1.3617875576019287,2.98486590385437,3,0.8045084913032183,1.3900801881236695,2.947447310953581,2,1238,0,0.9554961181711406,1.4076641499996185,2.9249431788921356,15.098762686792222,1.7583961875949017,-2.2504132061445414,15.366487933910179,27,-13,-26,ok,130,247976.00000000003,76,68.5,0,1,-5,1,-2,0
1778078550.8715239,3.704495906829834,0.004254341125488281,1240,0.06972670555114746,1.175214409828186,3.061527729034424,3,0.800530561305099,1.3750244715329305,2.936008839486048,2,1241,0,0.9825567107181996,1.361898809671402,2.9550285935401917,18.20261494131006,-1.3125661861528526,1.901975405414369,18.348720149847978,7,-13,-11,ok,130,247980.00000000003,76,68.5,1,1,-5,1,-2,0
1778078550.9357917,3.768763780593872,-0.014556884765625,1244,0.06891399621963501,1.2539223432540894,3.0303361415863037,3,0.7176966348288666,1.332590938053647,2.935228964954788,0,1245,0,1.0095157145988196,1.3259719610214233,2.9812150597572327,29.1819079769953,-0.6618977032223583,4.598609480244464,29.54943435836205,30,-9,2,ok,130,247980.00000000003,76,68.5,1,1,-5,1,-2,0
1778078551.007938,3.840909957885742,0.0005414485931396484,1247,0.06424421817064285,1.3217837810516357,2.9985110759735107,3,0.861040921496743,1.2747600371972192,2.8935161582651037,0,1248,0,1.0358909962233156,1.298527792096138,3.0034233927726746,17.485007472657255,2.3767754898918803,10.99072345075709,20.788712081782574,-30,-27,14,ok,130,247979.0,76,68.5,1,0,-6,1,-1,0
1778078551.0735176,3.906489610671997,0.005723237991333008,1250,0.0680280327796936,1.2506569623947144,3.0311923027038574,3,0.708583764066996,1.36853733795712,2.8974982130416476,0,1251,0,1.0458329287357628,1.2805930525064468,3.013578027486801,33.724916466876685,-8.794428545067312,11.607981444515358,36.734958790616844,30,-6,-30,ok,130,247973.99999999997,76,68.5,1,0,-6,0,-1,0
1778078551.1361814,3.96915340423584,0.008616209030151367,1253,0.0687854215502739,1.3203089237213135,2.9992403984069824,3,0.6672198113339417,1.3740442581883823,2.9013916195127663,0,1254,0,1.0468936758115888,1.288217842578888,3.011799067258835,37.9673864477647,-8.582641560949433,11.040744774606859,40.460872642784814,24,-1,-4,ok,130,247973.99999999997,76,68.5,1,0,-6,0,-1,0
1778078551.2030177,4.035989761352539,-0.004933357238769531,1257,0.03051517717540264,1.283523440361023,3.0110397338867188,3,0.6960057676607542,1.3627079230932986,2.8875700748468947,0,1258,0,1.0477860667742789,1.2866577059030533,3.01257261633873,35.17802991135247,-7.6050217190245295,12.50025414918352,38.09969156810884,-3,-9,0,ok,130,247977.0,76,68.5,1,2,-6,0,-1,0
1778078551.2725575,4.105529546737671,0.004628181457519531,1260,0.031015295535326004,1.3461946249008179,2.9689221382141113,3,0.727753201215938,1.354634918888781,2.871457085817889,0,1261,0,1.053252165671438,1.2891740053892136,3.010704427957535,32.54989644555,-6.54609134995674,13.924734213964562,36.00340669308339,-5,-11,0,ok,130,247994.0,76,68.5,1,1,-6,0,0,0
1778078551.3345006,4.16747260093689,0.0066683292388916016,1263,0.031015295535326004,1.3461946249008179,2.9689221382141113,3,0.6856970879315457,1.3615731255827908,2.8766228126165347,0,1264,0,1.054030517814681,1.2872248888015747,3.0087114572525024,36.833342988313525,-7.434823678121605,13.20886446359677,39.83021289470057,23,-2,-7,ok,130,247994.0,76,68.5,1,1,-6,0,0,0
1778078551.4023573,4.2353293895721436,-0.005248069763183594,1267,0.059067003428936005,1.2404518127441406,3.010582685470581,3,0.7148620564396352,1.3196820952540602,2.8856781311319204,0,1268,0,1.0526980550494045,1.295379564166069,3.002343326807022,33.783599860976935,-2.4302531087991186,11.66651956751017,35.82381091618431,-5,1,17,ok,130,247982.00000000003,76,68.5,1,2,-6,0,0,0
1778078551.4676132,4.3005852699279785,-0.0021483898162841797,1270,0.059067003428936005,1.2404518127441406,3.010582685470581,3,0.6792251750552402,1.3246582373170095,2.890212350044166,0,1271,0,1.0514671809505671,1.2936957478523254,2.9998741447925568,37.2242005895327,-3.096248946468405,10.966179474839066,38.92923014063667,21,-1,-3,ok,120,247977.0,76,68.5,1,1,-6,0,0,0
1778078551.538094,4.371066093444824,0.010280609130859375,1273,0.06851182132959366,1.2401938438415527,3.0093765258789062,3,0.7117529289290001,1.3143106310688895,2.875665407823843,0,1274,0,1.052000631345436,1.283497005701065,3.001232326030731,34.02477024164359,-3.0813625367824393,12.556691820688837,36.398493025941,-5,-11,-1,ok,120,247977.0,76,68.5,1,1,-6,0,0,0
1778078551.601248,4.4342200756073,-0.006837368011474609,1277,0.02418835274875164,1.2710261344909668,2.9792559146881104,3,0.635770139211543,1.3314072380501076,2.8956134371698594,0,1278,0,1.0465206713415682,1.2860431522130966,2.994740277528763,41.07505321300252,-4.5364085837011014,9.91268403589034,42.497062299465604,30,6,-7,ok,120,247976.00000000003,76,69.0,0,0,-5,0,0,0
1778078551.6684442,4.501416206359863,0.0005443096160888672,1280,0.02418835274875164,1.2710261344909668,2.9792559146881104,3,0.6779619233695505,1.3262926103565311,2.889849996601563,0,1281,0,1.040946037741378,1.2798828035593033,2.992242217063904,36.29841143718274,-4.640980679722784,10.239222046234087,37.99940845124625,-9,-4,-2,ok,120,247976.00000000003,76,69.0,0,0,-5,0,0,0
1778078551.734911,4.567883014678955,0.0071108341217041016,1283,0.023626815527677536,1.1936923265457153,3.000791549682617,3,0.676550180959965,1.3254692297631934,2.8911302537136265,0,1284,0,1.0400849925354123,1.2686539143323898,2.990961194038391,36.353481157544735,-5.681531543080354,9.983094032476458,38.12502536928,9,-2,-7,ok,120,247981.0,76,69.0,0,0,-5,0,0,0
1778078551.8030171,4.635989189147949,-0.004827976226806641,1287,0.05891956388950348,1.2994211912155151,2.947889804840088,3,0.6735132915522666,1.2883294110992782,2.9048323315055047,0,1288,0,1.0435730260796845,1.262807235121727,2.988332152366638,37.00597345274179,-2.5522175977551242,8.34998208611335,38.022073676875316,11,3,10,ok,120,247976.00000000003,76,69.0,0,0,-5,0,0,0
1778078551.871712,4.704684019088745,0.0038335323333740234,1290,0.06342461705207825,1.2303022146224976,2.9786252975463867,3,0.6768010869272774,1.3269622025909982,2.8909838748940864,0,1291,0,1.0476241912692785,1.248320683836937,2.9895450472831726,37.08231043420012,-7.864151875406122,9.856117238908624,39.16740582276228,10,-9,-27,ok,120,247976.00000000003,76,69.0,0,0,-5,0,0,0
1778078551.9290943,4.76206636428833,0.0010595321655273438,1293,0.06061604991555214,1.2949415445327759,2.9376893043518066,3,0.7122570567890432,1.2862263114553674,2.8981470842245383,0,1294,0,1.0478178220801055,1.2551319003105164,2.980433374643326,33.556076529106235,-3.109441114485101,8.228629041878754,34.689901008514504,-6,3,17,ok,120,247982.00000000003,76,69.0,0,1,-5,0,0,0
1778078551.9957955,4.828767538070679,0.007735490798950195,1296,0.061527643352746964,1.2960193157196045,2.937668800354004,3,0.6835273952355854,1.3662140184951062,2.875665192563373,0,1297,0,1.048125402070582,1.2620778381824493,2.9713191390037537,36.45980068349965,-10.413618031265681,9.565394644038072,39.10571928858765,20,-8,-30,ok,120,247965.0,75,69.0,0,0,-5,0,0,0
1778078552.0619354,4.894907474517822,-0.006095409393310547,1300,0.06420157104730606,1.224001407623291,2.958543062210083,3,0.6452405331916876,1.3472004091042717,2.914202493291596,0,1301,0,1.047586620785296,1.2600537836551666,2.9649649560451508,40.23460875936083,-8.714662544910512,5.076246275355478,41.47936066935654,26,15,0,ok,120,247965.0,75,69.0,0,0,-5,0,0,0
1778078552.128786,4.961758136749268,0.0007102489471435547,1303,0.060014013200998306,1.2922695875167847,2.9274094104766846,3,0.6878869665090929,1.340752414831199,2.909577224912557,0,1304,0,1.0520648283418268,1.2627092152833939,2.9584841430187225,36.41778618327339,-7.804319954780503,4.890691810616543,37.5643637884849,-4,0,-1,ok,120,247978.00000000003,75,69.0,0,0,-5,0,0,0
1778078552.1931968,5.0261688232421875,0.005100727081298828,1306,0.031135374680161476,1.3235692977905273,2.908489227294922,3,0.6925736039723298,1.3452846176199902,2.907320947220706,0,1307,0,1.052933206083253,1.269277110695839,2.949638307094574,36.03596021109232,-7.600750692415126,4.2317359873867755,37.07114010777956,8,2,-4,ok,120,247979.0,75,69.0,0,0,-5,0,0,0
1778078552.2587705,5.091742515563965,-0.009335994720458984,1310,-0.008301889523863792,1.2251170873641968,2.9487764835357666,3,0.689889672422523,1.3440186197605661,2.9098215688636717,0,1311,0,1.0489421179518104,1.273205205798149,2.9431364238262177,35.905244552928735,-7.081341396241703,3.3314854962545937,36.748207820076075,9,3,-2,ok,120,247979.0,75,69.0,0,0,-5,0,0,0
1778078552.3270426,5.160014629364014,-0.0017459392547607422,1313,0.02964789792895317,1.3224546909332275,2.8985249996185303,3,0.6966099723353021,1.3834305038106838,2.8942868595403475,0,1314,0,1.0452831597067416,1.2760843932628632,2.936965823173523,34.86731873714395,-10.73461105478206,4.267896363317547,36.73114114458001,5,-3,-21,ok,120,247984.0,75,69.0,0,0,-5,0,0,0
1778078552.3909512,5.223923206329346,0.0027866363525390625,1316,0.02964789792895317,1.3224546909332275,2.8985249996185303,3,0.735473735761762,1.3413530345468319,2.902229397860512,0,1317,0,1.041061069816351,1.2876034528017044,2.926953285932541,30.558733405458895,-5.374958174512745,2.4723888072029077,31.126179803144055,-8,7,16,ok,120,247981.0,75,69.0,0,0,-5,0,0,0
1778078552.4560177,5.288989782333374,0.00786137580871582,1319,0.0327608622610569,1.259673833847046,2.9284908771514893,3,0.7418164173032806,1.3442408564381088,2.912337848410317,0,1320,0,1.037579171359539,1.2831949889659882,2.925803482532501,29.57627540562584,-6.10458674721206,1.3465634122184156,30.22970855378514,3,5,-6,ok,120,248001.00000000003,75,69.0,0,0,-5,0,0,0
1778078552.5218465,5.35481858253479,-0.006394863128662109,1323,0.0018003965960815549,1.3535962104797363,2.8780360221862793,3,0.7082034547921294,1.3889911847786665,2.9029677330718755,0,1324,0,1.0301132655149559,1.2903921008110046,2.9183493852615356,32.19098107228264,-9.859908396766182,1.5381652189660144,33.702270075315646,18,0,-20,ok,120,248001.00000000003,75,69.0,0,0,-5,0,0,0
1778078552.5893285,5.422300577163696,0.0007383823394775391,1326,-0.03091682679951191,1.3280000686645508,2.887451171875,3,0.7397020528630445,1.3468037388725134,2.9134027591908573,0,1327,0,1.0182234657841036,1.303391933441162,2.9094628989696503,27.852141292105912,-4.341180543135126,-0.393986022120707,28.191183871011038,-10,9,18,ok,120,248001.00000000003,75,69.0,0,0,-5,0,0,0
1778078552.6531253,5.48609733581543,0.004629373550415039,1329,0.03784605860710144,1.3275364637374878,2.8879246711730957,3,0.7786600127080303,1.3020036330577174,2.920392588500298,0,1330,0,1.0154524714598665,1.30780029296875,2.9045273065567017,23.679245875183618,0.579665991103262,-1.5865281943596266,23.73941384259814,-13,8,20,ok,130,247980.00000000003,75,70.0,0,0,-5,0,0,0
1778078552.7150266,5.547998666763306,0.004739046096801758,1332,0.034917473793029785,1.2692087888717651,2.9177474975585938,3,0.7429078110605702,1.346587676181274,2.9137452324107915,0,1333,0,1.015925233848975,1.3010052293539047,2.9056845903396606,27.30174227884048,-4.558244682736934,-0.8060642071130886,27.691378903079457,21,0,-24,ok,130,247985.0,75,70.0,0,0,-5,0,0,0
1778078552.7755592,5.60853123664856,0.00713348388671875,1335,0.0775996521115303,1.2358391284942627,2.925766944885254,3,0.7476767007079184,1.3436926913314404,2.9137828960031444,0,1336,0,1.0266629265533993,1.302345484495163,2.9028083980083466,27.898622584548093,-4.134720683627746,-1.0974497994797883,28.22469580542994,8,4,-1,ok,130,247985.0,75,70.0,0,0,-5,0,0,0
1778078552.8412244,5.674196481704712,0.01293802261352539,1338,0.006065258756279945,1.3045521974563599,2.8965394496917725,3,0.7517910976048072,1.3501655797828827,2.9234848038134484,0,1339,0,1.0237150966568151,1.3001076728105545,2.902560204267502,27.192399905200794,-5.005790697232815,-2.092459954594661,27.728377914520152,3,7,-7,ok,130,247981.0,75,70.0,0,0,-5,0,0,0
1778078552.9000611,5.733033180236816,-0.008506059646606445,1342,0.038807615637779236,1.3350974321365356,2.8766815662384033,3,0.7138235731315512,1.3566819724573016,2.929308006416014,0,1343,0,1.0248600613704184,1.301688015460968,2.899829775094986,31.103648823886722,-5.499395699633358,-2.9478231321028225,31.723335014449162,23,7,-5,ok,130,247984.0,75,70.0,0,0,-5,0,0,0
1778078552.968912,5.801883935928345,0.0003612041473388672,1345,-0.024391427636146545,1.3394466638565063,2.875640869140625,3,0.719536198800151,1.3581756517629517,2.9404093334108192,0,1346,0,1.017716025133268,1.3116596192121506,2.893223524093628,29.8179826333117,-4.651603255080117,-4.71858093171913,30.545286169429374,3,11,0,ok,130,247989.0,75,70.0,0,0,-5,0,0,0
1778078553.0347393,5.867711305618286,0.00606083869934082,1348,-0.024391427636146545,1.3394466638565063,2.875640869140625,3,0.7610758326937022,1.3871624222456116,2.9097206335687162,0,1349,0,1.0144420471042395,1.3098909258842468,2.892924129962921,25.33662144105373,-7.727149636136477,-1.67965036057951,26.541937624828797,-10,-7,-16,ok,130,247989.0,75,70.0,0,0,-5,0,0,0
1778078553.1022809,5.935252904891968,-0.0065631866455078125,1352,0.07474733889102936,1.3142787218093872,2.8941738605499268,3,0.7638623150399364,1.3504239836333527,2.9356559612299877,0,1353,0,1.0276500678155571,1.3081757575273514,2.893764466047287,26.37877527756207,-4.224822610600132,-4.189149518270074,27.041410557172874,10,14,9,ok,130,247983.0,75,70.0,0,0,-5,0,0,0
1778078553.169853,6.002825021743774,0.0013499259948730469,1355,0.04506971687078476,1.2848048210144043,2.904757499694824,3,0.765901210678615,1.3867247570831196,2.91041565958853,0,1356,0,1.0285530250985175,1.302834302186966,2.895868569612503,26.265181441990247,-8.389045489615366,-1.454708997602694,27.61072289302131,6,-7,-22,ok,130,247994.0,75,70.0,0,0,-5,0,0,0
1778078553.2318344,6.0648064613342285,0.003179788589477539,1358,0.04502757638692856,1.402539849281311,2.845414638519287,3,0.7403924836774549,1.3747965394914177,2.9463996302353856,2,1359,0,1.0298167879227549,1.3195006847381592,2.8868269622325897,28.942430424529995,-5.529585475325849,-5.9572668002795925,30.06209610352225,19,23,7,ok,130,247994.0,75,70.0,0,0,-5,0,0,0
1778078553.2950015,6.127973556518555,0.006169795989990234,1361,-0.020975003018975258,1.3514267206192017,2.8737552165985107,3,0.7422008832494522,1.3758245603415789,2.9451772422298363,2,1362,0,1.0174949560314417,1.3339491337537766,2.880325496196747,27.529407278198946,-4.18754265878023,-6.485174603308952,28.591279583877682,1,8,2,ok,130,247980.00000000003,75,70.0,0,0,-5,0,1,0
1778078553.358911,6.191883087158203,-0.010390996932983398,1365,0.010493033565580845,1.3790825605392456,2.8550469875335693,3,0.7266868403171467,1.412254127659402,2.927456338100871,2,1366,0,1.0180484278826043,1.3432654291391373,2.8751389384269714,29.13615875654576,-6.898869852026479,-5.23173996738997,30.39541503924932,14,0,-15,ok,130,247992.99999999997,75,70.0,0,0,-5,0,0,0
1778078553.426024,6.25899600982666,-0.002562284469604492,1368,0.011568145826458931,1.328262209892273,2.892549991607666,3,0.7099333498846097,1.3575420799702087,2.9513289965321277,2,1369,0,1.0146434941561893,1.3424110263586044,2.8771224915981293,30.47101442715796,-1.5131053611604273,-7.4206504933998385,31.398061433777023,15,15,20,ok,130,247992.99999999997,75,70.0,0,0,-5,0,0,0
1778078553.4846218,6.317593812942505,-0.004274845123291016,1371,0.011073322966694832,1.3871909379959106,2.8623788356781006,3,0.7879839271681034,1.4030509585801219,2.936402474013623,2,1372,0,1.0190765879815444,1.34837906062603,2.8754647374153137,23.109266081344103,-5.467189795409189,-6.093773659830948,24.516574403750557,-25,0,-20,ok,130,247992.0,75,70.0,0,0,-6,0,0,0
1778078553.5455039,6.378475904464722,-0.0032372474670410156,1374,-0.018505943939089775,1.3626034259796143,2.88075852394104,3,0.7555185412858361,1.3783908231026867,2.9384997434426268,2,1375,0,1.0198122734436765,1.3512736558914185,2.8761044442653656,26.429373215784047,-2.7117167211268223,-6.2395299177261165,27.290967548788757,20,6,8,ok,130,247992.0,75,70.0,0,0,-6,0,0,0
1778078553.6091554,6.442127466201782,-0.00015044212341308594,1377,0.009368759579956532,1.3896092176437378,2.8610641956329346,3,0.7473606729649417,1.3221914595497108,2.9642004359677028,2,1378,0,1.0116399510297924,1.3606899678707123,2.8719657361507416,26.427927806485073,3.8498508321001434,-9.22346998169612,28.25471850996677,7,20,28,ok,130,248001.00000000003,75,69.5,0,0,-6,0,0,0
1778078553.6686459,6.501617908477783,-0.00039124488830566406,1380,0.009368759579956532,1.3896092176437378,2.8610641956329346,3,0.7620248880995659,1.3796424520403912,2.9352062547895983,2,1381,0,1.007177331368439,1.373790517449379,2.8665040731430054,24.5152443268873,-0.5851934591012187,-6.870218164659292,25.46643974766731,0,-2,-17,ok,130,247986.0,75,69.5,0,0,-6,0,0,0
1778078553.7397225,6.572694540023804,0.010685443878173828,1383,-0.025908222422003746,1.3674015998840332,2.879392385482788,3,0.8288597529633634,1.3739916070761953,2.9446618876772357,2,1384,0,0.9983103565173224,1.3693982362747192,2.870751291513443,16.945060355395892,-0.45933708014760377,-7.39105961637927,18.49253425720987,-25,8,0,ok,130,247986.0,75,69.5,0,0,-6,0,0,0
1778078553.8042648,6.637236833572388,-0.0054569244384765625,1387,-0.024167081341147423,1.422823190689087,2.8485324382781982,3,0.7671579900170433,1.382550400795155,2.931700118328085,2,1388,0,0.9979113467270508,1.378322795033455,2.867598444223404,23.07533567100075,-0.4227605761700115,-6.410167410468093,23.952872250825173,29,2,0,ok,130,247990.0,75,69.5,0,0,-6,0,0,0
1778078553.8709986,6.703970670700073,0.0018291473388671875,1390,-0.02405058592557907,1.3701586723327637,2.8783955574035645,3,0.7797333474347256,1.28878540078188,2.9730563528865215,2,1391,0,0.9935933942906559,1.3772073090076447,2.8705170154571533,21.38600468559303,8.842190822576468,-10.253933742936816,25.31182909549606,-1,23,30,ok,130,247973.0,74,69.5,0,0,-6,0,0,0
1778078553.9340897,6.767061710357666,0.00514984130859375,1393,0.00487156305462122,1.4000017642974854,2.8685061931610107,3,0.8074194839043662,1.4023684842563884,2.906415516988227,2,1394,0,0.9927563214441761,1.3861747533082962,2.8675115406513214,18.533683753980988,-1.6193730948092178,-3.8903976336905455,19.00670924860471,-8,-21,-30,ok,130,247973.0,74,69.5,0,0,-6,0,0,0
1778078553.994719,6.827691078186035,0.005803585052490234,1396,-0.028656015172600746,1.3738079071044922,2.8768086433410645,3,0.7961506330632879,1.3512854698540286,2.9322847244654637,2,1397,0,0.9877901541767642,1.384501874446869,2.869315266609192,19.163952111347626,3.3216404592840254,-6.296945785627184,20.44362693099993,6,16,22,ok,130,247985.0,74,69.5,0,0,-6,0,0,0
1778078554.0545466,6.887518644332886,0.005586147308349609,1399,-0.025455724447965622,1.379048228263855,2.8852884769439697,3,0.7966019707881338,1.354027202146961,2.930915423498788,2,1400,0,0.9869214316131547,1.386557474732399,2.869881510734558,19.031946082502095,3.2530272585437947,-6.103391276423009,20.249655382381505,3,5,1,ok,130,247985.0,74,69.5,0,0,-6,0,0,0
1778078554.1194181,6.952390193939209,0.010565996170043945,1402,-0.022024858742952347,1.4339128732681274,2.856214761734009,3,0.8351494401861992,1.3815741835064659,2.9264704880822023,2,1403,0,0.9829972293227911,1.3920954316854477,2.8692753314971924,14.784778913659192,1.0521248178981812,-5.719515658500995,15.887401094139243,-15,4,-8,ok,130,247985.0,74,69.5,0,0,-6,0,0,0
1778078554.1809554,7.013927459716797,0.01214742660522461,1405,-0.023228483274579048,1.43441641330719,2.8555798530578613,3,0.808434582685279,1.4099994140205192,2.9022691152077362,2,1406,0,0.9789225739659742,1.3976963311433792,2.8685897886753082,17.048799128069515,-1.2303082877139992,-3.3679326532428,17.421773174647313,12,-5,-10,ok,130,247991.0,74,69.5,0,0,-6,0,0,0
1778078554.2394447,7.07241678237915,0.010405540466308594,1408,-0.06393168866634369,1.357683777809143,2.9019322395324707,3,0.7590501389153156,1.3297617339123367,2.932150408372531,2,1409,0,0.9741696406854317,1.396481603384018,2.8714072704315186,21.511950177011606,6.671986947168129,-6.074313794101238,23.327595210621695,23,17,30,ok,130,247991.0,74,69.5,0,0,-6,0,0,0
1778078554.3040478,7.137019872665405,-0.005633354187011719,1412,-0.032782502472400665,1.3873718976974487,2.8931891918182373,3,0.8451895794765307,1.4312196724146267,2.8868423909365535,2,1413,0,0.973092713044025,1.3920501917600632,2.8769893646240234,12.790313356749428,-3.9169480654563493,-0.9853026312530044,13.412882583042288,-30,-16,-30,ok,130,247985.0,74,69.5,0,0,-6,0,0,0
1778078554.3677692,7.200741291046143,-0.002910614013671875,1415,-0.032782502472400665,1.3873718976974487,2.8931891918182373,3,0.8679550842132471,1.3429123519078652,2.9287531605647796,2,1416,0,0.9720012234756723,1.3942018449306488,2.8788385689258575,10.404613926242522,5.128949302278363,-4.991459163892209,12.628411479054089,-9,19,30,ok,130,247985.0,74,69.5,0,0,-6,0,0,0
1778078554.4401772,7.273149251937866,0.01097249984741211,1418,-0.030895255506038666,1.3870857954025269,2.8935041427612305,3,0.8161404822764764,1.4033890794627264,2.8909848476282014,2,1419,0,0.9675303711555898,1.392587348818779,2.881963312625885,15.138988887911342,-1.0801730643947405,-0.9021535002316394,15.204263853778887,21,-13,-27,ok,130,247992.0,74,69.5,0,0,-6,0,0,0
1778078554.498077,7.331048965454102,-0.011054754257202148,1422,-0.030483460053801537,1.3881679773330688,2.892911434173584,3,0.806158005685782,1.3424478293666355,2.909661620460661,2,1423,0,0.9673019405454397,1.394382357597351,2.88397616147995,16.11439348596577,5.193452823071554,-2.568545898071095,17.12434108736753,6,10,27,ok,130,247992.99999999997,74,69.5,0,0,-6,0,0,0
1778078554.5674667,7.4004387855529785,-0.0017864704132080078,1425,-0.001438557868823409,1.417765736579895,2.883162498474121,3,0.8090015254811146,1.340411308083775,2.9090944027995365,2,1426,0,0.9703040863678325,1.399222046136856,2.883710414171219,16.13025608867179,5.881073805308112,-2.538398862831759,17.355565659938605,2,4,6,ok,130,247992.99999999997,74,69.5,0,0,-6,0,0,0
1778078554.634677,7.467648983001709,0.005422353744506836,1428,-0.028087537735700607,1.3943555355072021,2.9015378952026367,3,0.7768322508514286,1.311659406771689,2.912623186127421,2,1429,0,0.969546251493739,1.3942773789167404,2.8893758058547974,19.271400064231038,8.261797214505151,-2.324738027262363,21.09617407362408,16,3,14,ok,130,247989.0,74,69.5,0,0,-6,0,0,0
1778078554.703646,7.536617994308472,-0.010384798049926758,1432,-0.060366399586200714,1.4237960577011108,2.8792076110839844,3,0.8290365820499319,1.3870470871633558,2.8723378937726305,2,1433,0,0.9649040119547863,1.3929498344659805,2.8923292756080627,13.586742990485433,0.5902747302624745,1.9991381835432254,13.74571070638372,-19,-14,-27,ok,130,247985.0,74,69.5,1,0,-6,0,0,0
1778078554.7706144,7.603586435317993,0.001272439956665039,1435,-0.05947602540254593,1.4304170608520508,2.8873584270477295,3,0.8270197428671213,1.3848445629020452,2.8721787792623874,2,1436,0,0.965460969862761,1.402041494846344,2.89050754904747,13.844122699563965,1.7196931944298832,1.8328769785082688,14.070412787899874,2,2,5,ok,130,247985.0,74,69.5,1,0,-6,0,0,0
1778078554.834987,7.667958974838257,0.0056667327880859375,1438,-0.06375830620527267,1.4320862293243408,2.8876779079437256,3,0.8559889863842682,1.3502763999230702,2.885197997877336,2,1439,0,0.961588994396152,1.4076307862997055,2.889818638563156,10.560000801188373,5.735438637663526,0.4620640685820021,12.025904393889771,-12,7,19,ok,130,247996.99999999997,74,69.5,0,0,-6,0,0,0
1778078554.8993165,7.732288599014282,0.010069608688354492,1441,-0.03337641805410385,1.404651403427124,2.909731864929199,3,0.8204564472737185,1.3232356066070983,2.889823642657655,2,1442,0,0.9615147549484391,1.409790724515915,2.8918864727020264,14.10583076747206,8.655511790881665,0.20628300443714664,16.550978783158794,15,3,17,ok,120,247981.0,74,69.5,0,0,-6,0,0,0
1778078554.9645941,7.797566175460815,-0.004808664321899414,1445,-0.061787642538547516,1.4341576099395752,2.8875229358673096,3,0.8084934131882536,1.2665638836783382,2.926461508644077,2,1446,0,0.9576532065693755,1.415674701333046,2.8911388218402863,14.915979338112184,14.91108176547078,-3.532268680379058,21.384660882556254,5,17,30,ok,120,247981.0,74,69.5,0,0,-6,0,0,0
1778078555.038317,7.871289014816284,0.008952140808105469,1448,-0.06628946214914322,1.436265230178833,2.887180805206299,3,0.8367946362384499,1.3782066055552837,2.8616167905317442,2,1449,0,0.9531774563074578,1.4216868579387665,2.8904224932193756,11.638282006900791,4.348025238348274,2.8805702687631385,12.753533495417905,-12,-24,-30,ok,120,247994.99999999997,74,69.5,0,0,-6,0,0,0
1778078555.0974,7.930371999740601,0.007962465286254883,1451,-0.07442469894886017,1.387683391571045,2.9262008666992188,3,0.8349516147455629,1.3806922513319484,2.8705581074662416,2,1452,0,0.9440541886724532,1.4179265648126602,2.895802289247513,10.910257392689026,3.7234313480711823,2.524418178127119,11.801285714555995,-2,2,0,ok,120,247984.0,74,69.5,0,0,-6,0,0,0
1778078555.1653914,7.998363494873047,-0.004069089889526367,1455,-0.061390772461891174,1.4445676803588867,2.8960328102111816,3,0.8587815871046451,1.346996628459338,2.883919217223495,2,1456,0,0.9398912843316793,1.4242030829191208,2.895114153623581,8.11096972270342,7.72064544597828,1.1194936400086064,11.253864312099044,-12,7,20,ok,120,247984.0,74,69.5,0,0,-6,0,0,0
1778078555.2307677,8.063739776611328,0.001329183578491211,1458,-0.06174010783433914,1.451338768005371,2.9056146144866943,3,0.8629650300236458,1.347761751622016,2.8832395652380804,2,1459,0,0.939719570800662,1.4276459217071533,2.8984150290489197,7.675454077701627,7.988417008513737,1.517546381083923,11.181697036655885,-3,0,6,ok,120,247989.0,74,69.5,0,0,-6,0,0,0
1778078555.2930033,8.125975370407104,0.0032095909118652344,1461,-0.06271734088659286,1.4522514343261719,2.9057159423828125,3,0.8540829004439192,1.2893344976390393,2.9120463402082013,2,1462,0,0.9393144063651562,1.4303752183914185,2.900709718465805,8.523150592123695,14.104072075237916,-1.1336621742396247,16.518296977740356,2,14,30,ok,120,247989.0,74,69.5,0,0,-6,0,0,0
1778078555.3575559,8.19052791595459,0.007941722869873047,1464,-0.06271734088659286,1.4522514343261719,2.9057159423828125,3,0.8629650300236458,1.347761751622016,2.8832395652380804,2,1465,0,0.9394445270299911,1.4328958690166473,2.902964472770691,7.647949700634538,8.51341173946314,1.972490753261047,11.612925292137422,-4,-10,-15,ok,120,247985.0,74,69.5,0,0,-6,0,0,0
1778078555.4221153,8.25508737564087,0.01253652572631836,1467,-0.06402235478162766,1.399104118347168,2.935948371887207,3,0.8394863548872349,1.3776408496926826,2.8606359401167283,2,1468,0,0.9356137849390507,1.4322024583816528,2.906241536140442,9.612743005181578,5.45616086889702,4.560559602371361,11.957141104701076,7,-10,-7,ok,120,247985.0,74,69.5,0,0,-6,0,0,0
1778078555.484925,8.317897081375122,-0.004739046096801758,1471,-0.08334130048751831,1.481777548789978,2.88279128074646,3,0.8616389389890453,1.3492634545745785,2.8830981444716413,2,1472,0,0.9329195776954293,1.4381549507379532,2.9056500792503357,7.128063870638401,8.889149616337466,2.255193477869444,11.615169954338073,-11,10,19,ok,120,247985.0,74,69.5,0,0,-6,0,0,0
1778078555.5503669,8.383338928222656,0.0006186962127685547,1474,-0.03651728481054306,1.3726632595062256,2.9574291706085205,3,0.8624447861005946,1.3503207793477046,2.8829115734634696,2,1475,0,0.9366410998627543,1.4302047044038773,2.9144311249256134,7.419631376215974,7.98839250561727,3.15195514621438,11.349016073055761,0,-2,2,ok,120,247981.0,74,69.5,0,0,-6,0,0,0
1778078555.6155264,8.448498487472534,0.005884408950805664,1477,-0.08620496094226837,1.4898803234100342,2.89193058013916,3,0.8021807454666274,1.3586968086562639,2.873745074852631,2,1478,0,0.9351685671135783,1.442979320883751,2.910147339105606,13.298782164695089,8.428251222748706,3.640226425297488,16.15995897783195,25,-1,8,ok,120,247981.0,74,70.0,0,0,-6,0,0,0
1778078555.6791847,8.51215672492981,-0.010499238967895508,1481,-0.06012300029397011,1.464897632598877,2.9143567085266113,3,0.8611327965054123,1.3518420263339541,2.8827689014047952,2,1482,0,0.9353270386345685,1.4455205649137497,2.912437826395035,7.419424212915615,9.367853857979558,2.9668924990239542,12.312879137570771,-23,3,10,ok,120,247981.0,74,70.0,0,0,-6,0,0,0
1778078555.7470715,8.58004355430603,-0.002645730972290039,1484,-0.05587782710790634,1.4700767993927002,2.9237194061279297,3,0.8598257976814335,1.3533723815747427,2.882625272396382,2,1485,0,0.9360598237253726,1.4478628188371658,2.914700925350189,7.6234026043939025,9.449043726242312,3.207565295380732,12.557434838901207,0,0,7,ok,120,247982.00000000003,74,70.0,0,0,-6,0,0,0
1778078555.8079975,8.640969514846802,-0.0023851394653320312,1487,-0.053989000618457794,1.5221364498138428,2.893502950668335,3,0.8598257976814335,1.3533723815747427,2.882625272396382,2,1488,0,0.9371508662588894,1.4565984457731247,2.9131743013858795,7.732506857745591,10.322606419838198,3.054902898949763,13.25444443671552,0,1,11,ok,120,247987.0,74,70.0,0,0,-5,0,0,0
1778078555.8723874,8.70535945892334,0.0023703575134277344,1490,-0.06012300029397011,1.464897632598877,2.9143567085266113,3,0.7828930920196822,1.3042104386563929,2.90003984074838,2,1491,0,0.9374751588329673,1.4581792205572128,2.9142543971538544,15.458206681328512,15.396878190081997,1.4214556405474532,21.864138399235774,30,8,30,ok,120,247987.0,74,70.0,0,0,-5,0,0,0
1778078555.9360354,8.769007444381714,0.0062181949615478516,1493,-0.053989000618457794,1.5221364498138428,2.893502950668335,3,0.8585243586216221,1.3549120536345132,2.8824806734238813,2,1494,0,0.9387293281033635,1.4735582619905472,2.9089487195014954,8.020496948174138,11.8646208356034,2.6468046077614105,14.563762340136288,-29,-3,-4,ok,120,247984.0,73,70.0,0,0,-5,0,0,0
1778078556.0022392,8.835211277008057,-0.0076639652252197266,1497,-0.053989000618457794,1.5221364498138428,2.893502950668335,3,0.8206353301401668,1.331702438512686,2.8967244849815597,2,1498,0,0.9423983655869961,1.4786031246185303,2.9102876782417297,12.17630354468293,14.690068610584417,1.356319326017008,19.12851499489866,17,6,22,ok,120,247984.0,73,70.0,0,0,-5,0,0,0
1778078556.067445,8.90041708946228,-0.0025658607482910156,1500,-0.0608513168990612,1.4708514213562012,2.9247076511383057,3,0.8206353301401668,1.331702438512686,2.8967244849815597,2,1501,0,0.9393566115759313,1.4908766448497772,2.906197488307953,11.872128143576454,15.917420633709112,0.9473003326393226,19.87986630257224,0,3,16,ok,120,247979.0,73,70.0,0,0,-5,0,0,0
1778078556.136459,8.969431161880493,0.006395578384399414,1503,-0.0889248177409172,1.5006378889083862,2.9110422134399414,3,0.8563864711854386,1.3553646765672944,2.8825219340011974,2,1504,0,0.9390166294761002,1.4922213405370712,2.9085864424705505,8.263015829066156,13.68566639697768,2.6064508469353154,16.197792483491437,-15,-5,1,ok,120,247979.0,73,70.0,0,0,-5,0,0,0
1778078556.1955507,9.028522729873657,0.005144596099853516,1506,-0.0889248177409172,1.5006378889083862,2.9110422134399414,3,0.8223431282165443,1.33421401825795,2.897222591206253,2,1507,0,0.9354164022952318,1.4966888725757599,2.908172130584717,11.307327407868751,16.247485431780984,1.0949539378463768,19.82511942185167,14,8,23,ok,120,247979.0,73,70.0,0,0,-5,0,0,0
1778078556.2530174,9.085989475250244,0.0028998851776123047,1509,-0.061492979526519775,1.4693801403045654,2.924651622772217,3,0.8223431282165443,1.33421401825795,2.897222591206253,2,1510,0,0.9347145082429051,1.496601790189743,2.9082886576652527,11.237138002636083,16.2387771931793,1.1066066458999657,19.778668648034888,1,2,12,ok,120,247990.0,73,70.0,0,1,-5,0,0,0
1778078556.3179314,9.150903463363647,0.007781982421875,1512,-0.0901820957660675,1.5013368129730225,2.9098870754241943,3,0.8149598364075809,1.3315969313336433,2.8973000302418437,2,1513,0,0.9301903713494539,1.4940018355846405,2.910336673259735,11.523053494187307,16.24049042509972,1.3036643017891425,19.955796944482508,2,1,12,ok,120,247990.0,73,70.0,0,1,-5,0,0,0
1778078556.387099,9.220071077346802,-0.0029926300048828125,1516,-0.06117834523320198,1.4703670740127563,2.9240100383758545,3,0.8149598364075809,1.3315969313336433,2.8973000302418437,2,1517,0,0.9300584532320499,1.4946855157613754,2.9115433394908905,11.509861682446909,16.30885844277321,1.424330924904682,20.012108790407733,1,1,13,ok,130,247982.00000000003,73,70.0,0,0,-6,0,0,0
1778078556.4549425,9.287914514541626,0.004640340805053711,1519,-0.06117834523320198,1.4703670740127563,2.9240100383758545,3,0.8299235935926389,1.3777477156162228,2.869889298367375,3,1520,0,0.9291597851552069,1.4882143437862396,2.9153567254543304,9.923619156256802,11.046662817001685,4.54674270869555,15.529966059526041,-5,-11,-10,ok,130,247982.00000000003,73,70.0,0,0,-6,0,0,0
1778078556.521103,9.354074954986572,0.01080465316772461,1522,-0.03686287999153137,1.4425344467163086,2.9458136558532715,3,0.637089408147851,1.393251479663511,2.8420849651246862,3,1523,0,0.9313005502335727,1.4782640933990479,2.9218955636024475,29.421114208572174,8.501261373553692,7.9810598477761285,31.64760216049721,30,-15,-2,ok,130,247980.00000000003,73,70.0,0,0,-6,0,0,-1
1778078556.585942,9.418914079666138,-0.004290103912353516,1526,-0.06275814026594162,1.4734430313110352,2.933058977127075,3,0.8295849967682072,1.4087570575169595,2.858169012369748,3,1527,0,0.9310621973127127,1.478588044643402,2.9229394793510437,10.147720054450549,6.9830987126442645,6.477046698129563,13.91732818696832,-30,4,1,ok,130,247980.00000000003,73,70.0,0,0,-6,0,0,-1
1778078556.654706,9.487678050994873,0.004403591156005859,1529,-0.06275814026594162,1.4734430313110352,2.933058977127075,3,0.5745198964946134,1.3518380718880676,2.8106567376332916,3,1530,0,0.9343330319970846,1.4751886874437332,2.9256915748119354,35.981313550247116,12.335061555566561,11.503483717864382,39.7383795093356,30,-22,29,ok,130,247985.0,73,70.0,0,0,-6,0,0,0
1778078556.7236617,9.556633710861206,-0.006521940231323242,1533,-0.032760363072156906,1.4403542280197144,2.94598388671875,3,0.574477513754406,1.3654584759454464,2.8078254829041023,3,1534,0,0.9413535888306797,1.4676532298326492,2.9300592839717865,36.68760750762736,10.219475388720278,12.223380106768422,39.99786548165935,19,-7,1,ok,130,247989.0,73,70.0,0,-1,-6,0,0,0
1778078556.7914815,9.6244535446167,0.0010173320770263672,1536,-0.08904499560594559,1.4987677335739136,2.9102823734283447,3,0.6836266991567411,1.1261429229595936,2.813347725308387,3,1537,0,0.9379095868207514,1.4713266789913177,2.9282631278038025,25.42828876640103,34.518375603172416,11.491540249541554,44.386615338139926,-29,-1,30,ok,130,247989.0,73,70.0,0,-1,-6,0,0,0
1778078556.8606486,9.693620681762695,0.010245561599731445,1539,-0.06277786195278168,1.466464638710022,2.9245383739471436,3,0.558257333952463,1.2636238286111985,2.8071884110404253,3,1540,0,0.9413351160474122,1.4669676572084427,2.930094540119171,38.30777820949491,20.33438285972442,12.290612907874587,45.078067430679866,30,-8,-30,ok,130,247988.0,73,70.0,0,0,-6,0,0,0
1778078556.923148,9.756119966506958,-0.007235050201416016,1543,-0.06342119723558426,1.465019702911377,2.924481153488159,3,0.5219476123933307,1.3256148220981088,2.796436611005826,3,1544,0,0.9410547595471144,1.4662992358207703,2.9301534295082092,41.910714715378376,14.06844137226615,13.371681850238337,46.18691293107514,30,-9,-11,ok,130,247988.0,73,70.0,0,0,-6,0,0,0
1778078556.990058,9.8230299949646,-0.0008521080017089844,1546,-0.06241016834974289,1.4640922546386719,2.9243831634521484,3,0.7280375346509413,1.3660310838665262,2.8436494960994803,3,1547,0,0.9409007816575468,1.4655148833990097,2.930200070142746,21.286324700660543,9.948379953248354,8.655057404326572,25.039726468720318,-30,15,-6,ok,130,247988.0,73,70.0,0,0,-6,0,0,0
1778078557.052459,9.885431051254272,0.0018324851989746094,1549,-0.0897400826215744,1.494158148765564,2.910684823989868,3,0.7417729443756987,1.3659744051476708,2.844565966195359,3,1550,0,0.9342911313287914,1.4719678461551666,2.9258089661598206,19.251818695309264,10.599344100749587,8.12429999644615,23.4303834555777,0,0,12,ok,130,247984.0,73,70.0,1,1,-6,0,0,0
1778078557.1205335,9.953505516052246,-0.010098934173583984,1553,-0.06404945999383926,1.460243582725525,2.9249203205108643,3,0.5873179363336344,1.3847853465878526,2.815873789590885,3,1554,0,0.9341297163628042,1.4703179150819778,2.924791634082794,34.68117800291698,8.553256849412527,10.891784449190922,37.34398584631362,30,-14,1,ok,130,247984.0,73,70.0,1,1,-6,0,0,0
1778078557.1896038,10.022575855255127,-0.00103759765625,1556,-0.07156476378440857,1.4017765522003174,2.954911470413208,3,0.5865432607097665,1.3951254458021147,2.8053751893605194,3,1557,0,0.9330288884229958,1.4613596051931381,2.927523195743561,34.64856277132293,6.6234159391023395,12.214800638304135,37.33087054241001,17,-10,0,ok,130,247984.0,73,70.0,1,1,-6,0,0,0
1778078557.2587445,10.091716527938843,0.008302688598632812,1559,-0.07156476378440857,1.4017765522003174,2.954911470413208,3,0.9012389587358312,1.56552299382824,2.8497787030097053,3,1560,0,0.9281783383339643,1.4565373957157135,2.928639143705368,2.6939379598133195,-10.89855981125265,7.886044069566278,13.719533474499634,-30,15,-30,ok,130,247989.0,73,70.0,0,0,-6,0,0,0
1778078557.3177085,10.150680541992188,0.00724029541015625,1562,-0.028849922120571136,1.4826337099075317,2.91583251953125,3,0.9012389587358312,1.56552299382824,2.8497787030097053,3,1563,0,0.9357027225196362,1.4545206427574158,2.929332911968231,3.4463763783805,-11.100235107082423,7.955420895852594,14.084795035929076,1,-3,-6,ok,130,247992.0,73,70.0,0,0,-6,0,0,0
1778078557.3762453,10.209217309951782,0.005521535873413086,1565,-0.06376796215772629,1.4546760320663452,2.9252588748931885,3,0.8894566145096092,1.381657098068985,2.9003956782676465,2,1566,0,0.9355789599940181,1.4530470669269562,2.929422974586487,4.6122345484408855,7.138996885797111,2.9027296318840268,8.981304102471428,3,20,30,ok,130,247992.0,73,70.0,0,0,-6,0,0,0
1778078557.4409685,10.273940563201904,-0.010512113571166992,1569,-0.0647994801402092,1.4522736072540283,2.9258720874786377,3,0.8894566145096092,1.381657098068985,2.9003956782676465,2,1570,0,0.93540667463094,1.4514538049697876,2.9295968413352966,4.595006012133074,6.979670690080253,2.920116306765008,8.851946816296365,0,0,6,ok,130,247992.0,73,70.0,0,0,-6,0,0,0
1778078557.5076494,10.34062147140503,-0.003099203109741211,1572,-0.06317746639251709,1.4527920484542847,2.9258298873901367,3,0.8937954841800541,1.3873763134556651,2.898827770544879,2,1573,0,0.9353107623755932,1.4500412791967392,2.929777681827545,4.1515278195539125,6.266496574107405,3.094991128266633,8.129153254421956,-2,0,4,ok,130,247994.99999999997,73,70.0,0,0,-6,0,0,0
1778078557.5724316,10.40540361404419,0.0013470649719238281,1575,-0.03271860256791115,1.418271541595459,2.938168525695801,3,0.9026100225208343,1.4912631082649637,2.840212967411337,2,1576,0,0.9424384473823011,1.440555453300476,2.9332131445407867,3.982842486146676,-5.070765496448759,9.300017712944975,11.316626107215901,-1,-27,-30,ok,130,247994.99999999997,73,70.0,0,0,-6,0,0,0
