timestamp,elapsed,phase,mission_state,target_x,target_y,target_z,pos_x,pos_y,pos_z,marker_id,err_x_cm,err_y_cm,err_z_cm,err_3d_cm,cmd_lr,cmd_fb,cmd_ud,publish_count,tello_height_cm,tello_baro_cm,tello_battery,tello_temp_c,tello_pitch,tello_roll,tello_yaw,tello_vgx,tello_vgy,tello_vgz
1778195109.968181,2.8848648071289062e-05,wait_slave,2,0.026974975333745512,1.3993710751558104,3.7946008672556037,0.006200458252233032,1.356754489591172,3.818447762960194,2,2.077451708151248,4.261658556463832,-2.384689570459031,5.307003259753852,11,13,24,1,130,251683.0,73,83.5,0,0,1,0,0,0
1778195110.0429409,0.07478880882263184,wait_slave,2,0.026974975333745512,1.3993710751558104,3.7946008672556037,-0.056622697599511884,1.3540426040759814,3.7811714943162507,2,8.35976729332574,4.532847107982896,1.342937293935309,9.603951930239445,26,-13,4,4,130,251685.0,73,83.5,0,0,1,0,0,0
1778195110.115066,0.14691400527954102,wait_slave,2,0.026974975333745512,1.3993710751558104,3.7946008672556037,-0.06804629433866793,1.2828784955559769,3.7930654733812585,2,9.502126967241345,11.64925795998335,0.15353938743452034,15.033935022584885,9,4,30,8,130,251671.99999999997,73,83.5,0,0,1,0,0,0
1778195110.187105,0.21895289421081543,wait_slave,2,0.026974975333745512,1.3993710751558104,3.7946008672556037,-0.06804629433866793,1.2828784955559769,3.7930654733812585,2,9.502126967241345,11.64925795998335,0.15353938743452034,15.033935022584885,5,0,8,12,130,251671.99999999997,73,83.5,0,0,1,0,0,0
1778195110.260759,0.29260706901550293,wait_slave,2,0.026974975333745512,1.3993710751558104,3.7946008672556037,-0.06804629433866793,1.2828784955559769,3.7930654733812585,2,9.502126967241345,11.64925795998335,0.15353938743452034,15.033935022584885,5,0,8,15,130,251671.99999999997,73,83.5,0,0,1,0,0,0
1778195110.33565,0.36749792098999023,wait_slave,2,0.026974975333745512,1.3993710751558104,3.7946008672556037,-0.06804629433866793,1.2828784955559769,3.7930654733812585,2,9.502126967241345,11.64925795998335,0.15353938743452034,15.033935022584885,5,0,8,19,130,251671.99999999997,73,83.5,0,0,1,0,0,0
1778195110.411765,0.44361305236816406,wait_slave,2,0.026974975333745512,1.3993710751558104,3.7946008672556037,-0.06804629433866793,1.2828784955559769,3.7930654733812585,2,9.502126967241345,11.64925795998335,0.15353938743452034,15.033935022584885,6,0,8,23,130,251671.99999999997,73,83.5,0,0,1,0,0,0
1778195110.486906,0.5187540054321289,wait_slave,2,0.026974975333745512,1.3993710751558104,3.7946008672556037,-0.06804629433866793,1.2828784955559769,3.7930654733812585,2,9.502126967241345,11.64925795998335,0.15353938743452034,15.033935022584885,6,0,8,27,130,251671.99999999997,73,83.5,0,0,1,0,0,0
1778195110.563015,0.5948629379272461,wait_slave,2,0.026974975333745512,1.3993710751558104,3.7946008672556037,-0.06804629433866793,1.2828784955559769,3.7930654733812585,2,9.502126967241345,11.64925795998335,0.15353938743452034,15.033935022584885,6,0,8,31,130,251671.99999999997,73,83.5,0,0,1,0,0,0
1778195110.638015,0.6698629856109619,wait_slave,2,0.026974975333745512,1.3993710751558104,3.7946008672556037,-0.06804629433866793,1.2828784955559769,3.7930654733812585,2,9.502126967241345,11.64925795998335,0.15353938743452034,15.033935022584885,6,0,8,34,130,251679.0,73,83.5,0,0,1,0,0,0
1778195110.712011,0.743859052658081,wait_slave,2,0.026974975333745512,1.3993710751558104,3.7946008672556037,-0.056622697599511884,1.3540426040759814,3.7811714943162507,2,8.35976729332574,4.532847107982896,1.342937293935309,9.603951930239445,1,-4,-19,38,130,251681.0,73,83.5,0,1,1,0,0,0
1778195110.786877,0.8187248706817627,wait_slave,2,0.026974975333745512,1.3993710751558104,3.7946008672556037,-0.056622697599511884,1.3540426040759814,3.7811714943162507,2,8.35976729332574,4.532847107982896,1.342937293935309,9.603951930239445,5,0,3,42,130,251685.0,73,82.5,0,0,1,0,0,0
1778195110.861633,0.8934810161590576,wait_slave,2,0.026974975333745512,1.3993710751558104,3.7946008672556037,-0.056622697599511884,1.3540426040759814,3.7811714943162507,2,8.35976729332574,4.532847107982896,1.342937293935309,9.603951930239445,5,0,4,45,130,251679.0,73,82.5,0,0,1,0,0,0
1778195110.9368682,0.9687161445617676,wait_slave,2,0.026974975333745512,1.3993710751558104,3.7946008672556037,-0.056622697599511884,1.3540426040759814,3.7811714943162507,2,8.35976729332574,4.532847107982896,1.342937293935309,9.603951930239445,5,0,4,49,130,251684.0,73,82.5,0,0,1,0,0,0
1778195111.011957,1.0438048839569092,wait_slave,2,0.026974975333745512,1.3993710751558104,3.7946008672556037,0.029126990916439333,1.4866842622142902,3.749047447333545,2,-0.21520155826938203,-8.731318705847979,4.555341992205886,9.850552203796834,-28,-13,-30,53,130,251677.0,73,82.5,0,0,1,0,0,0
1778195111.083939,1.1157870292663574,wait_slave,2,0.026974975333745512,1.3993710751558104,3.7946008672556037,0.029126990916439333,1.4866842622142902,3.749047447333545,2,-0.21520155826938203,-8.731318705847979,4.555341992205886,9.850552203796834,0,-2,-5,57,130,251677.0,73,82.5,0,0,1,0,0,0
1778195111.158421,1.1902689933776855,wait_slave,2,0.026974975333745512,1.3993710751558104,3.7946008672556037,0.09189891692464636,1.4933625671008803,3.7822590445873825,2,-6.492394159090084,-9.399149194506995,1.2341822668221258,11.489925733673248,-24,10,-8,60,130,251677.0,73,82.5,0,0,1,0,0,0
1778195111.2316852,1.263533115386963,wait_slave,2,0.026974975333745512,1.3993710751558104,3.7946008672556037,0.09189891692464636,1.4933625671008803,3.7822590445873825,2,-6.492394159090084,-9.399149194506995,1.2341822668221258,11.489925733673248,-3,0,-5,64,130,251689.0,73,82.5,0,0,1,0,0,0
1778195111.307138,1.3389859199523926,wait_slave,2,0.026974975333745512,1.3993710751558104,3.7946008672556037,0.09189891692464636,1.4933625671008803,3.7822590445873825,2,-6.492394159090084,-9.399149194506995,1.2341822668221258,11.489925733673248,-3,0,-6,68,130,251682.00000000003,73,82.5,0,-1,1,0,0,0
1778195111.381732,1.4135799407958984,wait_slave,2,0.026974975333745512,1.3993710751558104,3.7946008672556037,0.09189891692464636,1.4933625671008803,3.7822590445873825,2,-6.492394159090084,-9.399149194506995,1.2341822668221258,11.489925733673248,-3,0,-6,72,130,251682.00000000003,73,82.5,0,-1,1,0,0,0
1778195111.4555662,1.4874141216278076,wait_slave,2,0.026974975333745512,1.3993710751558104,3.7946008672556037,0.01870687644703395,1.427444946976133,3.7812647310357885,2,0.8268098886711563,-2.8073871820322616,1.333613621981522,3.2161409599981976,26,-1,21,75,130,251683.0,73,82.5,0,-2,1,0,0,0
1778195111.52833,1.5601780414581299,wait_slave,2,0.026974975333745512,1.3993710751558104,3.7946008672556037,0.01870687644703395,1.427444946976133,3.7812647310357885,2,0.8268098886711563,-2.8073871820322616,1.333613621981522,3.2161409599981976,1,0,-1,79,130,251683.0,73,82.5,0,-2,1,0,0,0
1778195111.6010509,1.6328988075256348,wait_slave,2,0.026974975333745512,1.3993710751558104,3.7946008672556037,0.01870687644703395,1.427444946976133,3.7812647310357885,2,0.8268098886711563,-2.8073871820322616,1.333613621981522,3.2161409599981976,1,0,-1,82,130,251683.0,73,82.5,0,-2,1,0,0,0
1778195111.6752121,1.7070600986480713,wait_slave,2,0.026974975333745512,1.3993710751558104,3.7946008672556037,0.013820192557634225,1.3516350138747888,3.8004670588027247,2,1.3154782776111287,4.773606128102159,-0.586619154712098,4.986172941023644,3,6,29,86,130,251671.99999999997,72,83.0,0,-1,1,0,0,0
1778195111.746707,1.778554916381836,wait_slave,2,0.026974975333745512,1.3993710751558104,3.7946008672556037,0.013820192557634225,1.3516350138747888,3.8004670588027247,2,1.3154782776111287,4.773606128102159,-0.586619154712098,4.986172941023644,1,0,3,90,130,251671.99999999997,72,83.0,0,-1,1,0,0,0
1778195111.82194,1.853787899017334,wait_slave,2,0.026974975333745512,1.3993710751558104,3.7946008672556037,0.018202431436281086,1.4201868418774248,3.786448481873989,2,0.8772543897464427,-2.081576672161445,0.8152385381614558,2.4014892422244465,0,-5,-23,94,130,251671.99999999997,72,83.0,0,-1,1,0,0,0
1778195111.8965912,1.9284391403198242,wait_slave,2,0.026974975333745512,1.3993710751558104,3.7946008672556037,0.018202431436281086,1.4201868418774248,3.786448481873989,2,0.8772543897464427,-2.081576672161445,0.8152385381614558,2.4014892422244465,1,0,-1,97,130,251671.99999999997,72,83.0,0,-1,1,0,0,0
1778195111.973153,2.0050010681152344,wait_slave,2,0.026974975333745512,1.3993710751558104,3.7946008672556037,0.018202431436281086,1.4201868418774248,3.786448481873989,2,0.8772543897464427,-2.081576672161445,0.8152385381614558,2.4014892422244465,1,0,-1,101,130,251671.99999999997,72,83.0,0,-1,1,0,0,0
1778195112.048459,2.0803070068359375,wait_slave,2,0.026974975333745512,1.3993710751558104,3.7946008672556037,-0.05811620983171828,1.3585739880117855,3.7782066834305827,2,8.50911851654638,4.079708714402486,1.6394183825021003,9.57793368926147,30,-3,23,105,130,251671.99999999997,72,83.0,0,-1,1,0,0,0
1778195112.1254091,2.157257080078125,wait_slave,2,0.026974975333745512,1.3993710751558104,3.7946008672556037,-0.05811620983171828,1.3585739880117855,3.7782066834305827,2,8.50911851654638,4.079708714402486,1.6394183825021003,9.57793368926147,5,-1,3,109,130,251671.99999999997,72,83.0,0,0,1,0,0,0
1778195112.200879,2.23272705078125,wait_slave,2,0.026974975333745512,1.3993710751558104,3.7946008672556037,-0.050630341016540736,1.345353509028028,3.7667460173567546,2,7.7605316350286255,5.401756612778241,2.785484989884912,9.8571675643081,2,-5,8,112,130,251669.0,72,83.0,0,0,1,0,0,0
1778195112.273976,2.305824041366577,wait_slave,2,0.026974975333745512,1.3993710751558104,3.7946008672556037,-0.050630341016540736,1.345353509028028,3.7667460173567546,2,7.7605316350286255,5.401756612778241,2.785484989884912,9.8571675643081,5,-1,4,116,130,251669.99999999997,72,83.0,0,0,1,0,0,0
1778195112.350295,2.382143020629883,wait_slave,2,0.026974975333745512,1.3993710751558104,3.7946008672556037,-0.050630341016540736,1.345353509028028,3.7667460173567546,2,7.7605316350286255,5.401756612778241,2.785484989884912,9.8571675643081,5,-1,4,120,130,251669.99999999997,72,83.0,0,0,1,0,0,0
1778195112.4269598,2.4588077068328857,wait_slave,2,0.026974975333745512,1.3993710751558104,3.7946008672556037,-0.050630341016540736,1.345353509028028,3.7667460173567546,2,7.7605316350286255,5.401756612778241,2.785484989884912,9.8571675643081,5,-1,4,124,130,251669.99999999997,72,83.0,0,0,1,0,0,0
1778195112.5039842,2.535832166671753,wait_slave,2,0.026974975333745512,1.3993710751558104,3.7946008672556037,-0.050630341016540736,1.345353509028028,3.7667460173567546,2,7.7605316350286255,5.401756612778241,2.785484989884912,9.8571675643081,5,-1,4,128,130,251667.0,72,83.0,0,0,1,0,0,0
1778195112.579989,2.6118369102478027,wait_slave,2,0.026974975333745512,1.3993710751558104,3.7946008672556037,-0.050630341016540736,1.345353509028028,3.7667460173567546,2,7.7605316350286255,5.401756612778241,2.785484989884912,9.8571675643081,5,-1,4,131,130,251671.99999999997,72,82.0,0,0,1,0,0,0
1778195112.6569579,2.6888058185577393,wait_slave,2,0.026974975333745512,1.3993710751558104,3.7946008672556037,-0.050630341016540736,1.345353509028028,3.7667460173567546,2,7.7605316350286255,5.401756612778241,2.785484989884912,9.8571675643081,5,-1,4,135,130,251671.99999999997,72,82.0,0,0,1,0,0,0
1778195112.7336268,2.765474796295166,wait_slave,2,0.026974975333745512,1.3993710751558104,3.7946008672556037,-0.050630341016540736,1.345353509028028,3.7667460173567546,2,7.7605316350286255,5.401756612778241,2.785484989884912,9.8571675643081,5,-1,4,139,130,251661.0,72,82.0,0,0,1,0,0,0
1778195112.807651,2.839498996734619,wait_slave,2,0.026974975333745512,1.3993710751558104,3.7946008672556037,-0.050630341016540736,1.345353509028028,3.7667460173567546,2,7.7605316350286255,5.401756612778241,2.785484989884912,9.8571675643081,5,-1,4,143,130,251661.0,72,82.0,0,0,1,0,0,0
1778195112.882259,2.914106845855713,wait_slave,2,0.026974975333745512,1.3993710751558104,3.7946008672556037,-0.050630341016540736,1.345353509028028,3.7667460173567546,2,7.7605316350286255,5.401756612778241,2.785484989884912,9.8571675643081,5,-2,4,147,130,251665.0,72,82.0,0,0,1,0,0,0
1778195112.9593658,2.991213798522949,wait_slave,2,0.026974975333745512,1.3993710751558104,3.7946008672556037,,,,,,,,,0,0,0,150,130,251669.99999999997,72,82.0,0,0,1,0,0,0
1778195113.0304482,3.062296152114868,wait_slave,2,0.026974975333745512,1.3993710751558104,3.7946008672556037,,,,,,,,,0,0,0,154,130,251669.99999999997,72,82.0,0,0,1,0,0,0
1778195113.100527,3.1323750019073486,wait_slave,2,0.026974975333745512,1.3993710751558104,3.7946008672556037,,,,,,,,,0,0,0,157,130,251663.0,72,82.0,0,0,1,0,0,0
1778195113.171888,3.2037360668182373,wait_slave,2,0.026974975333745512,1.3993710751558104,3.7946008672556037,,,,,,,,,0,0,0,161,120,251666.0,72,82.0,0,0,1,0,0,0
1778195113.244545,3.276392936706543,wait_slave,2,0.026974975333745512,1.3993710751558104,3.7946008672556037,,,,,,,,,0,0,0,165,120,251663.0,72,82.0,0,0,1,0,0,0
1778195113.317116,3.348963975906372,wait_slave,2,0.026974975333745512,1.3993710751558104,3.7946008672556037,,,,,,,,,0,0,0,168,120,251663.0,72,82.0,0,0,1,0,0,0
1778195113.3909838,3.4228317737579346,wait_slave,2,0.026974975333745512,1.3993710751558104,3.7946008672556037,,,,,,,,,0,0,0,172,120,251667.0,72,82.0,0,0,1,0,0,0
1778195113.465682,3.497529983520508,wait_slave,2,0.026974975333745512,1.3993710751558104,3.7946008672556037,,,,,,,,,0,0,0,176,120,251667.99999999997,72,83.0,0,0,1,0,0,0
1778195113.539871,3.57171893119812,wait_slave,2,0.026974975333745512,1.3993710751558104,3.7946008672556037,,,,,,,,,0,0,0,179,120,251667.99999999997,72,83.0,0,0,1,0,0,0
1778195113.614089,3.645936965942383,wait_slave,2,0.026974975333745512,1.3993710751558104,3.7946008672556037,,,,,,,,,0,0,0,183,120,251673.99999999997,71,83.0,0,0,1,0,0,0
1778195113.687893,3.719740867614746,wait_slave,2,0.026974975333745512,1.3993710751558104,3.7946008672556037,,,,,,,,,0,0,0,187,120,251667.0,71,83.0,0,0,1,0,0,0
1778195113.766865,3.798712968826294,wait_slave,2,0.026974975333745512,1.3993710751558104,3.7946008672556037,,,,,,,,,0,0,0,191,120,251673.99999999997,71,83.0,0,0,1,0,0,0
1778195113.8399072,3.8717551231384277,wait_slave,2,0.026974975333745512,1.3993710751558104,3.7946008672556037,0.08991958892187357,1.4116117939126172,3.7824532451127078,2,-6.294461358812805,-1.2240718756806768,1.2147622142895997,6.526426510096145,-6,0,-1,194,120,251673.99999999997,71,83.0,0,0,1,0,0,0
1778195113.912399,3.944247007369995,wait_slave,2,0.026974975333745512,1.3993710751558104,3.7946008672556037,0.013659569672911598,1.3426897427985809,3.7797128937477753,2,1.3315405660833914,5.66813323572295,1.4887973507828445,6.009763074259318,27,-2,28,198,120,251659.0,71,83.0,0,0,1,0,0,0
1778195113.985405,4.0172529220581055,wait_slave,2,0.026974975333745512,1.3993710751558104,3.7946008672556037,0.014171600482495106,1.342962993279281,3.780179998430402,2,1.2803374851250406,5.640808187652935,1.4420868825201882,5.961341766955279,1,-1,4,202,120,251669.0,71,83.0,0,0,1,0,0,0
1778195114.057313,4.089160919189453,wait_slave,2,0.026974975333745512,1.3993710751558104,3.7946008672556037,0.08726896023101982,1.4122111941179178,3.782181719953772,2,-6.029398489727431,-1.284011896210746,1.241914730183158,6.2884564795014715,-28,0,-24,205,130,251669.99999999997,71,83.0,0,0,1,0,0,0
1778195114.129527,4.161375045776367,wait_slave,2,0.026974975333745512,1.3993710751558104,3.7946008672556037,0.009992940125802319,1.3397341661638587,3.7823039000281753,2,1.6982035207943194,5.963690899195173,1.2296967227428457,6.321523421542157,28,-1,30,209,130,251669.99999999997,71,83.0,0,0,1,0,0,0
1778195114.20095,4.232797861099243,wait_slave,2,0.026974975333745512,1.3993710751558104,3.7946008672556037,0.02769019752503743,1.406248537585662,3.7503847676903805,2,-0.07152221912919178,-0.6877462429851544,4.421609956522321,4.4753485819751155,-5,-14,-22,212,130,251671.0,71,83.0,0,0,1,0,0,0
1778195114.271636,4.303483963012695,wait_slave,2,0.026974975333745512,1.3993710751558104,3.7946008672556037,0.028193516468669078,1.4065779365770599,3.750842187662571,2,-0.12185411349235654,-0.7206861421249489,4.375867959303292,4.436491557264942,0,-2,0,216,130,251667.0,71,83.0,0,-1,1,0,0,0
1778195114.343014,4.3748619556427,wait_slave,2,0.026974975333745512,1.3993710751558104,3.7946008672556037,0.01618024773235771,1.3447387523632774,3.781690110645145,2,1.0794727601387801,5.463232279253294,1.2910756610458929,5.716558819736036,5,9,26,219,130,251667.0,71,83.0,0,-1,1,0,0,0
1778195114.413603,4.445451021194458,wait_slave,2,0.026974975333745512,1.3993710751558104,3.7946008672556037,-0.05033180414108318,1.338394060043036,3.7467836921298345,2,7.73067794748287,6.097701511277442,4.781717512576922,10.94578309754117,28,-15,7,223,130,251666.0,71,83.0,0,0,1,0,0,0
1778195114.48501,4.516857862472534,wait_slave,2,0.026974975333745512,1.3993710751558104,3.7946008672556037,0.02855250907762319,1.4074518198760697,3.750869943002725,2,-0.1577533743877677,-0.8080744720259325,4.373092425287872,4.449922228486795,-26,-1,-23,227,130,251677.0,71,82.5,0,0,1,0,0,0
1778195114.557207,4.589055061340332,wait_slave,2,0.026974975333745512,1.3993710751558104,3.7946008672556037,-0.05582828965315789,1.2733805895413126,3.7573865514215035,2,8.280326498690341,12.599048561449777,3.7214315834100287,15.528969206250775,30,0,30,230,130,251677.0,71,82.5,0,0,1,0,0,0
1778195114.629727,4.661574840545654,wait_slave,2,0.026974975333745512,1.3993710751558104,3.7946008672556037,0.02060305548676411,1.3373793394153042,3.767387352696034,2,0.6371919846981402,6.19917357405062,2.7213514559569774,6.8001117912436015,-25,1,-16,234,130,251671.0,71,82.5,0,0,1,0,0,0
1778195114.70114,4.732987880706787,wait_slave,2,0.026974975333745512,1.3993710751558104,3.7946008672556037,0.02549539523071831,1.4124661429165548,3.749046759575948,2,0.14795801030272027,-1.3095067760744428,4.555410767965595,4.742200632016165,0,-9,-26,237,130,251671.0,71,82.5,0,0,1,0,0,0
1778195114.772783,4.804630994796753,wait_slave,2,0.026974975333745512,1.3993710751558104,3.7946008672556037,0.02549539523071831,1.4124661429165548,3.749046759575948,2,0.14795801030272027,-1.3095067760744428,4.555410767965595,4.742200632016165,0,-3,0,241,130,251671.0,71,82.5,0,0,1,0,0,0
1778195114.846699,4.878546953201294,wait_slave,2,0.026974975333745512,1.3993710751558104,3.7946008672556037,0.02117281028684892,1.3377612926051712,3.767897475934938,2,0.5802165046896592,6.16097825506392,2.670339132066557,6.739808256317885,2,4,30,245,130,251673.0,71,82.5,0,0,1,0,0,0
1778195114.921062,4.95290994644165,wait_slave,2,0.026974975333745512,1.3993710751558104,3.7946008672556037,0.02117281028684892,1.3377612926051712,3.767897475934938,2,0.5802165046896592,6.16097825506392,2.670339132066557,6.739808256317885,1,-2,5,248,130,251673.0,71,82.5,0,0,1,0,0,0
1778195114.998699,5.0305469036102295,wait_slave,2,0.026974975333745512,1.3993710751558104,3.7946008672556037,0.02117281028684892,1.3377612926051712,3.767897475934938,2,0.5802165046896592,6.16097825506392,2.670339132066557,6.739808256317885,1,-2,5,252,130,251673.0,71,82.5,0,0,1,0,0,0
1778195115.0750132,5.106861114501953,wait_slave,2,0.026974975333745512,1.3993710751558104,3.7946008672556037,0.02117281028684892,1.3377612926051712,3.767897475934938,2,0.5802165046896592,6.16097825506392,2.670339132066557,6.739808256317885,1,-2,5,256,130,251673.0,71,82.5,0,0,1,0,0,0
1778195115.1506891,5.182537078857422,wait_slave,2,0.026974975333745512,1.3993710751558104,3.7946008672556037,0.02117281028684892,1.3377612926051712,3.767897475934938,2,0.5802165046896592,6.16097825506392,2.670339132066557,6.739808256317885,1,-2,5,260,130,251675.0,71,82.5,0,0,1,0,0,0
1778195115.2266529,5.258500814437866,wait_slave,2,0.026974975333745512,1.3993710751558104,3.7946008672556037,0.035363818515454115,1.4708988835175512,3.7171992034596126,2,-0.8388843181708603,-7.1527808361740775,7.740166379599112,10.572425273960963,-4,-22,-30,264,130,251675.0,71,82.5,0,0,1,0,0,0
1778195115.3011,5.3329479694366455,wait_slave,2,0.026974975333745512,1.3993710751558104,3.7946008672556037,0.03587365708502388,1.4713169678088351,3.717658283099796,2,-0.8898681751278368,-7.194589265302476,7.694258415580757,10.57145177500452,0,-5,-3,267,130,251675.0,71,82.5,0,0,1,0,0,0
1778195115.374534,5.406381845474243,wait_slave,2,0.026974975333745512,1.3993710751558104,3.7946008672556037,0.027352352800016466,1.4131308682574488,3.7510040246657126,2,-0.037737746627095406,-1.375979310163844,4.359684258989116,4.571825678828638,3,8,20,271,130,251667.99999999997,71,82.5,0,0,1,0,0,0
1778195115.444195,5.476042985916138,wait_slave,2,0.026974975333745512,1.3993710751558104,3.7946008672556037,-0.04263452190687178,1.3486360192492826,3.7469353954314504,2,6.96094972406173,5.073505590652783,4.766547182415337,9.84455443793632,30,-5,27,274,130,251667.99999999997,71,82.5,0,0,1,0,0,0
1778195115.514247,5.54609489440918,wait_slave,2,0.026974975333745512,1.3993710751558104,3.7946008672556037,-0.035373277937745584,1.3363380783407934,3.7351669494078723,2,6.23482532714911,6.303299681501695,5.943391784773144,10.673731289581365,2,-8,10,278,130,251667.0,71,82.5,0,0,1,0,0,0
1778195115.5838678,5.615715742111206,wait_slave,2,0.026974975333745512,1.3993710751558104,3.7946008672556037,0.040209306257332655,1.4043912224956374,3.7381622818286635,2,-1.3234330923587143,-0.502014733982703,5.643858542694025,5.818645305655449,-26,-3,-23,281,130,251667.0,71,82.5,0,0,1,0,0,0
1778195115.656181,5.688029050827026,wait_slave,2,0.026974975333745512,1.3993710751558104,3.7946008672556037,0.040209306257332655,1.4043912224956374,3.7381622818286635,2,-1.3234330923587143,-0.502014733982703,5.643858542694025,5.818645305655449,0,-4,0,285,130,251667.0,71,82.5,0,0,1,0,0,0
1778195115.727534,5.759382009506226,wait_slave,2,0.026974975333745512,1.3993710751558104,3.7946008672556037,-0.07473475748240288,1.460973337390238,3.6525776161217105,2,10.17097328161484,-6.160226223442766,14.202325113389325,18.523043034170275,30,-30,-22,289,130,251681.0,71,82.5,0,0,1,0,0,0
1778195115.79918,5.831027984619141,wait_slave,2,0.026974975333745512,1.3993710751558104,3.7946008672556037,-0.07473475748240288,1.460973337390238,3.6525776161217105,2,10.17097328161484,-6.160226223442766,14.202325113389325,18.523043034170275,7,-9,-3,292,130,251681.0,71,82.5,0,0,1,0,0,0
1778195115.8714921,5.903340101242065,wait_slave,2,0.026974975333745512,1.3993710751558104,3.7946008672556037,0.04419432534046075,1.4760473905718956,3.7189099376008325,2,-1.7219350006715237,-7.667631541608522,7.56909296547712,10.910948717890792,-30,17,-9,296,130,251673.0,71,82.5,0,0,1,0,0,0
1778195115.941657,5.973505020141602,wait_slave,2,0.026974975333745512,1.3993710751558104,3.7946008672556037,0.05246512506430778,1.531876857453724,3.6861345311583755,2,-2.5490149730562273,-13.250578229791365,10.846633609722822,17.312560799034163,-3,-19,-28,299,130,251673.0,71,82.5,0,0,1,0,0,0
1778195116.012573,6.044420957565308,wait_slave,2,0.026974975333745512,1.3993710751558104,3.7946008672556037,-0.025579029064749514,1.4053206548097301,3.7227381224722182,2,5.255400439849503,-0.5949579653919734,7.18627447833855,8.922765806731324,30,7,30,303,130,251673.0,71,82.5,0,0,1,0,0,0
1778195116.083222,6.11506986618042,wait_slave,2,0.026974975333745512,1.3993710751558104,3.7946008672556037,-0.023428808988606997,1.3998395355986009,3.7061864690061626,2,5.040378432235252,-0.04684604427904748,8.84143982494412,10.177360535527608,3,-12,2,306,130,251671.99999999997,71,82.5,0,0,1,0,0,0
1778195116.154581,6.186429023742676,wait_slave,2,0.026974975333745512,1.3993710751558104,3.7946008672556037,0.04171555872065735,1.4093909275398766,3.7388317573401784,2,-1.474058338691184,-1.001985238406622,5.5769109915425386,5.854806453798261,-22,6,-3,310,130,251673.0,71,82.5,0,-1,1,0,0,0
1778195116.22678,6.258627891540527,wait_slave,2,0.026974975333745512,1.3993710751558104,3.7946008672556037,-0.017757520259552573,1.4690227840904928,3.6887788164801196,2,4.473249559329809,-6.965170893468242,10.582205077548412,13.435275639098473,24,-25,-24,314,130,251673.99999999997,71,82.5,-1,-2,1,0,0,0
1778195116.296482,6.328330039978027,wait_slave,2,0.026974975333745512,1.3993710751558104,3.7946008672556037,-0.017388443838622036,1.4046870885583624,3.7051582907097647,2,4.4363419172367555,-0.5316013402552056,8.94425765458391,9.998173562365071,3,0,23,317,130,251687.0,71,82.5,-1,-2,1,0,0,0
1778195116.366085,6.397933006286621,wait_slave,2,0.026974975333745512,1.3993710751558104,3.7946008672556037,-0.017388443838622036,1.4046870885583624,3.7051582907097647,2,4.4363419172367555,-0.5316013402552056,8.94425765458391,9.998173562365071,3,-6,0,321,130,251687.0,71,82.5,-1,-2,1,0,0,0
1778195116.439279,6.471127033233643,wait_slave,2,0.026974975333745512,1.3993710751558104,3.7946008672556037,-0.09106011137616443,1.338901777184175,3.69971737282053,2,11.803508670990995,6.046929797163547,9.48834944350736,16.306960234209512,30,-9,27,324,130,251676.00000000003,71,82.5,0,-1,1,0,0,0
1778195116.511459,6.543307065963745,wait_slave,2,0.026974975333745512,1.3993710751558104,3.7946008672556037,-0.039118329933241824,1.2708478108319432,3.7475956204842173,2,6.609330526698734,12.852326432386718,4.70052467713864,15.19738388592482,-12,12,30,328,130,251682.00000000003,70,81.5,0,0,1,0,0,0
1778195116.582081,6.613929033279419,wait_slave,2,0.026974975333745512,1.3993710751558104,3.7946008672556037,0.04602942962702905,1.400125564427913,3.723069061466109,2,-1.9054454293283538,-0.0754489272102532,7.153180578949492,7.402999879766694,-30,-14,-30,331,130,251682.00000000003,70,81.5,0,0,1,0,0,0
1778195116.653496,6.685343980789185,wait_slave,2,0.026974975333745512,1.3993710751558104,3.7946008672556037,0.11359154769750646,1.4027146228663847,3.7362150749413647,2,-8.661657236376094,-0.3343547710574324,5.838579231423902,10.451081601203281,-27,0,0,335,130,251682.00000000003,70,81.5,1,0,1,0,0,0
1778195116.7259772,6.757825136184692,wait_slave,2,0.026974975333745512,1.3993710751558104,3.7946008672556037,-0.030211234284045263,1.3403299989148985,3.7127786291489553,2,5.718620961779078,5.904107624091193,8.182223810664846,11.597840274342529,30,-14,26,339,130,251680.00000000003,70,81.5,1,1,1,0,0,0
1778195116.797005,6.828852891921997,wait_slave,2,0.026974975333745512,1.3993710751558104,3.7946008672556037,0.04408398416277892,1.4008634378009903,3.7207099928661114,2,-1.710900882903341,-0.14923626451799343,7.389087438949238,7.58604419142178,-26,-3,-20,342,130,251680.00000000003,70,81.5,1,1,1,0,0,0
1778195116.8669498,6.8987977504730225,wait_slave,2,0.026974975333745512,1.3993710751558104,3.7946008672556037,0.024652808024088757,1.2630882831582775,3.7669726508378365,2,0.23221673096567552,13.62827919975329,2.762821641776725,13.907447716271971,8,12,30,346,130,251675.0,70,81.5,0,0,1,0,0,0
1778195116.938438,6.970285892486572,wait_slave,2,0.026974975333745512,1.3993710751558104,3.7946008672556037,-0.021876385931811182,1.4071514939585619,3.6987221080124932,2,4.88513612655567,-0.7780418802751488,9.587875924311051,10.788756595753975,20,-30,-30,349,130,251671.99999999997,70,81.5,0,-1,1,0,0,0
1778195117.010298,7.0421459674835205,wait_slave,2,0.026974975333745512,1.3993710751558104,3.7946008672556037,0.03774996962374333,1.408564640124823,3.7339688389645787,2,-1.0774994289997817,-0.9193564969012691,6.06320282910251,6.226447617600754,-20,6,0,353,130,251675.0,70,81.5,0,-1,1,0,0,0
1778195117.082463,7.11431097984314,wait_slave,2,0.026974975333745512,1.3993710751558104,3.7946008672556037,-0.02804744905512302,1.4027751474250234,3.6994222274594986,2,5.502242438886854,-0.3404072269213021,9.517863979610519,10.999103766707321,27,-19,3,356,130,251669.0,70,81.5,0,0,1,0,0,0
1778195117.154736,7.186583995819092,wait_slave,2,0.026974975333745512,1.3993710751558104,3.7946008672556037,-0.0956426626853637,1.343067944266729,3.6919618555947853,2,12.261763801910922,5.630313088908134,10.263901166081846,16.952844721759224,30,-10,25,360,130,251669.0,70,81.5,0,0,1,0,0,0
1778195117.226961,7.258808851242065,wait_slave,2,0.026974975333745512,1.3993710751558104,3.7946008672556037,0.028980156017485714,1.4142220961810854,3.749305346305977,2,-0.2005180683740202,-1.4851021025275024,4.5295520949626855,4.771014350393102,-30,15,-24,364,130,251679.0,70,81.5,0,0,1,0,0,0
1778195117.298423,7.330271005630493,wait_slave,2,0.026974975333745512,1.3993710751558104,3.7946008672556037,-0.03103160598729371,1.4089303508157527,3.7147144645544503,2,5.800658132103923,-0.9559275659942301,7.988640270115344,9.918659468006732,25,-18,2,367,130,251673.0,70,81.5,0,0,1,0,0,0
1778195117.370708,7.4025559425354,wait_slave,2,0.026974975333745512,1.3993710751558104,3.7946008672556037,-0.10839359864487208,1.348085071135761,3.70572285129394,2,13.536857397861759,5.128600402004935,8.887801596166378,16.986526057623067,30,-10,25,371,130,251679.0,70,81.5,0,0,1,0,0,0
1778195117.4424691,7.4743170738220215,wait_slave,2,0.026974975333745512,1.3993710751558104,3.7946008672556037,-0.05020188074101495,1.3453388565269693,3.744721709694507,2,7.717685607476047,5.403221862884111,4.987915756109684,10.66005540442633,-14,8,6,374,130,251679.0,70,81.5,0,0,1,0,0,0
1778195117.513909,7.545757055282593,wait_slave,2,0.026974975333745512,1.3993710751558104,3.7946008672556037,0.028208760220720275,1.4142440079518597,3.7484735616310187,2,-0.12337848869747627,-1.4872932796049287,4.6127305624585,4.848148800611423,-25,-3,-23,378,130,251680.00000000003,70,82.5,0,0,1,0,0,0
1778195117.586441,7.618288993835449,wait_slave,2,0.026974975333745512,1.3993710751558104,3.7946008672556037,0.028208760220720275,1.4142440079518597,3.7484735616310187,2,-0.12337848869747627,-1.4872932796049287,4.6127305624585,4.848148800611423,1,-4,0,382,130,251676.00000000003,70,82.5,0,0,1,0,0,0
1778195117.660761,7.692609071731567,wait_slave,2,0.026974975333745512,1.3993710751558104,3.7946008672556037,-0.05235512046402535,1.3491670873720438,3.7414183333334865,2,7.933009579777087,5.020398778376656,5.318253392211725,10.789850046712065,30,-7,27,385,130,251676.00000000003,70,82.5,0,0,1,0,0,0
1778195117.731869,7.76371693611145,wait_slave,2,0.026974975333745512,1.3993710751558104,3.7946008672556037,-0.05235512046402535,1.3491670873720438,3.7414183333334865,2,7.933009579777087,5.020398778376656,5.318253392211725,10.789850046712065,6,-5,4,389,130,251678.00000000003,70,82.5,0,0,1,0,0,0
1778195117.8032908,7.83513879776001,wait_slave,2,0.026974975333745512,1.3993710751558104,3.7946008672556037,-0.05235512046402535,1.3491670873720438,3.7414183333334865,2,7.933009579777087,5.020398778376656,5.318253392211725,10.789850046712065,6,-5,4,392,130,251667.99999999997,70,82.5,0,-1,1,0,0,0
1778195117.8752158,7.907063722610474,wait_slave,2,0.026974975333745512,1.3993710751558104,3.7946008672556037,-0.05235512046402535,1.3491670873720438,3.7414183333334865,2,7.933009579777087,5.020398778376656,5.318253392211725,10.789850046712065,6,-5,4,396,130,251679.0,70,82.5,0,0,1,0,0,0
1778195117.9463081,7.978156089782715,wait_slave,2,0.026974975333745512,1.3993710751558104,3.7946008672556037,-0.054195892902295206,1.353657553546621,3.7590059296413663,2,8.117086823604073,4.571352160918929,3.5594937614237487,9.97268042798322,7,1,3,400,130,251679.0,70,82.5,0,0,1,0,0,0
1778195118.017202,8.049049854278564,wait_slave,2,0.026974975333745512,1.3993710751558104,3.7946008672556037,-0.05892398029193213,1.3575544958200332,3.7552229287081746,2,8.589895562567765,4.18165793357772,3.9377938547429103,10.333382277440716,8,-6,3,403,130,251685.0,70,82.5,0,0,1,0,0,0
1778195118.0909271,8.122775077819824,wait_slave,2,0.026974975333745512,1.3993710751558104,3.7946008672556037,-0.05892398029193213,1.3575544958200332,3.7552229287081746,2,8.589895562567765,4.18165793357772,3.9377938547429103,10.333382277440716,6,-4,4,407,130,251679.0,70,82.5,0,0,1,0,0,0
1778195118.163435,8.195282936096191,wait_slave,2,0.026974975333745512,1.3993710751558104,3.7946008672556037,-0.05892398029193213,1.3575544958200332,3.7552229287081746,2,8.589895562567765,4.18165793357772,3.9377938547429103,10.333382277440716,6,-4,4,410,130,251679.0,70,82.5,0,0,1,0,0,0
1778195118.234514,8.266361951828003,wait_slave,2,0.026974975333745512,1.3993710751558104,3.7946008672556037,-0.054195892902295206,1.353657553546621,3.7590059296413663,2,8.117086823604073,4.571352160918929,3.5594937614237487,9.97268042798322,5,-3,6,414,130,251675.0,70,82.5,0,0,1,0,0,0
1778195118.3063822,8.33823013305664,wait_slave,2,0.026974975333745512,1.3993710751558104,3.7946008672556037,-0.04645252053741111,1.4247905675563395,3.742672162551347,2,7.342749587115663,-2.54194924005291,5.192870470425692,9.345768088322755,3,-11,-24,418,130,251675.0,70,82.5,0,0,1,0,0,0
1778195118.377267,8.409114837646484,wait_slave,2,0.026974975333745512,1.3993710751558104,3.7946008672556037,-0.058675997167841,1.3570507186255654,3.7555964834834485,2,8.56509725015865,4.232035653024502,3.9004383772155204,10.319129624517828,11,0,28,421,130,251675.0,70,82.5,0,0,1,0,0,0
1778195118.449806,8.481653928756714,wait_slave,2,0.026974975333745512,1.3993710751558104,3.7946008672556037,-0.058675997167841,1.3570507186255654,3.7555964834834485,2,8.56509725015865,4.232035653024502,3.9004383772155204,10.319129624517828,7,-4,4,425,130,251673.0,70,82.5,0,0,1,0,0,0
1778195118.5219572,8.553805112838745,wait_slave,2,0.026974975333745512,1.3993710751558104,3.7946008672556037,-0.07610997837679667,1.2864221081907576,3.7873825379304846,2,10.308495371054219,11.294896696505274,0.7218329325119122,15.30884747400113,14,8,30,428,130,251683.0,70,82.0,0,0,1,0,0,0
1778195118.594217,8.626065015792847,wait_slave,2,0.026974975333745512,1.3993710751558104,3.7946008672556037,0.01939184044347697,1.4886933102027387,3.7436217614735545,2,0.7583134890268541,-8.932223504692827,5.097910578204923,10.312533556250896,-30,-20,-30,432,130,251683.0,70,82.0,0,0,1,0,0,0
1778195118.664602,8.696449995040894,wait_slave,2,0.026974975333745512,1.3993710751558104,3.7946008672556037,0.00833181499028579,1.3544892021274395,3.7964288671694577,2,1.8643160343459722,4.488187302837088,-0.18279999138539615,4.863426300265898,7,16,30,435,130,251684.0,70,82.0,0,0,1,0,0,0
1778195118.73481,8.766658067703247,wait_slave,2,0.026974975333745512,1.3993710751558104,3.7946008672556037,0.005097759394305013,1.3541632546217492,3.7955412921009883,2,2.1877215939440497,4.520782053406114,-0.09404248453845909,5.023190234891175,4,-2,5,439,130,251689.0,70,82.0,0,0,1,0,0,0
1778195118.8067389,8.838586807250977,wait_slave,2,0.026974975333745512,1.3993710751558104,3.7946008672556037,0.008583789431278466,1.353964622797994,3.796820749557542,2,1.8391185902467047,4.540645235781637,-0.22198823019383696,4.903987675408871,1,-1,5,443,130,251680.00000000003,70,82.0,0,0,1,0,0,0
1778195118.878787,8.910634994506836,wait_slave,2,0.026974975333745512,1.3993710751558104,3.7946008672556037,-0.12412459524847508,1.3585752786237482,3.7359578551972916,2,15.10995705822206,4.079579653206222,5.864301205831213,16.713581336173352,30,-27,3,446,130,251680.00000000003,70,82.0,0,0,1,0,0,0
1778195118.9508321,8.982680082321167,wait_slave,2,0.026974975333745512,1.3993710751558104,3.7946008672556037,-0.053778998098735764,1.3512094035080215,3.76005757775526,2,8.075397343248127,4.816167164778884,3.454328950034391,10.016980428526297,-17,3,7,450,130,251681.0,70,82.0,0,0,1,0,0,0
1778195119.024555,9.056402921676636,wait_slave,2,0.026974975333745512,1.3993710751558104,3.7946008672556037,-0.06604695680522643,1.359451074390872,3.7740657447105592,2,9.302193213897194,3.992000076493829,2.0535122545044526,10.32878384800465,12,0,1,454,130,251671.0,70,82.0,0,0,1,0,0,0
1778195119.096496,9.128344058990479,wait_slave,2,0.026974975333745512,1.3993710751558104,3.7946008672556037,-0.05959892095099306,1.359442934259504,3.7748427543060545,2,8.657389628473858,3.9928140896306363,1.9758112949549211,9.736364301259021,5,-3,4,457,130,251675.0,70,82.0,0,0,1,0,0,0
1778195119.1670852,9.198933124542236,wait_slave,2,0.026974975333745512,1.3993710751558104,3.7946008672556037,0.016974643934051348,1.4154457671220229,3.764858624754853,2,1.0000331399694165,-1.6074691966212473,2.974224250075075,3.5256252479323282,-24,-7,-19,461,130,251675.0,70,82.0,0,0,1,0,0,0
1778195119.2392871,9.271135091781616,wait_slave,2,0.026974975333745512,1.3993710751558104,3.7946008672556037,0.014855984651819809,1.4244947768805498,3.780550286827056,2,1.2118990681925703,-2.5123701724739433,1.4050580428547566,3.123282142044425,3,1,-3,464,130,251681.0,70,82.0,0,0,1,0,0,0
1778195119.309986,9.34183406829834,wait_slave,2,0.026974975333745512,1.3993710751558104,3.7946008672556037,-0.05783862788417604,1.427132316008259,3.7597103592360797,2,8.481360321792156,-2.7761240852448577,3.489050801952409,9.581952480750031,30,-12,-1,468,130,251676.00000000003,70,82.0,0,0,1,0,0,0
1778195119.3817532,9.413601160049438,wait_slave,2,0.026974975333745512,1.3993710751558104,3.7946008672556037,0.009288788816968152,1.3493446903499797,3.7991807438411613,2,1.768618651677736,5.002638480583066,-0.4579876585557585,5.325801009976078,-19,11,30,471,130,251676.00000000003,70,82.0,0,0,1,0,0,0
1778195119.454593,9.486440896987915,wait_slave,2,0.026974975333745512,1.3993710751558104,3.7946008672556037,-0.07803993697062817,1.2880851748824451,3.8067263681708545,2,10.501491230437368,11.128590027336527,-1.2125500915250775,15.349173000000501,30,0,30,475,130,251676.00000000003,70,82.0,0,0,1,0,0,0
1778195119.527549,9.559396982192993,wait_slave,2,0.026974975333745512,1.3993710751558104,3.7946008672556037,0.009993829158252199,1.4270591875924037,3.7775613159867003,2,1.6981146175493314,-2.7688112436593304,1.7039551268903441,3.6678838629112738,-26,-13,-30,479,130,251671.99999999997,69,81.5,0,-1,1,0,0,0
1778195119.598311,9.6301589012146,wait_slave,2,0.026974975333745512,1.3993710751558104,3.7946008672556037,0.0020496871006446815,1.3603894172051616,3.8118502211128686,2,2.492528823310083,3.8981657950648785,-1.7249353857264893,4.937995401554838,6,10,28,482,130,251671.99999999997,69,81.5,0,-1,1,0,0,0
1778195119.669086,9.700933933258057,wait_slave,2,0.026974975333745512,1.3993710751558104,3.7946008672556037,0.0020496871006446815,1.3603894172051616,3.8118502211128686,2,2.492528823310083,3.8981657950648785,-1.7249353857264893,4.937995401554838,3,-1,4,486,130,251675.0,69,81.5,0,0,1,0,0,0
1778195119.741184,9.773031949996948,wait_slave,2,0.026974975333745512,1.3993710751558104,3.7946008672556037,-0.07273032614870734,1.3661454895677783,3.7887718593623694,2,9.970530148245285,3.3225585588032125,0.5829007893234373,10.52571328433083,30,-10,2,489,130,251667.99999999997,69,81.5,-1,0,1,0,0,0
1778195119.8140512,9.845899105072021,wait_slave,2,0.026974975333745512,1.3993710751558104,3.7946008672556037,0.003655521715145049,1.427752345049473,3.797261948768163,2,2.331945361860046,-2.838126989366252,-0.26610815125591714,3.6828993370216585,-22,0,-21,493,130,251667.99999999997,69,81.5,-1,0,1,0,0,0
1778195119.88547,9.917317867279053,wait_slave,2,0.026974975333745512,1.3993710751558104,3.7946008672556037,-0.05794170301665691,1.425784798090223,3.7600620083817566,2,8.491667835040243,-2.6413722934412576,3.453885887384711,9.54015712324967,29,-17,0,497,130,251676.00000000003,69,81.5,0,0,1,0,0,0
1778195119.957791,9.989639043807983,wait_slave,2,0.026974975333745512,1.3993710751558104,3.7946008672556037,-0.09866059996873111,1.2213409255211802,3.83097927893575,2,12.563557530247662,17.803014963463013,-3.637841168014644,22.091269949209188,24,24,30,500,130,251675.0,69,81.5,0,0,1,0,0,0
1778195120.0311658,10.063013792037964,wait_slave,2,0.026974975333745512,1.3993710751558104,3.7946008672556037,-0.09866059996873111,1.2213409255211802,3.83097927893575,2,12.563557530247662,17.803014963463013,-3.637841168014644,22.091269949209188,10,0,14,504,130,251677.0,69,81.5,0,0,1,0,0,0
1778195120.102328,10.134176015853882,wait_slave,2,0.026974975333745512,1.3993710751558104,3.7946008672556037,-0.08418544144333184,1.295021972563486,3.8217811164119646,2,11.116041677707736,10.434910259232444,-2.718024915636086,15.48681355672588,4,-4,-16,507,130,251677.0,69,81.5,0,0,1,0,0,0
1778195120.1749918,10.206839799880981,wait_slave,2,0.026974975333745512,1.3993710751558104,3.7946008672556037,-0.008042241987482601,1.3645222186110273,3.8292297724646565,2,3.5017217321228116,3.484885654478309,-3.4628905209052707,6.0330832808594215,-21,2,-19,511,130,251679.0,69,81.5,0,0,1,0,0,0
1778195120.2475169,10.279364824295044,wait_slave,2,0.026974975333745512,1.3993710751558104,3.7946008672556037,-0.07224725377951824,1.3664919662753066,3.7892567170097413,2,9.922222911326376,3.2879108880503827,0.5344150245862433,10.466444712905803,30,-16,3,515,130,251679.0,69,81.5,0,0,1,0,0,0
1778195120.318207,10.35005497932434,wait_slave,2,0.026974975333745512,1.3993710751558104,3.7946008672556037,0.004634524485268687,1.428535473550248,3.798152882322761,2,2.2340450848476823,-2.916439839443763,-0.3552015067157299,3.69090055252102,-23,0,-21,518,130,251673.99999999997,69,81.5,0,0,1,0,0,0
1778195120.400836,10.432683944702148,wait_slave,2,0.026974975333745512,1.3993710751558104,3.7946008672556037,-0.003476002846105608,1.3651023390891097,3.831505582584064,2,3.045097817985112,3.4268736066700667,-3.690471532846029,5.88520718173426,7,9,24,522,130,251681.0,69,81.5,0,0,1,0,0,0
1778195120.4705741,10.502422094345093,wait_slave,2,0.026974975333745512,1.3993710751558104,3.7946008672556037,-0.006786173109359694,1.3647210399637426,3.8306209004330616,2,3.376114844310521,3.4650035192067774,-3.6020033177457833,6.03148644457905,6,0,4,526,130,251673.0,69,81.5,-1,0,1,0,0,0
1778195120.540819,10.572666883468628,wait_slave,2,0.026974975333745512,1.3993710751558104,3.7946008672556037,-0.08968069497465159,1.2950607543965633,3.822066874801334,2,11.66556703083971,10.431032075924707,-2.7466007545730253,15.888225200600777,30,-3,30,529,130,251673.0,69,82.0,0,0,1,0,0,0
1778195120.612596,10.644443988800049,wait_slave,2,0.026974975333745512,1.3993710751558104,3.7946008672556037,-0.08353884638389353,1.2947477833585053,3.8227029877218097,2,11.051382171763905,10.462329179730512,-2.810212046620597,15.475486148046954,7,0,9,533,130,251673.0,69,82.0,0,0,1,0,0,0
1778195120.685046,10.716893911361694,wait_slave,2,0.026974975333745512,1.3993710751558104,3.7946008672556037,-0.09801890347980735,1.2210082797065533,3.83190698849046,2,12.499387881355286,17.836279544925702,-3.7306121234856437,22.097172493991273,15,2,30,537,130,251676.00000000003,69,82.0,0,0,1,0,0,0
1778195120.7584362,10.790284156799316,wait_slave,2,0.026974975333745512,1.3993710751558104,3.7946008672556037,-0.007857242612248516,1.3639627644502275,3.829647426828202,2,3.483221794599403,3.5408310705582924,-3.504655957259839,6.078892343129639,-25,-1,-30,540,130,251680.00000000003,69,82.0,0,0,1,0,0,0
1778195120.830629,10.86247706413269,wait_slave,2,0.026974975333745512,1.3993710751558104,3.7946008672556037,-0.0790135483381178,1.366568849329337,3.809491456820559,2,10.598852367186332,3.2802225826473297,-1.489058956495537,11.194321250930777,30,-8,4,544,130,251680.00000000003,69,82.0,0,0,1,0,0,0
1778195120.903046,10.93489384651184,wait_slave,2,0.026974975333745512,1.3993710751558104,3.7946008672556037,-0.004516270227623798,1.3643441258653213,3.830549801942354,2,3.149124556136931,3.5026949290489107,-3.594893468675009,5.925294616065248,-20,7,5,547,130,251678.00000000003,69,82.0,0,0,1,0,0,0
1778195120.974575,11.006422996520996,wait_slave,2,0.026974975333745512,1.3993710751558104,3.7946008672556037,-0.08500991147085535,1.299097290798647,3.82033326033138,2,11.198488680460086,10.027378435716328,-2.573239307577646,15.250443519895551,30,-4,30,551,130,251687.0,69,82.0,0,0,1,0,0,0
1778195121.046413,11.078260898590088,wait_slave,2,0.026974975333745512,1.3993710751558104,3.7946008672556037,-0.06683105950465085,1.3622711221768617,3.794065891472075,2,9.380603483839636,3.7099952978948636,0.05349757835286795,10.087747460276548,2,-11,-16,555,130,251687.0,69,82.0,0,0,1,0,0,0
1778195121.118081,11.14992904663086,wait_slave,2,0.026974975333745512,1.3993710751558104,3.7946008672556037,-0.08436620179860976,1.2988184278223667,3.8212718809137365,2,11.134117713235527,10.055264733344371,-2.6671013658132736,15.237793665926416,16,8,30,558,130,251671.99999999997,69,82.0,0,0,1,0,0,0
1778195121.190124,11.221971988677979,wait_slave,2,0.026974975333745512,1.3993710751558104,3.7946008672556037,0.0037342115059959546,1.431512557616137,3.796807390748684,2,2.3240763827749555,-3.2141482460326554,-0.2206523493080148,3.972501408395252,-25,-10,-30,562,130,251680.00000000003,69,82.0,0,0,1,0,0,0
1778195121.2613351,11.293183088302612,wait_slave,2,0.026974975333745512,1.3993710751558104,3.7946008672556037,0.01038342632583611,1.4965768855689188,3.781622908452878,2,1.6591549007909403,-9.720581041310838,1.2977958802725897,9.946193488584605,2,-8,-26,565,130,251687.0,69,82.0,0,0,1,0,0,0
1778195121.3326159,11.364463806152344,wait_slave,2,0.026974975333745512,1.3993710751558104,3.7946008672556037,0.00851078330399968,1.5000031409638095,3.7790902985486046,2,1.8464192029745832,-10.06320658079991,1.5510568706999184,10.348099727829904,5,-4,-5,569,130,251679.0,69,82.0,0,0,1,0,0,0
1778195121.404989,11.436836957931519,wait_slave,2,0.026974975333745512,1.3993710751558104,3.7946008672556037,-0.0023851285900435837,1.3637386272748735,3.8333241804916733,2,2.9360103923789094,3.563244788093689,-3.872331323606959,6.025929000894503,9,18,30,573,130,251679.0,69,82.0,0,0,1,0,0,0
1778195121.477965,11.509813070297241,wait_slave,2,0.026974975333745512,1.3993710751558104,3.7946008672556037,0.006991690400148576,1.4275407816397951,3.8013840978085334,2,1.9983284933596936,-2.8169706483984758,-0.678323055292962,3.5197674026352552,1,-13,-21,576,130,251677.0,69,82.0,0,0,1,0,0,0
1778195121.549952,11.581799983978271,wait_slave,2,0.026974975333745512,1.3993710751558104,3.7946008672556037,0.006991690400148576,1.4275407816397951,3.8013840978085334,2,1.9983284933596936,-2.8169706483984758,-0.678323055292962,3.5197674026352552,4,-1,0,580,130,251677.0,69,82.0,0,0,1,0,0,0
1778195121.6218612,11.653709173202515,wait_slave,2,0.026974975333745512,1.3993710751558104,3.7946008672556037,-0.018097683384143526,1.2974375444468227,3.8630130024440295,2,4.5072658717889045,10.19335307089877,-6.8412135188425705,13.077541622085883,14,22,30,583,130,251671.99999999997,69,81.5,0,0,1,0,0,0
1778195121.695082,11.726929903030396,wait_slave,2,0.026974975333745512,1.3993710751558104,3.7946008672556037,-0.0016520780436342086,1.3635064924000937,3.834302215763007,2,2.862705337737972,3.586458275571669,-3.9701348507403367,6.067926791433214,0,-9,-17,587,130,251671.99999999997,69,81.5,0,0,1,0,0,0
1778195121.76939,11.801238059997559,wait_slave,2,0.026974975333745512,1.3993710751558104,3.7946008672556037,-0.0016520780436342086,1.3635064924000937,3.834302215763007,2,2.862705337737972,3.586458275571669,-3.9701348507403367,6.067926791433214,5,0,5,591,130,251671.99999999997,69,81.5,0,0,1,0,0,0
1778195121.84461,11.876457929611206,wait_slave,2,0.026974975333745512,1.3993710751558104,3.7946008672556037,-0.00222343915517742,1.3631387856470771,3.833778583964111,2,2.919841448892293,3.623228950873325,-3.9177716708507226,6.08294311842849,5,0,5,594,130,251673.0,69,81.5,0,0,1,0,0,0
1778195121.913685,11.945533037185669,wait_slave,2,0.026974975333745512,1.3993710751558104,3.7946008672556037,-0.0016407535781979288,1.3604127856605994,3.835474941004828,2,2.861572891194344,3.8958289495210963,-4.087407374922414,6.330322398118056,5,0,6,598,130,251685.0,69,81.5,0,0,1,0,0,0
1778195121.982552,12.014400005340576,wait_slave,2,0.026974975333745512,1.3993710751558104,3.7946008672556037,-0.0016520780436342086,1.3635064924000937,3.834302215763007,2,2.862705337737972,3.586458275571669,-3.9701348507403367,6.067926791433214,5,0,4,601,130,251685.0,69,81.5,0,0,1,0,0,0
1778195122.0525281,12.084376096725464,wait_slave,2,0.026974975333745512,1.3993710751558104,3.7946008672556037,-0.0016520780436342086,1.3635064924000937,3.834302215763007,2,2.862705337737972,3.586458275571669,-3.9701348507403367,6.067926791433214,5,0,5,605,130,251685.0,69,81.5,0,0,1,0,0,0
1778195122.1248488,12.156696796417236,wait_slave,2,0.026974975333745512,1.3993710751558104,3.7946008672556037,-0.0016520780436342086,1.3635064924000937,3.834302215763007,2,2.862705337737972,3.586458275571669,-3.9701348507403367,6.067926791433214,5,0,5,609,130,251685.0,69,81.5,0,0,1,0,0,0
1778195122.20002,12.231868028640747,wait_slave,2,0.026974975333745512,1.3993710751558104,3.7946008672556037,0.007547158012655819,1.4279457653560272,3.801887390245171,2,1.9427817321089693,-2.8574690200216857,-0.7286522989567334,3.5313544472022276,1,-12,-21,612,130,251687.0,69,81.5,0,0,1,0,0,0
1778195122.274317,12.306164979934692,wait_slave,2,0.026974975333745512,1.3993710751558104,3.7946008672556037,0.008110633757695385,1.4283613491706904,3.802397405835525,2,1.8864341576050128,-2.899027401487997,-0.7796538579921464,3.545539993264667,4,-1,0,616,130,251681.0,69,81.5,0,0,1,0,0,0
1778195122.345883,12.37773084640503,wait_slave,2,0.026974975333745512,1.3993710751558104,3.7946008672556037,0.006813373162821046,1.432445228419473,3.800189122705881,2,2.0161602170924464,-3.30741532636627,-0.5588255450277302,3.913589675968126,5,-2,0,620,130,251681.0,69,81.5,0,0,1,0,0,0
1778195122.4173,12.449147939682007,wait_slave,2,0.026974975333745512,1.3993710751558104,3.7946008672556037,0.006813373162821046,1.432445228419473,3.800189122705881,2,2.0161602170924464,-3.30741532636627,-0.5588255450277302,3.913589675968126,4,-1,0,623,130,251681.0,69,81.5,0,0,1,0,0,0
1778195122.490912,12.522759914398193,wait_slave,2,0.026974975333745512,1.3993710751558104,3.7946008672556037,0.006813373162821046,1.432445228419473,3.800189122705881,2,2.0161602170924464,-3.30741532636627,-0.5588255450277302,3.913589675968126,4,-1,0,627,130,251681.0,69,81.5,0,0,1,0,0,0
1778195122.564474,12.596322059631348,wait_slave,2,0.026974975333745512,1.3993710751558104,3.7946008672556037,0.006813373162821046,1.432445228419473,3.800189122705881,2,2.0161602170924464,-3.30741532636627,-0.5588255450277302,3.913589675968126,4,-1,0,631,130,251681.0,69,81.5,0,0,1,0,0,0
1778195122.639991,12.671838998794556,wait_slave,2,0.026974975333745512,1.3993710751558104,3.7946008672556037,0.006813373162821046,1.432445228419473,3.800189122705881,2,2.0161602170924464,-3.30741532636627,-0.5588255450277302,3.913589675968126,4,-1,0,634,130,251681.0,69,81.5,0,0,1,0,0,0
1778195122.7177339,12.749581813812256,wait_slave,2,0.026974975333745512,1.3993710751558104,3.7946008672556037,0.07952102675387174,1.51589030224059,3.8121118231490527,2,-5.254605142012622,-11.651922708477969,-1.7510955893448976,12.90133767350631,-24,2,-30,638,130,251688.0,69,81.0,0,0,1,0,0,0
1778195122.788227,12.820075035095215,wait_slave,2,0.026974975333745512,1.3993710751558104,3.7946008672556037,-0.05144162836598043,1.4273015871834906,3.7679773571594892,2,7.841660369972595,-2.7930512027680265,2.662351009611452,8.739615854124354,30,-19,30,642,130,251691.0,69,81.0,0,0,1,0,0,0
1778195122.858297,12.890145063400269,wait_slave,2,0.026974975333745512,1.3993710751558104,3.7946008672556037,-0.05086414614289425,1.4277297817364456,3.768549286966753,2,7.783912147663977,-2.835870658063522,2.6051580288850573,8.684370965549592,8,-3,0,645,130,251689.0,69,81.0,0,0,1,0,0,0
1778195122.929589,12.961436986923218,wait_slave,2,0.026974975333745512,1.3993710751558104,3.7946008672556037,-0.06415884311775466,1.3685276256916286,3.7987828017472642,2,9.113381845150018,3.0843449464181827,-0.41819344916604884,9.630254314654971,14,8,25,649,130,251689.0,69,81.0,0,0,1,0,0,0
1778195122.999572,13.0314199924469,wait_slave,2,0.026974975333745512,1.3993710751558104,3.7946008672556037,0.09021570440659088,1.506366443369544,3.802973879247536,2,-6.3240729072845365,-10.699536821373368,-0.8373011991932078,12.456928177795085,-30,0,-30,652,130,251682.00000000003,69,81.0,0,0,1,0,0,0
1778195123.070286,13.102133989334106,wait_slave,2,0.026974975333745512,1.3993710751558104,3.7946008672556037,-0.04929844287914342,1.4297189294220356,3.769774971082816,2,7.627341821288894,-3.0347854266225216,2.4825896172787854,8.576101506642948,30,-15,27,656,130,251689.0,69,81.0,0,0,1,0,0,0
1778195123.140816,13.172663927078247,wait_slave,2,0.026974975333745512,1.3993710751558104,3.7946008672556037,0.013539570134736945,1.4325778345572115,3.8072862750634497,2,1.3435405199008568,-3.3206759401401165,-1.2685407807845994,3.8001559889765724,-17,11,0,659,130,251689.0,69,81.0,0,0,1,0,0,0
1778195123.211828,13.243675947189331,wait_slave,2,0.026974975333745512,1.3993710751558104,3.7946008672556037,0.013539570134736945,1.4325778345572115,3.8072862750634497,2,1.3435405199008568,-3.3206759401401165,-1.2685407807845994,3.8001559889765724,4,-1,0,663,130,251688.0,69,81.0,0,0,1,0,0,0
1778195123.284291,13.316138982772827,wait_slave,2,0.026974975333745512,1.3993710751558104,3.7946008672556037,-0.04869704451659129,1.4301955230708185,3.7703681468097363,2,7.567201985033681,-3.0824447915008157,2.423272044586744,8.522690841337836,29,-16,1,667,130,251688.0,69,81.0,0,0,1,0,0,0
1778195123.3559449,13.387792825698853,wait_slave,2,0.026974975333745512,1.3993710751558104,3.7946008672556037,-0.04869704451659129,1.4301955230708185,3.7703681468097363,2,7.567201985033681,-3.0824447915008157,2.423272044586744,8.522690841337836,8,-3,0,670,130,251684.0,69,81.0,0,0,1,0,0,0
1778195123.43295,13.464797973632812,wait_slave,2,0.026974975333745512,1.3993710751558104,3.7946008672556037,-0.04963559933756989,1.4368269110087946,3.7887895842627235,2,7.661057467131541,-3.7455835852984176,0.5811282992880251,8.547450380632945,8,3,-2,674,130,251686.0,69,81.0,0,1,1,0,0,0
1778195123.5059562,13.537804126739502,wait_slave,2,0.026974975333745512,1.3993710751558104,3.7946008672556037,0.01703613100728474,1.5065172037633174,3.7871213515277455,2,0.9938844326460774,-10.714612860750705,0.747951572785821,10.786573439997218,-17,-3,-28,678,130,251686.0,69,81.0,0,1,1,0,0,0
1778195123.5807948,13.612642765045166,wait_slave,2,0.026974975333745512,1.3993710751558104,3.7946008672556037,0.01703613100728474,1.5065172037633174,3.7871213515277455,2,0.9938844326460774,-10.714612860750705,0.747951572785821,10.786573439997218,4,-2,-5,681,130,251686.0,69,81.0,0,1,1,0,0,0
1778195123.655057,13.686904907226562,wait_slave,2,0.026974975333745512,1.3993710751558104,3.7946008672556037,0.01703613100728474,1.5065172037633174,3.7871213515277455,2,0.9938844326460774,-10.714612860750705,0.747951572785821,10.786573439997218,4,-2,-5,685,130,251686.0,69,81.0,0,1,1,0,0,0
1778195123.7307389,13.762586832046509,wait_slave,2,0.026974975333745512,1.3993710751558104,3.7946008672556037,0.01703613100728474,1.5065172037633174,3.7871213515277455,2,0.9938844326460774,-10.714612860750705,0.747951572785821,10.786573439997218,4,-2,-5,689,130,251684.0,69,81.0,0,1,1,0,0,0
1778195123.8079019,13.839749813079834,wait_slave,2,0.026974975333745512,1.3993710751558104,3.7946008672556037,0.01703613100728474,1.5065172037633174,3.7871213515277455,2,0.9938844326460774,-10.714612860750705,0.747951572785821,10.786573439997218,4,-2,-5,693,130,251684.0,69,81.0,0,1,1,0,0,0
1778195123.8847308,13.916578769683838,wait_slave,2,0.026974975333745512,1.3993710751558104,3.7946008672556037,0.01703613100728474,1.5065172037633174,3.7871213515277455,2,0.9938844326460774,-10.714612860750705,0.747951572785821,10.786573439997218,4,-2,-5,697,130,251684.0,69,81.0,0,1,1,0,0,0
1778195123.9623349,13.994182825088501,wait_slave,2,0.026974975333745512,1.3993710751558104,3.7946008672556037,0.01820610363587072,1.5765600732130727,3.764733730032705,2,0.8768871697874794,-17.71889980572623,2.9867137222898688,17.9902418075138,4,-11,-30,701,140,251683.0,68,81.0,0,0,1,0,1,0
1778195124.038514,14.070361852645874,wait_slave,2,0.026974975333745512,1.3993710751558104,3.7946008672556037,0.02099919386440552,1.5735199188641595,3.7686021934652407,2,0.5975781469339994,-17.414884370834915,2.5998673790363025,17.61801940286763,3,-2,-9,704,140,251683.0,68,81.0,0,0,1,0,1,0
1778195124.1146612,14.146509170532227,wait_slave,2,0.026974975333745512,1.3993710751558104,3.7946008672556037,-0.048693884059497705,1.4461539924372815,3.808593064757923,2,7.566885939324322,-4.67829172814711,-1.3992197502319392,9.00566445198981,30,12,30,708,140,251688.0,68,81.0,-1,0,1,0,0,0
1778195124.185249,14.217097043991089,wait_slave,2,0.026974975333745512,1.3993710751558104,3.7946008672556037,0.019891846505510236,1.513528359625349,3.80923182525163,2,0.7083128828235277,-11.415728446953866,-1.4630957996026428,11.530880817759778,-19,-1,-29,712,140,251688.0,68,81.0,-1,0,1,0,0,0
1778195124.2571058,14.28895378112793,wait_slave,2,0.026974975333745512,1.3993710751558104,3.7946008672556037,0.019891846505510236,1.513528359625349,3.80923182525163,2,0.7083128828235277,-11.415728446953866,-1.4630957996026428,11.530880817759778,4,-1,-6,715,140,251688.0,68,81.0,-1,0,1,0,0,0
1778195124.33334,14.365187883377075,wait_slave,2,0.026974975333745512,1.3993710751558104,3.7946008672556037,0.019891846505510236,1.513528359625349,3.80923182525163,2,0.7083128828235277,-11.415728446953866,-1.4630957996026428,11.530880817759778,4,-1,-6,719,140,251688.0,68,81.0,-1,0,1,0,0,0
1778195124.410418,14.44226598739624,wait_slave,2,0.026974975333745512,1.3993710751558104,3.7946008672556037,-0.050847424166091226,1.449163258846288,3.8087138579298343,2,7.7822399499836745,-4.979218369047755,-1.4112990674230552,9.345995894686327,30,-1,19,723,140,251691.0,68,81.0,0,0,1,0,0,0
1778195124.485118,14.516965866088867,wait_slave,2,0.026974975333745512,1.3993710751558104,3.7946008672556037,-0.06543999913563603,1.3786099747312037,3.8457829358803846,2,9.241497446938155,2.076110042460666,-5.118206862478081,10.76622261785851,14,13,27,727,140,251691.0,68,81.0,0,0,1,0,0,0
1778195124.555381,14.587229013442993,wait_slave,2,0.026974975333745512,1.3993710751558104,3.7946008672556037,-0.06543999913563603,1.3786099747312037,3.8457829358803846,2,9.241497446938155,2.076110042460666,-5.118206862478081,10.76622261785851,9,0,2,730,140,251691.0,68,81.0,0,0,1,0,0,0
1778195124.628171,14.660018920898438,wait_slave,2,0.026974975333745512,1.3993710751558104,3.7946008672556037,-0.06543999913563603,1.3786099747312037,3.8457829358803846,2,9.241497446938155,2.076110042460666,-5.118206862478081,10.76622261785851,9,0,2,734,140,251691.0,68,81.0,0,0,1,0,0,0
1778195124.703402,14.735249996185303,wait_slave,2,0.026974975333745512,1.3993710751558104,3.7946008672556037,-0.06543999913563603,1.3786099747312037,3.8457829358803846,2,9.241497446938155,2.076110042460666,-5.118206862478081,10.76622261785851,9,0,2,737,140,251696.99999999997,68,81.0,-1,0,1,0,0,0
1778195124.7760441,14.807892084121704,wait_slave,2,0.026974975333745512,1.3993710751558104,3.7946008672556037,0.008341406398755469,1.4499444456107868,3.871445544526016,2,1.8633568934990044,-5.057337045497645,-7.684467727041211,9.38614943159606,-20,11,-27,741,140,251696.99999999997,68,81.5,-1,0,1,0,0,0
1778195124.845695,14.877542972564697,wait_slave,2,0.026974975333745512,1.3993710751558104,3.7946008672556037,0.06644908628978319,1.3851262094211956,3.942860361936566,2,-3.9474110956037674,1.4244865734614809,-14.825949468096233,15.408439050929552,-19,30,26,745,140,251696.99999999997,68,81.5,-1,0,1,0,0,0
1778195124.914721,14.946568965911865,wait_slave,2,0.026974975333745512,1.3993710751558104,3.7946008672556037,0.07551047492663832,1.4551246480428714,3.9070368572787206,2,-4.85354995928928,-5.5753572887061065,-11.243599002311688,13.455856517844921,-1,-8,-27,748,140,251696.99999999997,68,81.5,-1,0,1,0,0,0
1778195124.985068,15.016916036605835,wait_slave,2,0.026974975333745512,1.3993710751558104,3.7946008672556037,0.07551047492663832,1.4551246480428714,3.9070368572787206,2,-4.85354995928928,-5.5753572887061065,-11.243599002311688,13.455856517844921,1,4,-2,752,140,251696.99999999997,68,81.5,-1,0,1,0,0,0
1778195125.056639,15.088486909866333,wait_slave,2,0.026974975333745512,1.3993710751558104,3.7946008672556037,0.07551047492663832,1.4551246480428714,3.9070368572787206,2,-4.85354995928928,-5.5753572887061065,-11.243599002311688,13.455856517844921,1,4,-2,755,140,251696.99999999997,68,81.5,-1,0,1,0,0,0
