timestamp,elapsed,phase,mission_state,target_x,target_y,target_z,pos_x,pos_y,pos_z,marker_id,err_x_cm,err_y_cm,err_z_cm,err_3d_cm,cmd_lr,cmd_fb,cmd_ud,publish_count,tello_height_cm,tello_baro_cm,tello_battery,tello_temp_c,tello_pitch,tello_roll,tello_yaw,tello_vgx,tello_vgy,tello_vgz
1778196080.287304,1.3113021850585938e-05,wait_slave,2,0.0555029061936752,1.4100078626565649,3.815284780704523,0.01789267622530666,1.4123125309782116,3.8171468370246076,2,3.761022996836854,-0.23046683216467745,-0.18620563200846263,3.772675639497167,21,1,-1,1,130,251421.99999999997,60,81.0,0,0,0,0,0,0
1778196080.360051,0.07276010513305664,wait_slave,2,0.0555029061936752,1.4100078626565649,3.815284780704523,0.004507496534628008,1.3356122402220918,3.834339818368164,2,5.099540965904719,7.439562243447306,-1.9055037663640917,9.218641388008045,7,7,30,4,130,251430.00000000003,60,81.0,0,0,0,0,0,0
1778196080.432105,0.14481425285339355,wait_slave,2,0.0555029061936752,1.4100078626565649,3.815284780704523,0.008802518143191551,1.3389508362726967,3.8322345173224037,2,4.670038805048365,7.105702638386813,-1.6949736617880795,8.670248447420072,1,0,3,8,130,251430.00000000003,60,81.0,0,0,0,0,0,0
1778196080.503179,0.21588826179504395,wait_slave,2,0.0555029061936752,1.4100078626565649,3.815284780704523,0.0814647161658798,1.4147652969722784,3.831042915445796,2,-2.5961809972204604,-0.47574343157135157,-1.5758134741273189,3.074032480025727,-27,0,-26,11,130,251437.0,60,81.0,0,0,0,0,0,0
1778196080.573946,0.2866551876068115,wait_slave,2,0.0555029061936752,1.4100078626565649,3.815284780704523,0.09006579741100718,1.4830386991550641,3.81499303189407,2,-3.4562891217331977,-7.3030836498499285,0.02917488104530186,8.07971636033101,-5,-5,-29,15,130,251444.99999999997,60,82.0,0,0,0,0,0,0
1778196080.645278,0.3579871654510498,wait_slave,2,0.0555029061936752,1.4100078626565649,3.815284780704523,0.08707754631332798,1.4153125743057462,3.8533303711145486,2,-3.157464011965278,-0.5304711649181337,-3.8045590410025643,4.9724891292128355,0,15,23,19,130,251444.99999999997,60,82.0,0,0,0,0,0,0
1778196080.716301,0.42901015281677246,wait_slave,2,0.0555029061936752,1.4100078626565649,3.815284780704523,0.08410015150641714,1.32978965413754,3.8561185766687074,2,-2.8597245312741943,8.021820851902483,-4.083379596418446,9.4446610899087,0,3,30,22,130,251440.0,60,82.0,0,0,0,0,0,0
1778196080.787274,0.4999830722808838,wait_slave,2,0.0555029061936752,1.4100078626565649,3.815284780704523,0.07843112179026246,1.337286034899844,3.8717888212455454,2,-2.292821559658726,7.272182775672076,-5.650404054102243,9.490455152511524,0,8,2,26,130,251432.00000000003,60,82.0,0,-1,0,0,0,0
1778196080.8592482,0.5719573497772217,wait_slave,2,0.0555029061936752,1.4100078626565649,3.815284780704523,0.0889240058561428,1.4061146151149333,3.8384392390490554,2,-3.3421099662467597,0.38932475416315615,-2.3154458344532447,4.084429238336368,-5,-10,-23,29,130,251454.0,60,82.0,0,-1,0,0,0,0
1778196080.9313579,0.6440670490264893,wait_slave,2,0.0555029061936752,1.4100078626565649,3.815284780704523,0.0889240058561428,1.4061146151149333,3.8384392390490554,2,-3.3421099662467597,0.38932475416315615,-2.3154458344532447,4.084429238336368,-2,1,0,33,130,251454.0,60,82.0,0,-1,0,0,0,0
1778196081.003306,0.716015100479126,wait_slave,2,0.0555029061936752,1.4100078626565649,3.815284780704523,0.07843112179026246,1.337286034899844,3.8717888212455454,2,-2.292821559658726,7.272182775672076,-5.650404054102243,9.490455152511524,2,15,29,37,130,251444.0,60,82.0,-1,-1,0,0,0,0
1778196081.0757382,0.788447380065918,wait_slave,2,0.0555029061936752,1.4100078626565649,3.815284780704523,-0.06286017479671102,1.3419219553836808,3.8125912701633675,2,11.836308099038623,6.8085907272884105,0.26935105411554083,13.657512478392183,30,-20,3,40,130,251438.0,60,82.0,0,0,0,0,0,0
1778196081.147464,0.860173225402832,wait_slave,2,0.0555029061936752,1.4100078626565649,3.815284780704523,0.008802518143191551,1.3389508362726967,3.8322345173224037,2,4.670038805048365,7.105702638386813,-1.6949736617880795,8.670248447420072,-22,8,6,44,130,251438.0,60,82.0,0,0,0,0,0,0
1778196081.220027,0.9327361583709717,wait_slave,2,0.0555029061936752,1.4100078626565649,3.815284780704523,0.008802518143191551,1.3389508362726967,3.8322345173224037,2,4.670038805048365,7.105702638386813,-1.6949736617880795,8.670248447420072,2,1,5,47,130,251435.0,60,82.0,0,0,0,0,0,0
1778196081.292636,1.005345106124878,wait_slave,2,0.0555029061936752,1.4100078626565649,3.815284780704523,-0.012391859452151044,1.2680246658630412,3.8622736183472144,2,6.789476564582625,14.198319679352366,-4.698883764269146,16.424639489748735,11,13,30,51,130,251435.0,60,82.0,0,0,0,0,0,0
1778196081.364568,1.0772771835327148,wait_slave,2,0.0555029061936752,1.4100078626565649,3.815284780704523,0.0885744571285445,1.410550152125138,3.8352945815924997,2,-3.3071550934869305,-0.054228946857315385,-2.000980088797677,3.8657647247108256,-30,-7,-30,55,130,251435.0,60,82.0,0,0,0,0,0,0
1778196081.437597,1.150306224822998,wait_slave,2,0.0555029061936752,1.4100078626565649,3.815284780704523,0.08163161225109217,1.4155854085178499,3.830353714839931,2,-2.612870605741697,-0.5577545861285005,-1.5068934135407996,3.067394780667953,0,0,-1,58,130,251440.0,60,82.0,0,0,0,0,0,0
1778196081.510149,1.222858190536499,wait_slave,2,0.0555029061936752,1.4100078626565649,3.815284780704523,0.008243854299002651,1.3397606783748133,3.830851295959397,2,4.725905189467254,7.0247184281751585,-1.556651525487407,8.60836876689071,28,1,30,62,130,251440.0,60,82.0,0,0,0,0,0,0
1778196081.5828118,1.2955210208892822,wait_slave,2,0.0555029061936752,1.4100078626565649,3.815284780704523,0.0885744571285445,1.410550152125138,3.8352945815924997,2,-3.3071550934869305,-0.054228946857315385,-2.000980088797677,3.8657647247108256,-29,2,-23,66,130,251431.0,60,80.5,0,0,0,0,0,0
1778196081.655809,1.3685181140899658,wait_slave,2,0.0555029061936752,1.4100078626565649,3.815284780704523,0.0885744571285445,1.410550152125138,3.8352945815924997,2,-3.3071550934869305,-0.054228946857315385,-2.000980088797677,3.8657647247108256,-1,1,0,69,130,251442.99999999997,60,80.5,0,0,0,0,0,0
1778196081.7275012,1.4402103424072266,wait_slave,2,0.0555029061936752,1.4100078626565649,3.815284780704523,0.08928886933042746,1.4078090003271102,3.837045832834533,2,-3.3785963136752257,0.2198862329454654,-2.1761052130010228,4.024760477875547,-2,2,1,73,130,251428.00000000003,60,80.5,0,0,0,0,0,0
1778196081.7971,1.5098092555999756,wait_slave,2,0.0555029061936752,1.4100078626565649,3.815284780704523,0.09102238967066656,1.4839590527698174,3.8149571531465356,2,-3.551948347699136,-7.395119011325257,0.032762755798732,8.203974381636892,-2,-7,-30,76,130,251428.00000000003,60,80.5,0,0,0,0,0,0
1778196081.868099,1.580808162689209,wait_slave,2,0.0555029061936752,1.4100078626565649,3.815284780704523,0.08928886933042746,1.4078090003271102,3.837045832834533,2,-3.3785963136752257,0.2198862329454654,-2.1761052130010228,4.024760477875547,-1,9,27,80,130,251437.0,60,80.5,0,-1,0,0,0,0
1778196081.939035,1.6517441272735596,wait_slave,2,0.0555029061936752,1.4100078626565649,3.815284780704523,0.09261682391751447,1.4745375653044146,3.799323153759909,2,-3.711391772383927,-6.452970264784974,1.5961626944613894,7.613342858003206,-3,-13,-27,83,130,251430.00000000003,60,80.5,0,0,0,0,0,0
1778196082.010438,1.7231471538543701,wait_slave,2,0.0555029061936752,1.4100078626565649,3.815284780704523,0.09181421820056512,1.4743748082192516,3.7986595788105135,2,-3.6311312006889924,-6.436694556268674,1.66252018940094,7.574966929794585,-1,0,-4,87,130,251430.00000000003,60,80.5,0,0,0,0,0,0
1778196082.0829482,1.7956573963165283,wait_slave,2,0.0555029061936752,1.4100078626565649,3.815284780704523,0.016978902939336682,1.4078836872060028,3.79666540996962,2,3.8524003254338517,0.21241754505620936,1.861937073490294,4.28403071259861,28,-1,23,90,130,251433.0,60,80.5,0,0,0,0,0,0
1778196082.153627,1.8663361072540283,wait_slave,2,0.0555029061936752,1.4100078626565649,3.815284780704523,0.0031187403599455266,1.3363509212473803,3.832214845246832,2,5.238416583372967,7.365694140918455,-1.6930064542309164,9.19569080235873,8,13,30,94,130,251434.0,60,80.5,0,0,0,0,0,0
1778196082.2236328,1.9363420009613037,wait_slave,2,0.0555029061936752,1.4100078626565649,3.815284780704523,0.0879146852742213,1.4112483196224503,3.8339244818565312,2,-3.2411779080546106,-0.12404569658854836,-1.8639701152008303,3.740989996894565,-30,1,-25,98,130,251434.0,60,80.5,0,0,0,0,0,0
1778196082.2974021,2.0101113319396973,wait_slave,2,0.0555029061936752,1.4100078626565649,3.815284780704523,0.021460375422284184,1.4047814459750279,3.799206296652098,2,3.4042530771391015,0.5226416681537005,1.6078484052425068,3.8009564349966443,24,-12,2,101,130,251439.0,60,80.5,0,0,0,0,0,0
1778196082.366933,2.0796422958374023,wait_slave,2,0.0555029061936752,1.4100078626565649,3.815284780704523,0.08353653084034995,1.411055471808671,3.8320250701780822,2,-2.8033624646674755,-0.10476091521061104,-1.6740289473559322,3.2668316262470403,-23,13,-1,105,130,251435.0,60,80.5,0,0,0,0,0,0
1778196082.4373708,2.1500799655914307,wait_slave,2,0.0555029061936752,1.4100078626565649,3.815284780704523,0.0033509169043007825,1.3371760798845407,3.8315943131857764,2,5.215198928937442,7.283178277202418,-1.6309532481253441,9.105108136835828,30,1,30,108,130,251436.0,60,80.5,0,0,0,0,0,0
1778196082.508586,2.221295118331909,wait_slave,2,0.0555029061936752,1.4100078626565649,3.815284780704523,0.08178696995342205,1.4163982405909121,3.829670679435077,2,-2.628406375974685,-0.6390377934347269,-1.4385898730554292,3.063728153991463,-29,0,-28,112,130,251436.0,60,80.5,0,0,0,0,0,0
1778196082.578131,2.2908401489257812,wait_slave,2,0.0555029061936752,1.4100078626565649,3.815284780704523,0.009296357873170069,1.34064198875215,3.8309709625388506,2,4.620654832050513,6.936587390441495,-1.5686181834327684,8.48099396931631,28,1,30,115,130,251444.0,60,81.0,0,0,0,0,0,0
1778196082.649909,2.3626182079315186,wait_slave,2,0.0555029061936752,1.4100078626565649,3.815284780704523,0.010934151478448007,1.340770958366601,3.8324777301541855,2,4.456875471522719,6.923690428996387,-1.7192949449662542,8.411730097490263,2,1,5,119,130,251438.0,60,81.0,0,-1,0,0,0,0
1778196082.722204,2.434913158416748,wait_slave,2,0.0555029061936752,1.4100078626565649,3.815284780704523,0.024590069487838595,1.4051818606344253,3.8020726671538485,2,3.0912836705836604,0.4826002022139564,1.321211355067442,3.396253396310895,-2,-11,-21,122,130,251438.0,60,81.0,0,-1,0,0,0,0
1778196082.794519,2.507228136062622,wait_slave,2,0.0555029061936752,1.4100078626565649,3.815284780704523,0.011767943068832332,1.3408510697193359,3.8332426751603497,2,4.373496312484287,6.915679293722898,-1.795789445582674,8.377287736601115,7,12,27,126,130,251450.0,60,81.0,0,-1,0,0,0,0
1778196082.8674471,2.5801563262939453,wait_slave,2,0.0555029061936752,1.4100078626565649,3.815284780704523,0.08861200375168099,1.4119638471968154,3.8361997547733733,2,-3.310909755800579,-0.19559845402505882,-2.0914974068850345,3.9210640863519775,-28,2,-23,130,130,251442.0,60,81.0,0,-1,0,0,0,0
1778196082.938454,2.651163101196289,wait_slave,2,0.0555029061936752,1.4100078626565649,3.815284780704523,0.08861200375168099,1.4119638471968154,3.8361997547733733,2,-3.310909755800579,-0.19559845402505882,-2.0914974068850345,3.9210640863519775,-1,1,0,133,130,251442.0,60,81.0,0,-1,0,0,0,0
1778196083.009666,2.7223751544952393,wait_slave,2,0.0555029061936752,1.4100078626565649,3.815284780704523,0.09422605086965785,1.4048056168646084,3.8210734316867954,2,-3.8723144675982653,0.5202245791956495,-0.5788650982272436,3.949751606204593,-4,-4,3,137,130,251439.0,60,81.0,0,0,0,0,0,0
1778196083.080051,2.792760133743286,wait_slave,2,0.0555029061936752,1.4100078626565649,3.815284780704523,0.09509971782793125,1.4050172399777114,3.8217855876323434,2,-3.9596811634256053,0.4990622678853418,-0.6500806927820513,4.043605194667552,-2,0,0,140,130,251441.0,60,81.0,0,0,0,0,0,0
1778196083.152278,2.8649871349334717,wait_slave,2,0.0555029061936752,1.4100078626565649,3.815284780704523,0.022911061573073654,1.4104538739488932,3.800418232529813,2,3.2591844620601544,-0.04460112923283521,1.4866548174710115,3.5825152009130328,26,-7,-1,144,130,251440.0,60,81.0,0,0,0,0,0,0
1778196083.224565,2.937274217605591,wait_slave,2,0.0555029061936752,1.4100078626565649,3.815284780704523,-0.06783572491646561,1.2689054345604196,3.829222039824729,2,12.333863111014082,14.110242809614526,-1.3937259120206047,18.792700798590662,30,11,30,148,130,251440.0,60,81.0,0,0,0,0,0,0
1778196083.2959301,3.008639335632324,wait_slave,2,0.0555029061936752,1.4100078626565649,3.815284780704523,0.02980674607634648,1.407817802581917,3.8051740415911843,2,2.569616011732872,0.21900600746478371,1.0110739113338596,2.770047027261372,-30,-8,-30,151,130,251440.0,60,81.0,0,0,0,0,0,0
1778196083.367438,3.0801472663879395,wait_slave,2,0.0555029061936752,1.4100078626565649,3.815284780704523,0.025522819340011993,1.4119068137996078,3.801976606990678,2,2.9980086853663206,-0.18989511430429484,1.3308173713844962,3.285603613941778,3,-1,0,155,130,251435.0,60,81.0,0,0,0,0,0,0
1778196083.438266,3.150975227355957,wait_slave,2,0.0555029061936752,1.4100078626565649,3.815284780704523,0.10119774547192917,1.47933483786321,3.80398227161076,2,-4.569483927825397,-6.932697520664521,1.1302509093762847,8.379734208065823,-29,0,-27,158,130,251435.0,60,81.0,0,0,0,0,0,0
1778196083.5103831,3.2230923175811768,wait_slave,2,0.0555029061936752,1.4100078626565649,3.815284780704523,0.03221996765205193,1.4054323528161845,3.808314773703684,2,2.328293854162327,0.4575509840380354,0.697000700083894,2.4730780720069627,25,1,26,162,130,251427.0,60,81.0,0,0,0,0,0,0
1778196083.5829408,3.295650005340576,wait_slave,2,0.0555029061936752,1.4100078626565649,3.815284780704523,0.03776080761673184,1.4731201101674096,3.7712656136740996,2,1.774209857694336,-6.311224751084477,4.40191670304233,7.89659731392985,0,-15,-27,165,130,251441.0,60,80.5,0,0,0,0,0,0
1778196083.655284,3.367993116378784,wait_slave,2,0.0555029061936752,1.4100078626565649,3.815284780704523,0.0323654060404428,1.4084744911948572,3.8074785415165695,2,2.3137500153232398,0.15333714617076222,0.7806239187953423,2.4466967765539485,3,12,23,169,130,251434.0,60,80.5,0,-1,0,0,0,0
1778196083.727555,3.4402642250061035,wait_slave,2,0.0555029061936752,1.4100078626565649,3.815284780704523,-0.042224759173300486,1.4119403363331324,3.786462581174963,2,9.772766536697569,-0.19324736765675699,2.882219952955989,10.190755721884402,30,-8,0,173,130,251434.0,60,80.5,0,-1,0,0,0,0
1778196083.7991948,3.511904001235962,wait_slave,2,0.0555029061936752,1.4100078626565649,3.815284780704523,-0.04993241004514726,1.337446445731953,3.8031792613632622,2,10.543531623882247,7.256141692461182,1.2105519341260695,12.856247016532265,9,5,30,176,130,251440.0,60,80.5,0,-1,0,0,0,0
1778196083.871636,3.5843451023101807,wait_slave,2,0.0555029061936752,1.4100078626565649,3.815284780704523,0.03368765729943013,1.4036992704687536,3.7899130941336825,2,2.181524889424507,0.6308592187811213,2.5371686570840435,3.4050343598250787,-27,-5,-22,180,130,251436.0,60,80.5,0,-1,0,0,0,0
1778196083.944329,3.6570382118225098,wait_slave,2,0.0555029061936752,1.4100078626565649,3.815284780704523,0.0323654060404428,1.4084744911948572,3.8074785415165695,2,2.3137500153232398,0.15333714617076222,0.7806239187953423,2.4466967765539485,2,5,0,184,130,251436.0,60,80.5,0,-1,0,0,0,0
1778196084.015899,3.7286081314086914,wait_slave,2,0.0555029061936752,1.4100078626565649,3.815284780704523,0.03776080761673184,1.4731201101674096,3.7712656136740996,2,1.774209857694336,-6.311224751084477,4.40191670304233,7.89659731392985,0,-15,-26,187,130,251448.99999999997,60,80.5,0,0,0,0,0,0
1778196084.087596,3.800305128097534,wait_slave,2,0.0555029061936752,1.4100078626565649,3.815284780704523,0.03776080761673184,1.4731201101674096,3.7712656136740996,2,1.774209857694336,-6.311224751084477,4.40191670304233,7.89659731392985,1,-2,-3,191,130,251441.0,60,80.5,0,0,0,0,0,0
1778196084.157143,3.869852304458618,wait_slave,2,0.0555029061936752,1.4100078626565649,3.815284780704523,0.0323654060404428,1.4084744911948572,3.8074785415165695,2,2.3137500153232398,0.15333714617076222,0.7806239187953423,2.4466967765539485,3,12,23,194,130,251441.0,60,80.5,0,0,0,0,0,0
1778196084.22879,3.9414992332458496,wait_slave,2,0.0555029061936752,1.4100078626565649,3.815284780704523,0.10677129899176008,1.486198935575613,3.8014201428399756,2,-5.126839279808488,-7.619107291904803,1.386463786454728,9.28749475142218,-29,-2,-30,198,130,251442.99999999997,60,80.5,0,0,0,0,0,0
1778196084.2962089,4.008918046951294,wait_slave,2,0.0555029061936752,1.4100078626565649,3.815284780704523,0.02800929802822205,1.41173649542313,3.805008700689089,2,2.7493608165453147,-0.1728632766565097,1.0276080015434008,2.9402116959170077,30,0,27,201,130,251444.0,60,80.5,0,-1,0,0,0,0
1778196084.369328,4.0820372104644775,wait_slave,2,0.0555029061936752,1.4100078626565649,3.815284780704523,-0.04468444524379822,1.3410441822545804,3.8018626453036903,2,10.018735143747342,6.896368040198442,1.342213540083259,12.236685957137718,30,-1,30,205,130,251444.0,60,80.5,0,-1,0,0,0,0
1778196084.436343,4.149052143096924,wait_slave,2,0.0555029061936752,1.4100078626565649,3.815284780704523,0.03770218886081966,1.4722985066950587,3.7720042185797302,2,1.7800717332855536,-6.2290644038493825,4.32805621247927,7.791146854046977,-28,-13,-30,208,130,251446.0,60,80.5,0,0,0,0,0,0
1778196084.5045838,4.21729302406311,wait_slave,2,0.0555029061936752,1.4100078626565649,3.815284780704523,0.10607840541970037,1.4093325635910854,3.825008453459601,2,-5.057549922602518,0.06752990654794733,-0.9723672755078017,5.150618373202733,-27,19,23,212,130,251454.0,60,80.5,0,0,0,0,0,0
1778196084.573676,4.2863852977752686,wait_slave,2,0.0555029061936752,1.4100078626565649,3.815284780704523,0.11371427025455716,1.4729418782461319,3.7904363126576115,2,-5.821136406088196,-6.293401558956702,2.484846804691143,8.925637001544922,-5,-13,-26,215,130,251437.0,60,81.0,0,0,0,0,0,0
1778196084.6468859,4.359595060348511,wait_slave,2,0.0555029061936752,1.4100078626565649,3.815284780704523,0.03440831429857638,1.4021698424474485,3.79216182413454,2,2.1094591895098818,0.7838020209116392,2.312295656998309,3.226588738213486,28,0,25,219,130,251437.0,60,81.0,0,0,0,0,0,0
1778196084.718882,4.431591272354126,wait_slave,2,0.0555029061936752,1.4100078626565649,3.815284780704523,0.1069831632398549,1.4086627828188192,3.8265487340274977,2,-5.148025704617971,0.13450798377456774,-1.1263953322974807,5.2715299010560495,-28,12,-1,222,130,251442.0,60,81.0,0,0,0,0,0,0
1778196084.790327,4.503036260604858,wait_slave,2,0.0555029061936752,1.4100078626565649,3.815284780704523,-0.020510810368547405,1.4672594568129154,3.7408463772445506,2,7.601371656222261,-5.7251594156350505,7.443840345997232,12.081765619608339,30,-30,-23,226,130,251440.0,60,81.0,0,0,0,0,0,0
1778196084.8625789,4.5752880573272705,wait_slave,2,0.0555029061936752,1.4100078626565649,3.815284780704523,0.04604659992722071,1.4744454797765396,3.7745537290149245,2,0.9456306266454488,-6.4437617119974755,4.073105168959845,7.681566767298316,-21,8,-6,230,130,251440.0,60,81.0,0,0,0,0,0,0
1778196084.936556,4.649265289306641,wait_slave,2,0.0555029061936752,1.4100078626565649,3.815284780704523,-0.026001814121801692,1.3954607612830934,3.7602536463871123,2,8.15047203154769,1.4547101373471483,5.503113431741058,9.941359734128453,30,-8,29,233,130,251451.00000000003,60,81.0,0,-1,0,0,0,0
1778196085.0078359,4.720545053482056,wait_slave,2,0.0555029061936752,1.4100078626565649,3.815284780704523,0.040945113769675356,1.4708605707736724,3.7773717457487717,2,1.4557792423999842,-6.085270811710752,3.791303495575127,7.31599591648476,-22,3,-30,237,130,251446.99999999997,60,81.0,0,-1,0,0,0,0
1778196085.080051,4.792760133743286,wait_slave,2,0.0555029061936752,1.4100078626565649,3.815284780704523,0.040945113769675356,1.4708605707736724,3.7773717457487717,2,1.4557792423999842,-6.085270811710752,3.791303495575127,7.31599591648476,1,-2,-3,240,130,251446.99999999997,60,81.0,0,-1,0,0,0,0
1778196085.152431,4.865140199661255,wait_slave,2,0.0555029061936752,1.4100078626565649,3.815284780704523,0.04604659992722071,1.4744454797765396,3.7745537290149245,2,0.9456306266454488,-6.4437617119974755,4.073105168959845,7.681566767298316,0,-3,-5,244,130,251446.0,60,81.0,0,0,0,0,0,0
1778196085.225624,4.93833327293396,wait_slave,2,0.0555029061936752,1.4100078626565649,3.815284780704523,0.04604659992722071,1.4744454797765396,3.7745537290149245,2,0.9456306266454488,-6.4437617119974755,4.073105168959845,7.681566767298316,0,-2,-4,248,130,251444.99999999997,60,81.0,0,0,0,0,0,0
1778196085.298353,5.011062145233154,wait_slave,2,0.0555029061936752,1.4100078626565649,3.815284780704523,0.04604659992722071,1.4744454797765396,3.7745537290149245,2,0.9456306266454488,-6.4437617119974755,4.073105168959845,7.681566767298316,1,-2,-4,251,130,251440.0,60,81.0,0,0,0,0,0,0
1778196085.370034,5.082743167877197,wait_slave,2,0.0555029061936752,1.4100078626565649,3.815284780704523,0.04604659992722071,1.4744454797765396,3.7745537290149245,2,0.9456306266454488,-6.4437617119974755,4.073105168959845,7.681566767298316,1,-2,-4,255,130,251439.0,59,81.0,0,0,0,0,0,0
1778196085.440694,5.153403282165527,wait_slave,2,0.0555029061936752,1.4100078626565649,3.815284780704523,0.11548733131587219,1.5413063537211262,3.771591948892477,2,-5.998442512219699,-13.129849106456138,4.369283181204597,15.081939054653052,-27,-3,-30,258,130,251439.0,59,81.0,0,0,0,0,0,0
1778196085.512436,5.225145101547241,wait_slave,2,0.0555029061936752,1.4100078626565649,3.815284780704523,0.1079032432093433,1.407977245064997,3.8281159655711274,2,-5.24003370156681,0.20306175915678626,-1.2831184866604506,5.3986646795663855,0,20,30,262,130,251448.0,59,81.0,0,0,0,0,0,0
1778196085.584332,5.297041177749634,wait_slave,2,0.0555029061936752,1.4100078626565649,3.815284780704523,0.10990464866309868,1.4752043918720363,3.78967089519326,2,-5.440174246942348,-6.519652921547148,2.561388551126287,8.86916463734741,-3,-14,-27,266,130,251448.0,59,81.0,0,0,0,0,0,0
1778196085.657172,5.3698811531066895,wait_slave,2,0.0555029061936752,1.4100078626565649,3.815284780704523,0.03926236482299905,1.471164319160799,3.7750310824543396,2,1.6240541370676147,-6.115645650423418,4.025369825018332,7.499485034976564,25,-7,-2,269,130,251440.0,59,81.0,0,0,0,0,0,0
1778196085.728916,5.441625118255615,wait_slave,2,0.0555029061936752,1.4100078626565649,3.815284780704523,0.03431595402112353,1.4012635469798793,3.7929068590703827,2,2.118695217255167,0.8744315676685543,2.2377921634140208,3.2033129345713958,3,4,25,273,130,251438.0,59,81.0,0,-1,0,0,0,0
1778196085.8004549,5.513164043426514,wait_slave,2,0.0555029061936752,1.4100078626565649,3.815284780704523,0.03950850449087151,1.4669450928712253,3.7760793918276527,2,1.599440170280369,-5.693723021466046,3.9205388876870195,7.095584251726218,0,-8,-26,276,130,251442.99999999997,59,81.0,0,-1,0,0,0,0
1778196085.871296,5.584005117416382,wait_slave,2,0.0555029061936752,1.4100078626565649,3.815284780704523,0.03679741901960354,1.471211894349608,3.7720004909265445,2,1.870548717407166,-6.1204031693043115,4.328428977797838,7.726162363998306,2,-4,-5,280,130,251434.0,59,81.0,0,0,0,0,0,0
1778196085.94173,5.654439210891724,wait_slave,2,0.0555029061936752,1.4100078626565649,3.815284780704523,0.03190210343596145,1.3971523623412767,3.7909581381242745,2,2.360080275771375,1.2855500315288149,2.4326642580248414,3.6249790597906055,3,5,27,283,130,251434.0,59,81.0,0,0,0,0,0,0
1778196086.0134752,5.726184368133545,wait_slave,2,0.0555029061936752,1.4100078626565649,3.815284780704523,0.030194489901290367,1.4019183520255125,3.7875749991976657,2,2.530841629238483,0.8089510631052343,2.770978150685721,3.838994801554601,2,-3,-1,287,130,251434.0,59,81.0,0,0,0,0,0,0
1778196086.084679,5.797388076782227,wait_slave,2,0.0555029061936752,1.4100078626565649,3.815284780704523,0.03117478609112312,1.3978209967166464,3.7894945603768586,2,2.432812010255208,1.2186865939918468,2.5790220327664315,3.749016662687982,1,-1,2,291,130,251446.99999999997,59,81.0,0,0,0,0,0,0
1778196086.1545348,5.867244005203247,wait_slave,2,0.0555029061936752,1.4100078626565649,3.815284780704523,0.02187910927184089,1.333878135761298,3.8208199734902677,2,3.362379692183431,7.612972689526676,-0.5535192785744769,8.340823338114781,5,11,27,294,130,251431.0,59,81.0,0,0,0,0,0,0
1778196086.2241762,5.936885356903076,wait_slave,2,0.0555029061936752,1.4100078626565649,3.815284780704523,0.021571424047956644,1.3307812346287626,3.821719417846051,2,3.3931482145718554,7.922662802780223,-0.6434637141528032,8.64268975747949,2,0,6,298,130,251431.0,59,81.0,0,0,0,0,0,0
1778196086.298146,6.010855197906494,wait_slave,2,0.0555029061936752,1.4100078626565649,3.815284780704523,0.10075700324949233,1.4096386463562314,3.819114088429011,2,-4.525409705581713,0.036921630033348585,-0.38293077244881957,4.5417322891850125,-29,0,-27,301,130,251441.0,59,81.0,0,0,0,0,0,0
1778196086.366596,6.079305171966553,wait_slave,2,0.0555029061936752,1.4100078626565649,3.815284780704523,0.03383071056468068,1.472625684938575,3.7669569363094144,2,2.167219562899452,-6.261782228201018,4.832784439510851,8.201375661802501,26,-22,-27,305,130,251446.99999999997,59,81.0,0,0,0,0,0,0
1778196086.4336,6.14630913734436,wait_slave,2,0.0555029061936752,1.4100078626565649,3.815284780704523,0.023149090689294494,1.412108900177381,3.799053710826988,2,3.2353815504380705,-0.21010375208161403,1.6231069877534754,3.625784557478283,6,10,21,308,130,251446.99999999997,59,81.0,0,0,0,0,0,0
1778196086.502849,6.215558290481567,wait_slave,2,0.0555029061936752,1.4100078626565649,3.815284780704523,0.010441005112492796,1.340640919697286,3.8356626483964895,2,4.50619010811824,6.936694295927892,-2.037786769196659,8.519157937400514,7,14,30,312,130,251444.0,59,81.0,0,-1,0,0,0,0
1778196086.571916,6.284625291824341,wait_slave,2,0.0555029061936752,1.4100078626565649,3.815284780704523,0.029188727601941578,1.409292585370053,3.8030491665953328,2,2.631417859173362,0.07152772865117729,1.2235614109190163,2.90285698783675,-4,-12,-24,315,130,251431.0,59,80.5,0,0,0,0,0,0
1778196086.642483,6.355192184448242,wait_slave,2,0.0555029061936752,1.4100078626565649,3.815284780704523,-0.05350905746025858,1.3392848952178849,3.7972154321424365,2,10.901196365393378,7.072296743868001,1.8069348562086418,13.119393164501684,30,-3,30,318,130,251431.0,59,80.5,0,0,0,0,0,0
1778196086.713862,6.4265711307525635,wait_slave,2,0.0555029061936752,1.4100078626565649,3.815284780704523,0.09618040905639702,1.4086886981705522,3.819656095541156,2,-4.067750286272182,0.13191644860126583,-0.4371314836633111,4.0932967489407215,-30,7,-24,322,130,251434.0,59,80.5,0,0,0,0,0,0
1778196086.784995,6.497704267501831,wait_slave,2,0.0555029061936752,1.4100078626565649,3.815284780704523,0.02914532808889647,1.4071252595760932,3.803220450314357,2,2.6357578104778727,0.2882603080471613,1.2064330390165967,2.9130386057039095,25,-6,0,326,130,251442.0,59,80.5,0,0,0,0,0,0
1778196086.856747,6.569456100463867,wait_slave,2,0.0555029061936752,1.4100078626565649,3.815284780704523,-0.05407306501136877,1.34447583511517,3.794791631234164,2,10.957597120504397,6.553202754139487,2.049314947035885,12.931090160705413,30,-4,26,329,130,251442.0,59,80.5,0,0,0,0,0,0
1778196086.928538,6.641247272491455,wait_slave,2,0.0555029061936752,1.4100078626565649,3.815284780704523,0.03477585463361588,1.4751666323727681,3.765584460271456,2,2.072705156005932,-6.515876971620327,4.9700320433066825,8.453045479856408,-28,-13,-30,333,130,251444.99999999997,59,80.5,0,0,0,0,0,0
1778196087.000929,6.7136383056640625,wait_slave,2,0.0555029061936752,1.4100078626565649,3.815284780704523,0.024555404160554684,1.407861666785693,3.8035853704149765,2,3.0947502033120515,0.21461958708719475,1.1699410289546464,3.3154641302980368,6,12,23,336,130,251448.99999999997,59,80.5,0,-1,0,0,0,0
1778196087.071869,6.784578084945679,wait_slave,2,0.0555029061936752,1.4100078626565649,3.815284780704523,0.011596549724345984,1.3434585346491723,3.834460581082283,2,4.390635646932921,6.654932800739255,-1.9175800377760233,8.200178361947403,7,11,27,340,130,251451.00000000003,59,80.5,0,0,0,0,0,0
1778196087.142902,6.855611085891724,wait_slave,2,0.0555029061936752,1.4100078626565649,3.815284780704523,-0.03609864466971047,1.4770359515401479,3.746465467006942,2,9.160155086338568,-6.702808888358303,6.881931369758076,13.273924347294198,23,-30,-30,343,130,251451.00000000003,59,80.5,0,0,0,0,0,0
1778196087.2143512,6.92706036567688,wait_slave,2,0.0555029061936752,1.4100078626565649,3.815284780704523,-0.0546061415465362,1.350886977247161,3.8126663356620876,2,11.01090477402114,5.912088540940386,0.2618445042435358,12.500455087831112,13,22,30,347,130,251456.0,59,80.5,0,0,0,0,0,0
1778196087.285949,6.998658180236816,wait_slave,2,0.0555029061936752,1.4100078626565649,3.815284780704523,0.018003199946005854,1.421707578953309,3.8155949723565388,2,3.7499706247669344,-1.1699716296744045,-0.031019165201584542,3.928368044044206,-22,0,-25,351,130,251454.0,59,80.5,0,0,0,0,0,0
1778196087.3583958,7.071105003356934,wait_slave,2,0.0555029061936752,1.4100078626565649,3.815284780704523,-0.04317295663460485,1.4163874261275122,3.780890380423289,2,9.867586282828006,-0.6379563470947369,3.439440028123375,10.469288182914404,27,-14,1,354,130,251454.0,59,80.5,0,0,0,0,0,0
1778196087.431645,7.1443541049957275,wait_slave,2,0.0555029061936752,1.4100078626565649,3.815284780704523,0.027546247165771698,1.5533511464544882,3.760609796992658,2,2.79566590279035,-14.334328379792339,5.467498371186474,15.594302048462168,-21,-10,-30,358,130,251452.0,59,80.5,0,0,0,0,0,0
1778196087.5036879,7.216397047042847,wait_slave,2,0.0555029061936752,1.4100078626565649,3.815284780704523,0.025331330760039683,1.492879362543242,3.7994639484507307,2,3.0171575433635516,-8.287149988667707,1.5820832253792272,8.960082695387198,3,12,15,362,130,251435.0,59,80.5,0,0,0,0,0,0
1778196087.575711,7.2884202003479,wait_slave,2,0.0555029061936752,1.4100078626565649,3.815284780704523,0.02903535230886134,1.554080923377788,3.7619522064028232,2,2.646755388481386,-14.407306072122307,5.333257430169969,15.589080061335586,1,-16,-30,365,130,251435.0,59,80.5,0,0,0,0,0,0
1778196087.648059,7.36076807975769,wait_slave,2,0.0555029061936752,1.4100078626565649,3.815284780704523,0.023176006772919644,1.4190137525121207,3.821295556003852,2,3.2326899420755555,-0.9005889855555838,-0.601077529932903,3.4091991698184385,4,20,30,369,130,251448.99999999997,59,80.5,0,0,0,0,0,0
1778196087.717924,7.430633306503296,wait_slave,2,0.0555029061936752,1.4100078626565649,3.815284780704523,0.023176006772919644,1.4190137525121207,3.821295556003852,2,3.2326899420755555,-0.9005889855555838,-0.601077529932903,3.4091991698184385,2,0,0,372,130,251448.0,59,80.5,0,0,0,0,0,0
1778196087.788535,7.501244306564331,wait_slave,2,0.0555029061936752,1.4100078626565649,3.815284780704523,-0.050623850428174855,1.3519228426669638,3.8166412184338503,2,10.612675662185007,5.808501998960103,-0.13564377293273644,12.09900737316053,30,-2,27,376,130,251457.00000000003,59,80.5,0,0,0,0,0,0
1778196087.8594959,7.572205066680908,wait_slave,2,0.0555029061936752,1.4100078626565649,3.815284780704523,0.022073299299687155,1.423195264639805,3.8192609267640703,2,3.3429606893988044,-1.3187401983240088,-0.3976146059547325,3.6155994325159853,-22,0,-26,379,130,251457.00000000003,59,80.5,0,0,0,0,0,0
1778196087.9306428,7.643352031707764,wait_slave,2,0.0555029061936752,1.4100078626565649,3.815284780704523,0.031248671558060437,1.489896457689167,3.8037747495444356,2,2.425423463561476,-7.988859503260204,1.1510031160087308,8.427891985157808,0,-6,-29,383,130,251448.99999999997,59,80.5,-1,0,0,0,0,0
1778196088.0026639,7.7153730392456055,wait_slave,2,0.0555029061936752,1.4100078626565649,3.815284780704523,-0.04219343551127186,1.4259589104768704,3.799941277367538,2,9.769634170494706,-1.5951047820305542,1.5343503336985087,10.017202305907338,30,-2,20,386,130,251448.99999999997,59,80.5,-1,0,0,0,0,0
1778196088.075735,7.78844428062439,wait_slave,2,0.0555029061936752,1.4100078626565649,3.815284780704523,-0.047584173070003066,1.4188217710779738,3.8035230146963666,2,10.308707926367827,-0.8813908421408945,1.1761766008156371,10.412958288789739,9,0,1,390,130,251441.0,59,80.5,0,0,0,0,0,0
1778196088.1475961,7.860305309295654,wait_slave,2,0.0555029061936752,1.4100078626565649,3.815284780704523,0.02316879438018049,1.4181515049448628,3.8220010589282447,2,3.233411181349471,-0.8143642288297892,-0.6716278223721783,3.4013557439141398,-21,6,0,394,130,251444.0,59,80.5,0,0,0,0,0,0
1778196088.2195551,7.93226432800293,wait_slave,2,0.0555029061936752,1.4100078626565649,3.815284780704523,0.02613546533294142,1.4924227557914893,3.8008956700734053,2,2.936744086073378,-8.241489313492444,1.4389110631117585,8.866627147852927,1,-8,-30,397,130,251446.99999999997,59,80.5,0,0,0,0,0,0
1778196088.292002,8.004711151123047,wait_slave,2,0.0555029061936752,1.4100078626565649,3.815284780704523,-0.05153812984171391,1.350823508265095,3.81647942416911,2,10.704103603538911,5.918435439146985,-0.11946434645868642,12.231924776286048,30,4,30,401,130,251446.99999999997,59,80.5,0,0,0,0,0,0
1778196088.364171,8.07688021659851,wait_slave,2,0.0555029061936752,1.4100078626565649,3.815284780704523,-0.05708923344979144,1.3540734278014088,3.8122885878778816,2,11.259213964346666,5.593443485515603,0.29961928266413196,12.57562248300815,10,-2,2,405,130,251442.99999999997,59,80.5,0,0,0,0,0,0
1778196088.4347641,8.147473335266113,wait_slave,2,0.0555029061936752,1.4100078626565649,3.815284780704523,0.02140679221420494,1.4158495890150449,3.8218978733137665,2,3.409611397947026,-0.5841726358480015,-0.6613092609243587,3.521936611023571,-24,3,-22,408,130,251439.0,58,80.5,0,0,0,0,0,0
1778196088.504745,8.217454195022583,wait_slave,2,0.0555029061936752,1.4100078626565649,3.815284780704523,-0.04267072109835923,1.414216736720188,3.783627332369134,2,9.817362729203444,-0.4208874063623247,3.165744833538886,10.323744355449017,30,-15,0,412,130,251439.0,58,80.5,0,0,0,0,0,0
1778196088.576406,8.289115190505981,wait_slave,2,0.0555029061936752,1.4100078626565649,3.815284780704523,0.0263682093831058,1.4790846651308174,3.7856492426076733,2,2.91346968105694,-6.907680247425252,2.96355380968496,8.061451678575345,-20,-1,-27,415,130,251446.99999999997,58,80.5,0,0,0,0,0,0
1778196088.648312,8.361021280288696,wait_slave,2,0.0555029061936752,1.4100078626565649,3.815284780704523,0.012154537445866143,1.3410041008321643,3.83721242570385,2,4.334836874780906,6.90037618244006,-2.192764499932709,8.43885171941725,9,18,30,419,130,251442.99999999997,58,81.0,0,0,0,0,0,0
1778196088.7189991,8.431708335876465,wait_slave,2,0.0555029061936752,1.4100078626565649,3.815284780704523,-0.064376191420082,1.347370820608385,3.813829127976783,2,11.98790976137572,6.263704204817988,0.14556527277398423,13.526461475972923,30,-8,1,422,130,251441.0,58,81.0,0,0,0,0,0,0
1778196088.789752,8.502461194992065,wait_slave,2,0.0555029061936752,1.4100078626565649,3.815284780704523,0.011166810461780474,1.3399224928098188,3.8371020646310265,2,4.4336095731894725,7.008536984674607,-2.1817283926503617,8.575338086182136,-22,8,7,426,130,251441.0,58,81.0,0,0,0,0,0,0
1778196088.861578,8.574287176132202,wait_slave,2,0.0555029061936752,1.4100078626565649,3.815284780704523,0.033193220141776614,1.4809006780293137,3.784174784160042,2,2.2309686051898585,-7.089281537274883,3.110999654448099,8.056888511209864,-4,-20,-30,429,130,251444.99999999997,58,81.0,0,0,0,0,0,0
1778196088.934561,8.647270202636719,wait_slave,2,0.0555029061936752,1.4100078626565649,3.815284780704523,0.014510280460641511,1.3420492491678004,3.8349164826602014,2,4.099262573303369,6.795861348876442,-1.9631701955678427,8.175678707899692,10,18,30,433,130,251433.0,58,81.0,0,0,0,0,0,0
1778196089.005845,8.718554258346558,wait_slave,2,0.0555029061936752,1.4100078626565649,3.815284780704523,0.0223648977501556,1.4024659570194955,3.8062124603759955,2,3.31380084435196,0.7541905637069357,0.907232032852745,3.517548777749425,0,-11,-20,437,130,251433.0,58,81.0,0,0,0,0,0,0
1778196089.079044,8.79175329208374,wait_slave,2,0.0555029061936752,1.4100078626565649,3.815284780704523,0.09388355503503643,1.412349052483866,3.838854798350655,2,-3.8380648841361227,-0.23411898273011378,-2.357001764613198,4.5101010045566765,-25,12,-3,440,130,251439.0,58,81.0,0,0,0,0,0,0
1778196089.151469,8.86417818069458,wait_slave,2,0.0555029061936752,1.4100078626565649,3.815284780704523,0.09675883026807819,1.4755186291415083,3.802730554871633,2,-4.125592407440299,-6.551076648494347,1.2554225832889898,7.843035370914055,-1,-13,-26,444,130,251446.0,58,81.0,0,0,0,0,0,0
1778196089.222363,8.935072183609009,wait_slave,2,0.0555029061936752,1.4100078626565649,3.815284780704523,-0.0482719620049743,1.408367221265204,3.782997064849049,2,10.37748681986495,0.16406413913607754,3.228771585547374,10.86941192934831,30,-9,23,447,130,251444.0,58,81.0,0,0,0,0,0,0
1778196089.293597,9.006306171417236,wait_slave,2,0.0555029061936752,1.4100078626565649,3.815284780704523,0.09372390156268862,1.4780649443689025,3.800038611494702,2,-3.8220995369013417,-6.80570817123376,1.5246169209821137,7.953022402692224,-30,4,-28,451,130,251444.0,58,81.0,0,0,0,0,0,0
1778196089.367641,9.080350160598755,wait_slave,2,0.0555029061936752,1.4100078626565649,3.815284780704523,0.09569687693713813,1.473661060072669,3.803520302834985,2,-4.019397074346293,-6.365319741610409,1.1764477869538048,7.619506391468364,-1,0,-3,455,130,251441.0,58,81.0,0,-1,0,0,0,0
1778196089.440361,9.153070211410522,wait_slave,2,0.0555029061936752,1.4100078626565649,3.815284780704523,0.09286638778404388,1.4011399471842343,3.823231461029355,2,-3.736348159036868,0.8867915472330568,-0.7946680324832034,3.9215040603871523,0,6,25,458,130,251441.0,58,81.0,0,-1,0,0,0,0
1778196089.512414,9.225123167037964,wait_slave,2,0.0555029061936752,1.4100078626565649,3.815284780704523,0.0008628579135357972,1.2621284909212012,3.8492188535092073,2,5.46400482801394,14.78793717353637,-3.393407280468441,16.126178951634966,30,10,30,462,130,251441.0,58,81.0,0,0,0,0,0,0
1778196089.58746,9.300169229507446,wait_slave,2,0.0555029061936752,1.4100078626565649,3.815284780704523,0.0875578866608212,1.3291806498929675,3.8598266649188795,2,-3.2054980467146006,8.082721276359738,-4.454188421435656,9.769615931676178,-30,5,-17,466,130,251441.0,58,81.0,0,0,0,0,0,0
1778196089.659797,9.372506141662598,wait_slave,2,0.0555029061936752,1.4100078626565649,3.815284780704523,0.017946542573864077,1.3259977868374917,3.822665213914916,2,3.755636361981112,8.401007581907315,-0.7380433210393278,9.231816766944071,27,-12,6,469,130,251440.0,58,80.5,0,0,0,0,0,0
1778196089.732356,9.445065259933472,wait_slave,2,0.0555029061936752,1.4100078626565649,3.815284780704523,-2.3204613423200016e-05,1.262128202196774,3.848399021840132,2,5.552611080709839,14.787966045979095,-3.3114241135609124,16.139422519115264,11,10,30,473,130,251446.0,58,80.5,0,0,0,0,0,0
1778196089.804642,9.517351150512695,wait_slave,2,0.0555029061936752,1.4100078626565649,3.815284780704523,0.024813695206320818,1.402815532515541,3.8048544022656854,2,3.068921098735438,0.7192330141023939,1.043037843883754,3.3201657763750307,-5,-16,-30,477,130,251448.0,58,80.5,0,0,0,0,0,0
1778196089.876995,9.589704275131226,wait_slave,2,0.0555029061936752,1.4100078626565649,3.815284780704523,0.09835850144407987,1.398316623117838,3.8260925593504145,2,-4.285559525040467,1.169123953872675,-1.0807778645891553,4.5717559049855065,-26,7,2,480,130,251448.0,58,80.5,0,0,0,0,0,0
1778196089.949701,9.662410259246826,wait_slave,2,0.0555029061936752,1.4100078626565649,3.815284780704523,0.020212290742636974,1.3996373557823847,3.8067916526221195,2,3.5290615451038225,1.0370506874180174,0.8493128082403434,3.775060498011371,30,-7,0,484,130,251442.99999999997,58,80.5,0,0,0,0,0,0
1778196090.022623,9.735332250595093,wait_slave,2,0.0555029061936752,1.4100078626565649,3.815284780704523,0.08911873153414973,1.4094995496748757,3.8391007677268774,2,-3.361582534047453,0.050831298168918515,-2.3815987022354435,4.1200525885692265,-24,12,-3,487,130,251448.0,58,80.5,0,0,0,0,0,0
1778196090.093886,9.806595087051392,wait_slave,2,0.0555029061936752,1.4100078626565649,3.815284780704523,0.09376530908187741,1.4013029674801194,3.8239658311965288,2,-3.8262402888202214,0.870489517644546,-0.8681050492005848,4.018889538736743,-2,-5,3,491,130,251444.99999999997,58,80.5,0,0,0,0,0,0
1778196090.163851,9.87656021118164,wait_slave,2,0.0555029061936752,1.4100078626565649,3.815284780704523,0.032330868061824836,1.46770709129121,3.7704969090456877,2,2.3172038131850363,-5.769922863464516,4.478787165883524,7.662961427506522,25,-22,-27,495,130,251444.99999999997,58,80.5,0,0,0,0,0,0
1778196090.2322829,9.944992065429688,wait_slave,2,0.0555029061936752,1.4100078626565649,3.815284780704523,0.09350590051383256,1.4096887369491693,3.8410588062418682,2,-3.8002994320157364,0.03191257073955622,-2.5774025537345313,4.591981936936122,-23,26,21,498,130,251446.99999999997,58,80.5,0,0,0,0,0,0
1778196090.300917,10.013626098632812,wait_slave,2,0.0555029061936752,1.4100078626565649,3.815284780704523,0.008338269283857058,1.3341957504520754,3.8395878573933064,2,4.716463690981814,7.581211220448947,-2.430307668878351,9.253441991109023,30,0,30,501,130,251438.0,58,80.5,0,0,0,0,0,0
1778196090.372202,10.084911108016968,wait_slave,2,0.0555029061936752,1.4100078626565649,3.815284780704523,-0.0551835875696729,1.3324089087344229,3.8023177667039936,2,11.068649376334811,7.7598953922142,1.2967014000529353,13.579853093286518,30,-14,6,505,130,251438.0,58,80.5,0,0,0,0,0,0
1778196090.440274,10.15298318862915,wait_slave,2,0.0555029061936752,1.4100078626565649,3.815284780704523,0.008338269283857058,1.3341957504520754,3.8395878573933064,2,4.716463690981814,7.581211220448947,-2.430307668878351,9.253441991109023,-18,14,4,508,130,251444.0,57,80.5,0,0,0,0,0,0
1778196090.5094411,10.222150325775146,wait_slave,2,0.0555029061936752,1.4100078626565649,3.815284780704523,0.009232872709054929,1.3342894398045262,3.84040076265566,2,4.6270033484620265,7.571842285203867,-2.511598195113729,9.22226008483705,4,1,5,512,130,251439.0,57,80.5,0,0,0,0,0,0
1778196090.578538,10.291247129440308,wait_slave,2,0.0555029061936752,1.4100078626565649,3.815284780704523,0.015170737366963283,1.412067525702823,3.821769789286737,2,4.033216882671192,-0.20596630462581533,-0.6485008582214125,4.090209518401111,2,-6,-27,515,130,251439.0,57,80.5,0,0,0,0,0,0
1778196090.6500459,10.362755060195923,wait_slave,2,0.0555029061936752,1.4100078626565649,3.815284780704523,0.009232872709054929,1.3342894398045262,3.84040076265566,2,4.6270033484620265,7.571842285203867,-2.511598195113729,9.22226008483705,6,7,30,519,130,251432.00000000003,57,80.0,0,1,0,0,0,0
1778196090.7211678,10.433876991271973,wait_slave,2,0.0555029061936752,1.4100078626565649,3.815284780704523,0.01603448861244161,1.4122203411942063,3.8225541027685512,2,3.946841758123359,-0.22124785376413936,-0.7269322064028305,4.019320951251245,1,-6,-27,522,130,251446.0,57,80.0,0,0,0,0,0,0
1778196090.802815,10.51552414894104,wait_slave,2,0.0555029061936752,1.4100078626565649,3.815284780704523,0.009921965079562112,1.3334461880498836,3.8419263844057245,2,4.558094111411308,7.6561674606681285,-2.664160370120161,9.300046913429776,6,7,29,526,130,251453.00000000003,57,80.0,0,0,0,0,0,0
1778196090.8729868,10.58569598197937,wait_slave,2,0.0555029061936752,1.4100078626565649,3.815284780704523,0.016735371367358587,1.4114922647221748,3.8240847647446126,2,3.876753482631661,-0.14844020656099577,-0.8799984040089637,3.978146459229336,1,-6,-27,530,130,251453.00000000003,57,80.0,0,0,0,0,0,0
1778196090.943448,10.65615725517273,wait_slave,2,0.0555029061936752,1.4100078626565649,3.815284780704523,0.08902837608606218,1.4135339512667549,3.839864065582889,2,-3.352546989238698,-0.35260886101899924,-2.4579284878365915,4.171967973899278,-25,6,0,533,130,251442.99999999997,57,80.0,0,0,0,0,0,0
1778196091.015369,10.728078126907349,wait_slave,2,0.0555029061936752,1.4100078626565649,3.815284780704523,0.01655069418008337,1.4105929985629189,3.8248300410045744,2,3.895221201359183,-0.058513590635400625,-0.9545260300051428,4.010896656579985,29,-4,1,537,130,251439.0,57,80.0,0,0,0,0,0,0
1778196091.088542,10.80125117301941,wait_slave,2,0.0555029061936752,1.4100078626565649,3.815284780704523,0.1635288886964914,1.5563005679227957,3.8151668068735156,2,-10.80259825028162,-14.629270526623085,0.011797383100731196,18.1854838889802,-30,-3,-30,541,130,251439.0,57,80.0,0,0,0,0,0,0
1778196091.160089,10.872798204421997,wait_slave,2,0.0555029061936752,1.4100078626565649,3.815284780704523,0.08888859586237918,1.412596050887828,3.840643249442465,2,-3.3385689668703984,-0.25881882312630555,-2.535846873794201,4.200422514115263,25,10,30,544,130,251444.99999999997,57,80.0,0,0,0,0,0,0
1778196091.233335,10.946044206619263,wait_slave,2,0.0555029061936752,1.4100078626565649,3.815284780704523,0.017332976690203172,1.4054704110241514,3.827535111272707,2,3.8169929503472027,0.45374516324134806,-1.2250330568184253,4.034355691614592,28,-4,3,548,130,251444.0,57,80.0,0,0,0,0,0,0
1778196091.304922,11.01763129234314,wait_slave,2,0.0555029061936752,1.4100078626565649,3.815284780704523,0.009449715604664122,1.3315282590811002,3.8433509729927766,2,4.605319058901108,7.8479603575464685,-2.806619228825369,9.522423898541327,7,6,30,552,130,251444.0,57,80.0,0,0,0,0,0,0
1778196091.377704,11.090413093566895,wait_slave,2,0.0555029061936752,1.4100078626565649,3.815284780704523,0.015458512063556196,1.4095519913244354,3.8247682175415445,2,4.0044394130119,0.045587133212943165,-0.9483436837021575,4.115454888783917,2,-6,-26,555,130,251446.99999999997,57,80.0,0,0,0,0,0,0
1778196091.449821,11.162530183792114,wait_slave,2,0.0555029061936752,1.4100078626565649,3.815284780704523,0.02007287012891834,1.4027564627533344,3.8293871227257146,2,3.543003606475686,0.7251399903230427,-1.410234202119165,3.881683019759869,2,2,3,559,130,251448.0,57,80.0,0,0,0,0,0,0
1778196091.521609,11.234318256378174,wait_slave,2,0.0555029061936752,1.4100078626565649,3.815284780704523,0.08832560178010074,1.4032965728176676,3.8459090844822708,2,-3.282269558642554,0.6711289838897239,-3.062430377774783,4.5389632502727135,-24,7,0,562,130,251444.0,57,80.0,0,1,0,0,0,0
1778196091.593751,11.30646014213562,wait_slave,2,0.0555029061936752,1.4100078626565649,3.815284780704523,0.09661287421378428,1.543736229913966,3.7848404382444585,2,-4.1109968020109084,-13.372836725740122,3.0444342460064444,14.317878218426937,-3,-23,-30,566,130,251444.0,57,80.0,0,1,0,0,0,0
1778196091.665636,11.378345251083374,wait_slave,2,0.0555029061936752,1.4100078626565649,3.815284780704523,0.09439615253007039,1.402387979760047,3.8474656997031618,2,-3.889324633639519,0.7619882896517938,-3.218091899863884,5.105250996314597,0,23,30,570,130,251444.99999999997,57,80.0,0,0,0,0,0,0
1778196091.737352,11.450061082839966,wait_slave,2,0.0555029061936752,1.4100078626565649,3.815284780704523,0.08292770913621395,1.4109663629191975,3.8629121987004726,2,-2.7424802942538746,-0.09585002626326666,-4.762741799594972,5.4967349255275755,4,8,-2,573,130,251442.99999999997,57,80.0,0,0,0,0,0,0
1778196091.807366,11.52007508277893,wait_slave,2,0.0555029061936752,1.4100078626565649,3.815284780704523,0.026292599272009443,1.468052010689247,3.7950648816761365,2,2.9210306921665756,-5.80441480326821,2.021989902838639,6.805299014750172,23,-25,-24,577,130,251442.99999999997,57,80.0,0,0,0,0,0,0
1778196091.879075,11.591784238815308,wait_slave,2,0.0555029061936752,1.4100078626565649,3.815284780704523,0.08722053088286352,1.4086254211220886,3.84301362729373,2,-3.1717624689188324,0.13824415344763086,-2.7728846589206935,4.215219796983578,-21,18,20,580,130,251441.0,57,80.0,0,-1,0,0,0,0
1778196091.9508119,11.66352105140686,wait_slave,2,0.0555029061936752,1.4100078626565649,3.815284780704523,0.09563801315376486,1.477511503630447,3.8268900850598615,2,-4.013510696008966,-6.750364097388206,-1.1605304355338575,7.938672083294943,-3,-5,-28,584,130,251438.0,57,80.0,-1,0,0,0,0,0
1778196092.022763,11.735472202301025,wait_slave,2,0.0555029061936752,1.4100078626565649,3.815284780704523,0.09316876413684227,1.4033033698579391,3.847223668367535,2,-3.7665857943167076,0.6704492798625727,-3.1938887663012228,4.983733162431734,0,8,26,587,130,251446.99999999997,57,80.0,0,0,0,0,0,0
1778196092.094548,11.807257175445557,wait_slave,2,0.0555029061936752,1.4100078626565649,3.815284780704523,0.006442420589374609,1.3275528254484055,3.84452625833801,2,4.906048560430059,8.24550372081594,-2.924147763348728,10.03036810038319,30,0,30,591,130,251446.99999999997,57,80.0,0,0,0,0,0,0
1778196092.166917,11.879626274108887,wait_slave,2,0.0555029061936752,1.4100078626565649,3.815284780704523,0.08856871426883717,1.402159285153886,3.846001126684891,2,-3.306580807516197,0.7848577502678866,-3.0716345980367876,4.580875181517899,-28,2,-25,595,130,251451.00000000003,57,80.0,0,0,0,0,0,0
1778196092.238376,11.951085090637207,wait_slave,2,0.0555029061936752,1.4100078626565649,3.815284780704523,0.09176357486605291,1.3992774334980025,3.848219394730189,2,-3.626066867237771,1.0730429158562371,-3.2934614025665887,5.0146455542884265,-1,2,2,598,130,251442.99999999997,57,80.0,0,0,0,0,0,0
1778196092.310343,12.023052215576172,wait_slave,2,0.0555029061936752,1.4100078626565649,3.815284780704523,0.07169323528208871,1.2485453000955231,3.8967728005896793,2,-1.6190329088413509,16.146256256104174,-8.148801988515642,18.15835434437083,7,21,30,602,130,251442.99999999997,57,80.0,0,0,0,0,0,0
1778196092.382187,12.094896078109741,wait_slave,2,0.0555029061936752,1.4100078626565649,3.815284780704523,0.09530241122543004,1.466927466656149,3.8104866861899462,2,-3.979950503175484,-5.691960399958407,0.47980945145766896,6.9619419928730775,-8,-30,-30,605,130,251442.99999999997,57,80.0,-1,0,0,0,0,0
1778196092.4543092,12.167018413543701,wait_slave,2,0.0555029061936752,1.4100078626565649,3.815284780704523,0.08214201510029184,1.3259061853069594,3.863233079019509,2,-2.6639108906616644,8.410167734960549,-4.794829831498593,10.040803537396103,4,21,30,609,130,251438.0,57,80.0,0,0,0,0,0,0
1778196092.526322,12.239031076431274,wait_slave,2,0.0555029061936752,1.4100078626565649,3.815284780704523,0.0927518420348471,1.3993625033070125,3.8490307875400855,2,-3.72489358411719,1.0645359349552352,-3.3746006835562614,5.137703644943605,-4,-2,-24,613,130,251438.0,57,80.0,0,0,0,0,0,0
1778196092.598778,12.311487197875977,wait_slave,2,0.0555029061936752,1.4100078626565649,3.815284780704523,0.007389774869923982,1.3275723660973084,3.8453892230501503,2,4.811313132375122,8.24354965592564,-3.010444234562737,10.008377464748675,30,0,30,616,130,251441.0,57,80.0,-1,0,0,0,0,0
1778196092.6695051,12.382214307785034,wait_slave,2,0.0555029061936752,1.4100078626565649,3.815284780704523,0.08889161955419556,1.322427551937333,3.867399855014003,2,-3.3388713360520357,8.758031071923188,-5.211507430948004,10.724317216415608,-29,10,8,620,130,251441.0,57,80.0,0,0,0,0,0,0
1778196092.7412102,12.453919410705566,wait_slave,2,0.0555029061936752,1.4100078626565649,3.815284780704523,0.09616221809398784,1.4720026495912304,3.8091996385486206,2,-4.0659311900312645,-6.199478693466554,0.6085142155902279,7.438791707219003,-3,-20,-30,623,130,251452.0,57,80.0,-1,0,0,0,0,0
1778196092.812479,12.525188207626343,wait_slave,2,0.0555029061936752,1.4100078626565649,3.815284780704523,0.09598531862398663,1.4006918486819138,3.8506876762109825,2,-4.048241243031143,0.9316013974651094,-3.5402895506459586,5.458002237811033,0,16,26,627,130,251452.0,57,80.0,-1,0,0,0,0,0
1778196092.8837981,12.59650731086731,wait_slave,2,0.0555029061936752,1.4100078626565649,3.815284780704523,0.09820133699089806,1.4732963593851207,3.8099197739279553,2,-4.269843079722286,-6.328849672855585,0.5365006776567594,7.65334770438288,-1,-14,-29,631,130,251446.99999999997,57,80.0,-1,0,0,0,0,0
1778196092.954011,12.666720151901245,wait_slave,2,0.0555029061936752,1.4100078626565649,3.815284780704523,0.09995393055369406,1.5430258001169306,3.7894432324594156,2,-4.4451024360018865,-13.301793746036573,2.5841548245107315,14.260943471092286,-1,-8,-30,634,130,251441.0,57,80.0,-1,0,0,0,0,0
1778196093.026212,12.738921165466309,wait_slave,2,0.0555029061936752,1.4100078626565649,3.815284780704523,0.09137971405485079,1.410247263851875,3.8454579334055397,2,-3.5876807861175593,-0.02394011953101849,-3.0173152701016726,4.687879903707965,2,21,30,638,130,251441.0,57,80.0,-1,0,0,0,0,0
1778196093.100343,12.8130521774292,wait_slave,2,0.0555029061936752,1.4100078626565649,3.815284780704523,0.03276205641473651,1.3995898924663883,3.816672962499127,2,2.274084977893869,1.041797019017654,-0.1388181794604204,2.505209372979699,22,-9,4,641,130,251436.0,57,80.0,0,0,0,0,0,0
1778196093.172351,12.88506007194519,wait_slave,2,0.0555029061936752,1.4100078626565649,3.815284780704523,0.033517492735315346,1.3966425187920863,3.818325430392607,2,2.1985413458359853,1.3365343864478518,-0.30406496880841516,2.5908229813640884,2,0,2,645,130,251444.99999999997,57,80.0,0,0,0,0,0,0
1778196093.243635,12.95634412765503,wait_slave,2,0.0555029061936752,1.4100078626565649,3.815284780704523,0.10224497931340859,1.4761025721533145,3.8113618855563343,2,-4.67420731197334,-6.609470949674967,0.39228951481886654,8.104764727821479,-25,-2,-30,649,130,251444.99999999997,57,80.0,0,0,0,0,0,0
1778196093.3159528,13.028661966323853,wait_slave,2,0.0555029061936752,1.4100078626565649,3.815284780704523,0.03954473485984433,1.4661211595229293,3.780573053217464,2,1.5958171333830866,-5.611329686636446,3.471172748705875,6.788423486103736,24,-12,0,652,130,251444.99999999997,57,80.0,0,0,0,0,0,0
1778196093.3884318,13.101140975952148,wait_slave,2,0.0555029061936752,1.4100078626565649,3.815284780704523,0.10328079153586844,1.4773156693015381,3.811299891462319,2,-4.777788534219325,-6.730780664497327,0.39848892422038595,8.263744009467805,-23,10,-8,656,130,251444.99999999997,57,80.0,0,0,0,0,0,0
1778196093.459916,13.172625303268433,wait_slave,2,0.0555029061936752,1.4100078626565649,3.815284780704523,0.02995045266914287,1.4059055790713573,3.812800772822832,2,2.555245352453233,0.4102283585207589,0.24840078816907862,2.599859432533133,28,0,25,659,130,251437.0,57,80.0,0,0,0,0,0,0
1778196093.532195,13.244904279708862,wait_slave,2,0.0555029061936752,1.4100078626565649,3.815284780704523,-0.03993208601732334,1.4065066304457008,3.794909494106565,2,9.543499221099855,0.3501232210864069,2.0375286597957842,9.764859788679336,30,-7,0,663,130,251435.0,57,80.0,0,0,0,0,0,0
1778196093.603612,13.31632113456726,wait_slave,2,0.0555029061936752,1.4100078626565649,3.815284780704523,0.105582450117365,1.4746464422552767,3.813283280380501,2,-5.007954392368981,-6.463857959871189,0.20015003240221318,8.179310909661552,-30,6,-28,667,130,251435.0,57,80.0,0,0,0,0,0,0
1778196093.67439,13.387099266052246,wait_slave,2,0.0555029061936752,1.4100078626565649,3.815284780704523,0.016589592589960622,1.3343974814764263,3.847932570904878,2,3.8913313603714577,7.561038118013852,-3.2647790200355242,9.108816565719883,30,14,30,670,130,251442.0,57,80.0,0,0,0,0,0,0
1778196093.7465868,13.459295988082886,wait_slave,2,0.0555029061936752,1.4100078626565649,3.815284780704523,0.10337927278834302,1.4791603029894125,3.809624815214833,2,-4.7876366594667825,-6.915244033284762,0.5659965489690055,8.42985272210586,-30,-13,-30,674,130,251442.0,57,80.0,0,0,0,0,0,0
1778196093.816968,13.529677152633667,wait_slave,2,0.0555029061936752,1.4100078626565649,3.815284780704523,0.10390699597134023,1.548500237468772,3.788186439198218,2,-4.840408977766503,-13.849237481220712,2.709834150630508,14.918918828360669,-1,-9,-30,677,130,251439.0,57,80.0,0,0,0,0,0,0
1778196093.88906,13.601769208908081,wait_slave,2,0.0555029061936752,1.4100078626565649,3.815284780704523,0.10562386856617467,1.475580309088464,3.812446107886127,2,-5.012096237249947,-6.557244643189919,0.2838672818395782,8.258277461783235,-2,8,20,681,130,251439.0,57,80.0,0,0,0,0,0,0
1778196093.960782,13.67349123954773,wait_slave,2,0.0555029061936752,1.4100078626565649,3.815284780704523,0.040788702691068046,1.4690832662459568,3.7789626374581267,2,1.4714203502607153,-5.9075403589391895,3.6322143246396266,7.0892236415403085,24,-13,-1,684,130,251439.0,57,80.0,-1,0,0,0,0,0
1778196094.0325959,13.745305061340332,wait_slave,2,0.0555029061936752,1.4100078626565649,3.815284780704523,0.10337927278834302,1.4791603029894125,3.809624815214833,2,-4.7876366594667825,-6.915244033284762,0.5659965489690055,8.42985272210586,-23,10,-8,688,130,251450.0,57,80.0,0,0,0,0,0,0
1778196094.10341,13.816119194030762,wait_slave,2,0.0555029061936752,1.4100078626565649,3.815284780704523,0.10337927278834302,1.4791603029894125,3.809624815214833,2,-4.7876366594667825,-6.915244033284762,0.5659965489690055,8.42985272210586,-1,0,-4,691,130,251450.0,57,80.0,0,0,0,0,0,0
1778196094.173919,13.886628150939941,wait_slave,2,0.0555029061936752,1.4100078626565649,3.815284780704523,0.10320876322366979,1.402571432327822,3.8324635130060276,2,-4.770585702999459,0.743643032874286,-1.7178732301504684,5.1247030494334895,-1,9,27,695,130,251452.0,57,80.0,0,0,0,0,0,0
1778196094.245211,13.95792007446289,wait_slave,2,0.0555029061936752,1.4100078626565649,3.815284780704523,0.10337927278834302,1.4791603029894125,3.809624815214833,2,-4.7876366594667825,-6.915244033284762,0.5659965489690055,8.42985272210586,-1,-8,-30,699,130,251444.99999999997,57,80.0,0,0,0,0,0,0
1778196094.316884,14.029593229293823,wait_slave,2,0.0555029061936752,1.4100078626565649,3.815284780704523,0.10929639188948426,1.536009545939879,3.7751764123705813,2,-5.379348569580906,-12.600168328331417,4.01083683339416,14.275449031097049,-3,-14,-28,702,130,251444.99999999997,57,80.0,0,0,0,0,0,0
1778196094.387638,14.10034728050232,wait_slave,2,0.0555029061936752,1.4100078626565649,3.815284780704523,0.03345148717667401,1.403430837967547,3.8135546457328955,2,2.205141901700119,0.6577024689017774,0.17301349716274395,2.307630172803604,29,13,30,706,130,251458.0,56,80.0,0,0,0,0,0,0
1778196094.459625,14.17233419418335,wait_slave,2,0.0555029061936752,1.4100078626565649,3.815284780704523,0.10121548708579431,1.4020460640509227,3.8308621777891054,2,-4.571258089211911,0.7961798605642167,-1.55773970845825,4.89457412732313,-24,6,0,709,130,251444.99999999997,56,80.0,0,0,0,0,0,0
1778196094.532759,14.245468139648438,wait_slave,2,0.0555029061936752,1.4100078626565649,3.815284780704523,-0.05157123715801171,1.3373021994054635,3.8048198821395576,2,10.707414335168691,7.270566325110139,1.0464898564965353,12.98479870666279,30,-9,27,713,130,251451.00000000003,56,80.0,0,0,0,0,0,0
1778196094.604692,14.31740117073059,wait_slave,2,0.0555029061936752,1.4100078626565649,3.815284780704523,0.09935271670501356,1.4025195883055224,3.8285033026245037,2,-4.384981051133836,0.748827435104249,-1.3218521919980741,4.640699792472868,-30,8,-22,717,130,251451.00000000003,56,80.0,0,0,0,0,0,0
1778196094.677233,14.389942169189453,wait_slave,2,0.0555029061936752,1.4100078626565649,3.815284780704523,0.025377451553795227,1.400586442444383,3.8114491066695804,2,3.012545463987997,0.9421420212181841,0.383567403494256,3.1796518227257318,28,-6,1,720,130,251456.0,56,80.0,0,0,0,0,0,0
1778196094.748769,14.461478233337402,wait_slave,2,0.0555029061936752,1.4100078626565649,3.815284780704523,0.030766895207809952,1.4654900161628608,3.775252638172712,2,2.4736010985865247,-5.548215350629593,4.003214253181087,7.275102771010353,1,-15,-26,724,130,251446.99999999997,56,80.0,0,0,0,0,0,0
1778196094.820677,14.53338623046875,wait_slave,2,0.0555029061936752,1.4100078626565649,3.815284780704523,0.09848883739841574,1.4032238247672124,3.8269630601168214,2,-4.298593120474054,0.6784037889352446,-1.1678279412298487,4.505769259132752,-24,18,22,727,130,251446.99999999997,56,80.0,0,0,0,0,0,0
1778196094.893454,14.606163263320923,wait_slave,2,0.0555029061936752,1.4100078626565649,3.815284780704523,0.025917998454106583,1.4086176103305053,3.80562606688968,2,2.9584907739568616,0.13902523260596045,0.9658713814842734,3.115269362424275,27,-7,-1,731,130,251448.0,56,80.0,0,0,0,0,0,0
