timestamp,elapsed,target_x,target_y,target_z,pos_x,pos_y,pos_z,marker_id,err_x_cm,err_y_cm,err_z_cm,err_3d_cm,cmd_lr,cmd_fb,cmd_ud,feedback,tello_height_cm,tello_baro_cm,tello_battery,tello_temp_c,tello_pitch,tello_roll,tello_yaw,tello_vgx,tello_vgy,tello_vgz,tello_agx,tello_agy,tello_agz
1777592795.738448,7.152557373046875e-07,1.2319737296260227,1.4486402550653397,3.2280181608975913,1.2332699870372568,1.3969641803210573,3.216447897102144,2,-0.12962574112340697,5.167607474428237,1.1570263795447122,5.29713883955204,0,0,0,ok,160,252929.0,59,74.5,0,0,0,0,0,0,-12.0,8.0,-1008.0
1777592795.798757,0.06030988693237305,1.2319737296260227,1.4486402550653397,3.2280181608975913,1.1840617846953079,1.425237955684397,3.2005695120062265,2,4.791194493071482,2.3402299380942626,2.744864889136478,5.997208024840008,0,0,0,ok,160,252929.0,59,74.5,0,0,0,0,0,0,-12.0,8.0,-1008.0
1777592795.86921,0.13076281547546387,1.2319737296260227,1.4486402550653397,3.2280181608975913,1.1840617846953079,1.425237955684397,3.2005695120062265,2,4.791194493071482,2.3402299380942626,2.744864889136478,5.997208024840008,0,0,0,ok,160,252930.00000000003,59,74.5,0,0,0,0,0,0,-32.0,17.0,-957.0
1777592795.94034,0.20189285278320312,1.2319737296260227,1.4486402550653397,3.2280181608975913,1.1840617846953079,1.425237955684397,3.2005695120062265,2,4.791194493071482,2.3402299380942626,2.744864889136478,5.997208024840008,0,0,0,ok,160,252931.0,59,74.5,0,0,0,0,0,0,-2.0,2.0,-1028.0
1777592796.0112572,0.2728099822998047,1.2319737296260227,1.4486402550653397,3.2280181608975913,1.1703267525918957,1.4871784405588402,3.1551517245303176,2,6.164697703412703,-3.853818549350052,7.286643636727375,10.293230332331825,0,0,0,ok,160,252931.0,59,74.5,0,0,0,0,0,0,-2.0,2.0,-1028.0
1777592796.082355,0.34390783309936523,1.2319737296260227,1.4486402550653397,3.2280181608975913,1.1703267525918957,1.4871784405588402,3.1551517245303176,2,6.164697703412703,-3.853818549350052,7.286643636727375,10.293230332331825,0,0,0,ok,160,252929.0,59,74.5,0,0,0,0,0,0,-35.0,14.0,-1007.0
1777592796.152456,0.41400885581970215,1.2319737296260227,1.4486402550653397,3.2280181608975913,1.2314333073967558,1.3839567217999704,3.193420856922284,2,0.05404222292668681,6.468353326536924,3.459730397530736,7.335683318026913,0,0,0,ok,160,252931.0,59,74.0,0,0,0,0,0,0,-37.0,37.0,-972.0
1777592796.2240582,0.4856109619140625,1.2319737296260227,1.4486402550653397,3.2280181608975913,1.2314333073967558,1.3839567217999704,3.193420856922284,2,0.05404222292668681,6.468353326536924,3.459730397530736,7.335683318026913,0,0,0,ok,160,252931.0,59,74.0,0,0,0,0,0,0,-37.0,37.0,-972.0
1777592796.296042,0.5575947761535645,1.2319737296260227,1.4486402550653397,3.2280181608975913,1.1797931621042483,1.4160070994649052,3.1898767718659857,2,5.218056752177436,3.263315560043445,3.8141389031605577,7.240511051436149,0,0,0,ok,160,252929.0,59,74.0,0,0,0,0,0,0,-12.0,17.0,-1015.0
1777592796.3669262,0.62847900390625,1.2319737296260227,1.4486402550653397,3.2280181608975913,1.2162707220043305,1.4558075165870101,3.17184363540972,2,1.5703007621692189,-0.7167261521670465,5.6174525487871385,5.876675420571101,0,0,0,ok,160,252923.99999999997,59,74.0,0,0,0,0,0,0,14.0,-17.0,-997.0
1777592796.4367108,0.6982636451721191,1.2319737296260227,1.4486402550653397,3.2280181608975913,1.2106393521928343,1.4509934996914384,3.161195599336467,2,2.1334377433188445,-0.23532446260987605,6.682256156112443,7.018509923283052,0,0,0,ok,160,252923.99999999997,59,74.0,0,0,0,0,0,0,14.0,-17.0,-997.0
1777592796.505839,0.7673919200897217,1.2319737296260227,1.4486402550653397,3.2280181608975913,1.2325638087037933,1.380724519044135,3.193622322189049,2,-0.05900790777706444,6.79157360212046,3.4395838708542126,7.613126238992768,0,0,0,ok,160,252926.00000000003,59,74.0,0,0,0,0,0,0,-13.0,-6.0,-987.0
1777592796.576437,0.8379898071289062,1.2319737296260227,1.4486402550653397,3.2280181608975913,1.2325638087037933,1.380724519044135,3.193622322189049,2,-0.05900790777706444,6.79157360212046,3.4395838708542126,7.613126238992768,0,0,0,ok,160,252932.00000000003,59,74.0,0,0,0,0,0,0,-12.0,-6.0,-994.0
1777592796.646199,0.9077517986297607,1.2319737296260227,1.4486402550653397,3.2280181608975913,1.2529360309812967,1.3002100336247362,3.2142097694776255,2,-2.0962301355273993,14.843022144060347,1.3808391419965815,15.053777063787976,0,0,0,ok,160,252930.00000000003,58,74.0,0,0,0,0,0,0,-6.0,5.0,-1006.0
1777592796.717118,0.9786708354949951,1.2319737296260227,1.4486402550653397,3.2280181608975913,1.2145050917359745,1.4518358044399706,3.160186992917844,2,1.7468637890048155,-0.3195549374630957,6.783116797974742,7.011727458362913,0,0,0,ok,160,252930.00000000003,58,74.0,0,0,0,0,0,0,-6.0,5.0,-1006.0
1777592796.7878258,1.0493786334991455,1.2319737296260227,1.4486402550653397,3.2280181608975913,1.1664792049537411,1.4773861976055205,3.1444557428810564,2,6.549452467228156,-2.8745942540180813,8.356241801653486,10.999336197853752,0,0,0,ok,160,252919.0,58,74.0,0,0,0,0,0,0,-11.0,-1.0,-1002.0
1777592796.860081,1.121633768081665,1.2319737296260227,1.4486402550653397,3.2280181608975913,1.2100314803319676,1.4472424897702028,3.149460951231515,2,2.1942249294055083,0.13977652951369102,7.855720966607649,8.157604576358585,0,0,0,ok,160,252925.0,58,74.0,0,0,0,0,0,0,-8.0,2.0,-1010.0
1777592796.931123,1.1926758289337158,1.2319737296260227,1.4486402550653397,3.2280181608975913,1.1370550288097294,1.436616943325832,3.16075689842385,2,9.491870081629328,1.2023311739507658,6.72612624737412,11.695382515933321,0,0,0,ok,160,252929.0,58,74.0,0,0,0,0,0,0,-6.0,-8.0,-988.0
1777592797.002753,1.264305830001831,1.2319737296260227,1.4486402550653397,3.2280181608975913,1.1370550288097294,1.436616943325832,3.16075689842385,2,9.491870081629328,1.2023311739507658,6.72612624737412,11.695382515933321,0,0,0,ok,160,252923.0,58,74.0,0,0,0,0,0,0,-15.0,4.0,-998.0
1777592797.074333,1.335885763168335,1.2319737296260227,1.4486402550653397,3.2280181608975913,1.1698351715704876,1.470457648182232,3.1333959215380163,2,6.213855805553514,-2.1817393116892347,9.462223935957503,11.528472240960136,0,0,0,ok,160,252923.0,58,74.0,0,0,0,0,0,0,-15.0,4.0,-998.0
1777592797.145398,1.4069507122039795,1.2319737296260227,1.4486402550653397,3.2280181608975913,1.2137159533406825,1.4406221387112899,3.1381020756743645,2,1.82577762853402,0.8018116354049809,8.99160852232268,9.210070014187297,0,0,0,ok,160,252921.99999999997,58,74.0,0,0,0,0,0,0,-16.0,20.0,-1003.0
1777592797.216602,1.4781548976898193,1.2319737296260227,1.4486402550653397,3.2280181608975913,1.2137159533406825,1.4406221387112899,3.1381020756743645,2,1.82577762853402,0.8018116354049809,8.99160852232268,9.210070014187297,0,0,0,ok,160,252929.0,58,74.0,0,0,0,0,0,0,-30.0,40.0,-991.0
1777592797.288384,1.5499367713928223,1.2319737296260227,1.4486402550653397,3.2280181608975913,1.1820992283988945,1.3978912138233588,3.1559153919413103,2,4.987450122712822,5.0749041241980875,7.210276895628098,10.130024852288333,0,0,0,ok,160,252929.0,58,74.0,0,0,0,0,0,0,-30.0,40.0,-991.0
1777592797.360594,1.6221468448638916,1.2319737296260227,1.4486402550653397,3.2280181608975913,1.1820992283988945,1.3978912138233588,3.1559153919413103,2,4.987450122712822,5.0749041241980875,7.210276895628098,10.130024852288333,0,0,0,ok,160,252925.0,58,74.0,0,0,0,0,0,0,-3.0,3.0,-1011.0
1777592797.43203,1.6935827732086182,1.2319737296260227,1.4486402550653397,3.2280181608975913,1.1820992283988945,1.3978912138233588,3.1559153919413103,2,4.987450122712822,5.0749041241980875,7.210276895628098,10.130024852288333,0,0,0,ok,160,252923.0,58,74.0,0,0,0,0,0,0,-19.0,-3.0,-993.0
1777592797.503794,1.7653467655181885,1.2319737296260227,1.4486402550653397,3.2280181608975913,1.2094165593855144,1.4404971949509013,3.138935325775418,2,2.2557170240508295,0.8143060114438327,8.908283512217352,9.225446802562455,0,0,0,ok,160,252923.0,58,74.0,0,0,0,0,0,0,-19.0,-3.0,-993.0
1777592797.575378,1.836930751800537,1.2319737296260227,1.4486402550653397,3.2280181608975913,1.212275789560199,1.434953384666799,3.127165566743345,2,1.9697940065823705,1.3686870398540663,10.085259415424641,10.366573692297937,0,0,0,ok,160,252923.99999999997,58,74.0,0,0,0,0,0,0,3.0,-11.0,-994.0
1777592797.647073,1.908625841140747,1.2319737296260227,1.4486402550653397,3.2280181608975913,1.1820992283988945,1.3978912138233588,3.1559153919413103,2,4.987450122712822,5.0749041241980875,7.210276895628098,10.130024852288333,0,0,0,ok,160,252926.00000000003,58,74.0,0,0,0,0,0,0,-23.0,9.0,-981.0
1777592797.718293,1.9798457622528076,1.2319737296260227,1.4486402550653397,3.2280181608975913,1.1820992283988945,1.3978912138233588,3.1559153919413103,2,4.987450122712822,5.0749041241980875,7.210276895628098,10.130024852288333,0,0,0,ok,160,252927.0,58,74.0,0,0,0,0,0,0,-18.0,10.0,-1012.0
1777592797.7895648,2.0511176586151123,1.2319737296260227,1.4486402550653397,3.2280181608975913,1.1820992283988945,1.3978912138233588,3.1559153919413103,2,4.987450122712822,5.0749041241980875,7.210276895628098,10.130024852288333,0,0,0,ok,160,252927.0,58,74.0,0,0,0,0,0,0,-18.0,10.0,-1012.0
1777592797.860971,2.122523784637451,1.2319737296260227,1.4486402550653397,3.2280181608975913,1.2088114853838876,1.4368260091054643,3.127365096442925,2,2.316224424213509,1.1814245959875347,10.065306445466637,10.395722846463334,0,0,0,ok,160,252916.0,58,74.0,0,0,0,0,0,0,-1.0,-12.0,-1014.0
1777592797.9317062,2.1932590007781982,1.2319737296260227,1.4486402550653397,3.2280181608975913,1.1813649539199707,1.3942910680764866,3.1443531603106596,2,5.0608775706052045,5.434918698885305,8.366500058693171,11.187007923491464,0,0,0,ok,160,252926.00000000003,58,74.0,0,0,0,0,0,0,-18.0,2.0,-1010.0
1777592798.00285,2.2644028663635254,1.2319737296260227,1.4486402550653397,3.2280181608975913,1.2088114853838876,1.4368260091054643,3.127365096442925,2,2.316224424213509,1.1814245959875347,10.065306445466637,10.395722846463334,0,0,0,ok,160,252926.00000000003,58,74.0,0,0,0,0,0,0,-18.0,2.0,-1010.0
1777592798.0726452,2.334197998046875,1.2319737296260227,1.4486402550653397,3.2280181608975913,1.1779505619278394,1.394446953677859,3.14491499528642,2,5.402316769818327,5.419330138748069,8.310316561117137,11.296704253019163,0,0,0,ok,160,252921.99999999997,58,74.0,0,0,0,0,0,0,4.0,-15.0,-1003.0
1777592798.143719,2.4052717685699463,1.2319737296260227,1.4486402550653397,3.2280181608975913,1.213885472228037,1.4362301247392448,3.1273122765630963,2,1.8088257397985696,1.2410130326094837,10.070588433449501,10.30673155272763,0,0,0,ok,160,252927.0,58,74.0,0,0,0,0,0,0,6.0,-17.0,-1005.0
1777592798.215085,2.476637840270996,1.2319737296260227,1.4486402550653397,3.2280181608975913,1.213885472228037,1.4362301247392448,3.1273122765630963,2,1.8088257397985696,1.2410130326094837,10.070588433449501,10.30673155272763,0,0,0,ok,160,252927.0,58,74.0,0,0,0,0,0,0,6.0,-17.0,-1005.0
1777592798.285894,2.5474467277526855,1.2319737296260227,1.4486402550653397,3.2280181608975913,1.2299041368218298,1.363096060082773,3.148403751408363,2,0.20695928041929434,8.55441949825666,7.9614409489228155,11.687834148339478,0,0,0,ok,160,252930.00000000003,58,74.0,0,0,0,0,0,0,-11.0,-4.0,-995.0
1777592798.358648,2.6202008724212646,1.2319737296260227,1.4486402550653397,3.2280181608975913,1.2299041368218298,1.363096060082773,3.148403751408363,2,0.20695928041929434,8.55441949825666,7.9614409489228155,11.687834148339478,0,0,0,ok,160,252923.0,58,74.0,0,0,0,0,0,0,-11.0,-8.0,-979.0
1777592798.4311638,2.692716598510742,1.2319737296260227,1.4486402550653397,3.2280181608975913,1.2084445405572073,1.4316385394209994,3.116949936579517,2,2.3529189068815404,1.7001715644340276,11.106822431807428,11.479909200972426,0,0,0,ok,160,252916.0,58,74.0,0,0,0,0,0,0,1.0,-2.0,-1005.0
1777592798.503807,2.765359878540039,1.2319737296260227,1.4486402550653397,3.2280181608975913,1.2128610903725023,1.4331870821640234,3.1160957275246832,2,1.9112639253520358,1.5453172901316314,11.192243337290808,11.458937395791214,0,0,0,ok,160,252916.0,58,74.0,0,0,0,0,0,0,1.0,-2.0,-1005.0
1777592798.574365,2.8359177112579346,1.2319737296260227,1.4486402550653397,3.2280181608975913,1.2086585452422298,1.4330873672911695,3.1169132453133255,2,2.3315184383792875,1.5552887774170188,11.110491558426583,11.458530624802215,0,0,0,ok,160,252928.00000000003,58,74.0,0,0,0,0,0,0,-24.0,23.0,-1003.0
1777592798.645132,2.9066848754882812,1.2319737296260227,1.4486402550653397,3.2280181608975913,1.2086585452422298,1.4330873672911695,3.1169132453133255,2,2.3315184383792875,1.5552887774170188,11.110491558426583,11.458530624802215,0,0,0,ok,160,252925.0,57,74.0,0,0,0,0,0,0,-13.0,15.0,-1002.0
1777592798.7155688,2.977121591567993,1.2319737296260227,1.4486402550653397,3.2280181608975913,1.2300998319159058,1.3646506297590983,3.1483700560610037,2,0.1873897710116923,8.398962530624132,7.964810483658757,11.576523336378171,0,0,0,ok,160,252925.0,57,74.0,0,0,0,0,0,0,-13.0,15.0,-1002.0
1777592798.787294,3.04884672164917,1.2319737296260227,1.4486402550653397,3.2280181608975913,1.2300998319159058,1.3646506297590983,3.1483700560610037,2,0.1873897710116923,8.398962530624132,7.964810483658757,11.576523336378171,0,0,0,ok,160,252925.0,57,74.0,0,0,0,0,0,0,-5.0,11.0,-994.0
1777592798.858308,3.119860887527466,1.2319737296260227,1.4486402550653397,3.2280181608975913,1.1834703955842434,1.3969610063029747,3.144770188895391,2,4.850333404177931,5.167924876236496,8.324797200220013,10.933225968711122,0,0,0,ok,160,252929.0,57,74.0,0,0,0,0,0,0,-35.0,32.0,-990.0
1777592798.9298382,3.1913909912109375,1.2319737296260227,1.4486402550653397,3.2280181608975913,1.2126033127267075,1.4353138252680782,3.115908179835526,2,1.937041689931518,1.3326429797261508,11.210998106206516,11.454891809061849,0,0,0,ok,160,252929.0,57,74.0,0,0,0,0,0,0,-35.0,32.0,-990.0
1777592798.99981,3.2613627910614014,1.2319737296260227,1.4486402550653397,3.2280181608975913,1.200302974217523,1.4978289264468119,3.0838900693400237,2,3.167075540849962,-4.91886713814722,14.412809155756756,15.554892772515677,0,0,0,ok,160,252926.00000000003,57,74.0,0,0,0,0,0,0,-32.0,13.0,-977.0
1777592799.070637,3.3321897983551025,1.2319737296260227,1.4486402550653397,3.2280181608975913,1.21470331206951,1.435958186164826,3.116198364981256,2,1.7270417556512596,1.26820689005136,11.181979591633517,11.385415650271414,0,0,0,ok,160,252917.0,57,74.0,0,0,0,0,0,0,-13.0,10.0,-1006.0
1777592799.141942,3.4034948348999023,1.2319737296260227,1.4486402550653397,3.2280181608975913,1.2105087774385708,1.4358702173798257,3.117020720674595,2,2.1464952187451924,1.277003768551399,11.099744022299651,11.377279890622685,0,0,0,ok,160,252917.0,57,74.0,0,0,0,0,0,0,-13.0,10.0,-1006.0
1777592799.2132852,3.4748380184173584,1.2319737296260227,1.4486402550653397,3.2280181608975913,1.1717955382666456,1.4666269558579725,3.1116234758180275,2,6.017819135937708,-1.798670079263287,11.639468507956385,13.225981564882188,0,0,0,ok,160,252923.99999999997,57,74.5,0,0,0,0,0,0,-7.0,5.0,-1008.0
1777592799.2852259,3.546778678894043,1.2319737296260227,1.4486402550653397,3.2280181608975913,1.1717955382666456,1.4666269558579725,3.1116234758180275,2,6.017819135937708,-1.798670079263287,11.639468507956385,13.225981564882188,0,0,0,ok,160,252927.0,57,74.5,0,0,0,0,0,0,-22.0,15.0,-967.0
1777592799.3566148,3.6181676387786865,1.2319737296260227,1.4486402550653397,3.2280181608975913,1.210725935932538,1.437350829818183,3.1169829355319814,2,2.124779369348473,1.1289425247156704,11.103522536560995,11.361224023512527,0,0,0,ok,160,252931.0,57,74.5,0,0,0,0,0,0,-29.0,25.0,-996.0
1777592799.430309,3.691861867904663,1.2319737296260227,1.4486402550653397,3.2280181608975913,1.232221224404877,1.3692409882068741,3.1484121460337944,2,-0.02474947788542181,7.9399266858465545,7.960601486379693,11.24340803930127,0,0,0,ok,160,252931.0,57,74.5,0,0,0,0,0,0,-29.0,25.0,-996.0
1777592799.502166,3.763718843460083,1.2319737296260227,1.4486402550653397,3.2280181608975913,1.232221224404877,1.3692409882068741,3.1484121460337944,2,-0.02474947788542181,7.9399266858465545,7.960601486379693,11.24340803930127,0,0,0,ok,160,252923.99999999997,57,74.5,0,0,0,0,0,0,12.0,10.0,-1016.0
1777592799.574456,3.8360087871551514,1.2319737296260227,1.4486402550653397,3.2280181608975913,1.257803795004963,1.413471594332154,3.1306398835049265,2,-2.583006537894028,3.5168660733185586,9.73782773926648,10.670780610250128,0,0,0,ok,160,252921.0,57,74.5,0,0,0,0,0,0,-1.0,14.0,-1031.0
1777592799.646347,3.907899856567383,1.2319737296260227,1.4486402550653397,3.2280181608975913,1.202120378733254,1.500428554166156,3.0840316897062316,2,2.985335089276875,-5.178829910081628,14.398647119135966,15.590174588317678,0,0,0,ok,160,252921.0,57,74.5,0,0,0,0,0,0,-1.0,14.0,-1031.0
1777592799.7180622,3.9796149730682373,1.2319737296260227,1.4486402550653397,3.2280181608975913,1.1737481956757005,1.4693309311491358,3.1117899534079374,2,5.822553395032215,-2.0690676083796156,11.62282074896539,13.163325224601394,0,0,0,ok,160,252923.0,57,74.5,0,0,0,0,0,0,-3.0,-29.0,-1007.0
1777592799.790041,4.051593780517578,1.2319737296260227,1.4486402550653397,3.2280181608975913,1.2594472542978705,1.414892056436603,3.1307334198459076,2,-2.7473524671847827,3.374819862873668,9.728474105168372,10.657418219283905,0,0,0,ok,160,252925.0,57,74.5,0,0,0,0,0,0,-1.0,-14.0,-1005.0
1777592799.861844,4.123396873474121,1.2319737296260227,1.4486402550653397,3.2280181608975913,1.218110308913685,1.4447219337860795,3.127463549782,2,1.3863420712337593,0.3918321279260173,10.055461111559127,10.158138359021581,0,0,0,ok,160,252928.00000000003,57,74.5,0,0,0,0,0,0,-26.0,28.0,-991.0
1777592799.93381,4.19536280632019,1.2319737296260227,1.4486402550653397,3.2280181608975913,1.218110308913685,1.4447219337860795,3.127463549782,2,1.3863420712337593,0.3918321279260173,10.055461111559127,10.158138359021581,0,0,0,ok,160,252928.00000000003,57,74.5,0,0,0,0,0,0,-26.0,28.0,-991.0
1777592800.005274,4.266826868057251,1.2319737296260227,1.4486402550653397,3.2280181608975913,1.218110308913685,1.4447219337860795,3.127463549782,2,1.3863420712337593,0.3918321279260173,10.055461111559127,10.158138359021581,0,0,0,ok,160,252927.0,57,74.5,0,0,0,0,0,0,-28.0,3.0,-1002.0
1777592800.0762649,4.337817668914795,1.2319737296260227,1.4486402550653397,3.2280181608975913,1.20049636262673,1.337014344864442,3.189629311653182,2,3.147736699929271,11.162591020089764,3.838884924440933,12.216739420850807,0,0,0,ok,160,252919.0,57,74.5,0,0,0,0,0,0,-1.0,-23.0,-983.0
1777592800.147979,4.409531831741333,1.2319737296260227,1.4486402550653397,3.2280181608975913,1.2190040102397048,1.4498219350729573,3.1389212009311867,2,1.2969719386317857,-0.1181680007617647,8.909695996640465,9.004375749520534,0,0,0,ok,160,252919.0,57,74.5,0,0,0,0,0,0,-1.0,-23.0,-983.0
1777592800.219069,4.480621814727783,1.2319737296260227,1.4486402550653397,3.2280181608975913,1.218341834563782,1.446225462683211,3.1274252173869277,2,1.3631895062240718,0.24147923821287165,10.059294351066361,10.154112501531728,0,0,0,ok,160,252919.99999999997,57,74.0,0,0,0,0,0,0,-3.0,-12.0,-1016.0
1777592800.291281,4.552833795547485,1.2319737296260227,1.4486402550653397,3.2280181608975913,1.1886973214563428,1.4096329859516623,3.1562415177790313,2,4.3276408169679925,3.9007269113677356,7.177664311856002,9.24462062236451,0,0,0,ok,160,252917.99999999997,57,74.0,0,0,0,0,0,0,-6.0,-3.0,-1015.0
1777592800.3643851,4.6259379386901855,1.2319737296260227,1.4486402550653397,3.2280181608975913,1.1757179569885532,1.4756698503721037,3.1226707678013645,2,5.62557726374695,-2.7029595306764076,10.534739309622676,12.244747530944453,0,0,0,ok,160,252917.99999999997,57,74.0,0,0,0,0,0,0,-6.0,-3.0,-1015.0
1777592800.4337769,4.695329666137695,1.2319737296260227,1.4486402550653397,3.2280181608975913,1.205115809968861,1.514098053138853,3.1056164018285624,2,2.6857919657161666,-6.545779807351337,12.240175906902895,14.13798493425991,0,0,0,ok,160,252921.0,57,74.0,0,0,0,0,0,0,-36.0,29.0,-981.0
1777592800.516011,4.777563810348511,1.2319737296260227,1.4486402550653397,3.2280181608975913,1.218110308913685,1.4447219337860795,3.127463549782,2,1.3863420712337593,0.3918321279260173,10.055461111559127,10.158138359021581,0,0,0,ok,160,252919.0,57,74.0,0,0,0,0,0,0,-4.0,-3.0,-1012.0
1777592800.587401,4.848953723907471,1.2319737296260227,1.4486402550653397,3.2280181608975913,1.215518450448457,1.4515216498915988,3.138486304181949,2,1.6455279177565618,-0.2881394826259154,8.953185671564245,9.107706635540447,0,0,0,ok,160,252928.00000000003,57,74.0,0,0,0,0,0,0,-20.0,0.0,-1010.0
1777592800.662666,4.9242188930511475,1.2319737296260227,1.4486402550653397,3.2280181608975913,1.217600137340813,1.4512477184959178,3.138061492950186,2,1.4373592285209735,-0.2607463430578161,8.995666794740531,9.113507079562172,0,0,0,ok,160,252923.99999999997,56,74.0,0,0,0,0,0,0,-39.0,27.0,-980.0
1777592800.735831,4.9973838329315186,1.2319737296260227,1.4486402550653397,3.2280181608975913,1.2355749086453864,1.381810765619322,3.170920104378203,2,-0.3601179019363743,6.682948944601774,5.709805651938815,8.797350287578725,0,0,0,ok,160,252923.0,56,74.0,0,0,0,0,0,0,-36.0,20.0,-972.0
1777592800.809898,5.071450710296631,1.2319737296260227,1.4486402550653397,3.2280181608975913,1.1869001805195054,1.408249899884427,3.156064214147085,2,4.5073549106517286,4.039035518091261,7.195394675050615,9.402327410632205,0,0,0,ok,160,252923.0,56,74.0,0,0,0,0,0,0,-36.0,20.0,-972.0
1777592800.8833659,5.14491868019104,1.2319737296260227,1.4486402550653397,3.2280181608975913,1.1866370313619572,1.406683659076478,3.156104592203429,2,4.53366982640655,4.19565959888617,7.191356869416232,9.48015480822412,0,0,0,ok,160,252929.0,56,74.0,0,0,0,0,0,0,0.0,6.0,-1012.0
1777592800.959627,5.221179723739624,1.2319737296260227,1.4486402550653397,3.2280181608975913,1.182970194933812,1.4116539784298778,3.1674904142218137,2,4.900353469221064,3.6986276635461834,6.052774667577765,8.621449523909952,0,0,0,ok,160,252919.99999999997,56,74.0,0,0,0,0,0,0,-26.0,40.0,-984.0
1777592801.033758,5.295310735702515,1.2319737296260227,1.4486402550653397,3.2280181608975913,1.2176260974333586,1.447601575246432,3.138272460711925,2,1.4347632192664106,0.10386798189077062,8.974570018566652,9.089127629821094,0,0,0,ok,160,252923.0,56,74.0,0,0,0,0,0,0,-49.0,39.0,-986.0
1777592801.108224,5.369776725769043,1.2319737296260227,1.4486402550653397,3.2280181608975913,1.2176260974333586,1.447601575246432,3.138272460711925,2,1.4347632192664106,0.10386798189077062,8.974570018566652,9.089127629821094,0,0,0,ok,160,252923.0,56,74.0,0,0,0,0,0,0,-49.0,39.0,-986.0
1777592801.1815732,5.44312596321106,1.2319737296260227,1.4486402550653397,3.2280181608975913,1.233424538676743,1.3771524529355232,3.170877563125805,2,-0.14508090507203697,7.1487802129816425,5.714059777178626,9.152955049583989,0,0,0,ok,160,252923.0,56,73.5,0,0,0,0,0,0,-15.0,14.0,-1016.0
1777592801.254727,5.516279697418213,1.2319737296260227,1.4486402550653397,3.2280181608975913,1.233424538676743,1.3771524529355232,3.170877563125805,2,-0.14508090507203697,7.1487802129816425,5.714059777178626,9.152955049583989,0,0,0,ok,160,252921.99999999997,56,73.5,0,0,0,0,0,0,-3.0,-12.0,-997.0
1777592801.3318248,5.593377590179443,1.2319737296260227,1.4486402550653397,3.2280181608975913,1.2116889778466837,1.446172060639944,3.1389687237203217,2,2.028475177933897,0.24681944253956978,8.904943717726965,9.136391738569142,0,0,0,ok,160,252921.99999999997,56,73.5,0,0,0,0,0,0,-3.0,-12.0,-997.0
1777592801.405123,5.666675806045532,1.2319737296260227,1.4486402550653397,3.2280181608975913,1.1808750336111882,1.4090706146645422,3.1679095259135557,2,5.109869601483452,3.956964040079747,6.0108634984035625,8.8260303509046,0,0,0,ok,160,252917.99999999997,56,73.5,0,0,0,0,0,0,-31.0,45.0,-1004.0
1777592801.479607,5.741159915924072,1.2319737296260227,1.4486402550653397,3.2280181608975913,1.1809603148335825,1.4087484304551863,3.1673524392723396,2,5.101341479244015,3.9891824610153392,6.0665721625251745,8.873587741057912,0,0,0,ok,160,252923.0,56,73.5,0,0,0,0,0,0,-23.0,28.0,-1038.0
1777592801.550742,5.8122947216033936,1.2319737296260227,1.4486402550653397,3.2280181608975913,1.186455313141926,1.4077121421690126,3.1669881509415125,2,4.551841648409671,4.092811289632703,6.103000995607877,8.643898877076971,0,0,0,ok,160,252923.0,56,73.5,0,0,0,0,0,0,-9.0,-5.0,-1008.0
1777592801.628536,5.890088796615601,1.2319737296260227,1.4486402550653397,3.2280181608975913,1.1720122063876133,1.4744766946949248,3.1335231185187498,2,5.996152323840942,-2.583643962958515,9.449504237884154,11.48573851172948,0,0,0,ok,160,252923.0,56,73.5,0,0,0,0,0,0,-9.0,-5.0,-1008.0
1777592801.705952,5.9675047397613525,1.2319737296260227,1.4486402550653397,3.2280181608975913,1.257610350436515,1.4190639772010853,3.152794221858246,2,-2.563662081049234,2.957627786425432,7.522393903934521,8.479760340646234,0,0,0,ok,160,252923.99999999997,56,73.5,0,0,0,0,0,0,-11.0,-2.0,-1011.0
1777592801.780329,6.041881799697876,1.2319737296260227,1.4486402550653397,3.2280181608975913,1.200420709067189,1.3319763947763086,3.2006727817031195,2,3.155302055883369,11.666386028903108,2.7345379194471775,12.391052887956775,0,0,0,ok,160,252917.0,56,73.5,0,0,0,0,0,0,18.0,-6.0,-966.0
1777592801.855725,6.1172778606414795,1.2319737296260227,1.4486402550653397,3.2280181608975913,1.2608885723296106,1.419223275662255,3.151998644561067,2,-2.8914842703587906,2.941697940308474,7.601951633652426,8.648926910209047,0,0,0,ok,160,252928.00000000003,56,73.5,0,0,0,0,0,0,-40.0,31.0,-965.0
1777592801.9286258,6.190178632736206,1.2319737296260227,1.4486402550653397,3.2280181608975913,1.2153962050115283,1.4480771176420424,3.1493656225266315,2,1.6577524614494354,0.056313742329727745,7.865253837095976,8.03825431191187,0,0,0,ok,160,252928.00000000003,56,73.5,0,0,0,0,0,0,-40.0,31.0,-965.0
1777592802.001754,6.2633068561553955,1.2319737296260227,1.4486402550653397,3.2280181608975913,1.178983633232947,1.405884324452725,3.167216635195443,2,5.299009639307561,4.275593061261462,6.080152570214814,9.128442060947279,0,0,0,ok,160,252917.0,56,73.5,0,0,0,0,0,0,-36.0,17.0,-999.0
1777592802.073447,6.3349997997283936,1.2319737296260227,1.4486402550653397,3.2280181608975913,1.170106301714259,1.4718508058821627,3.133358086359653,2,6.1867427911763695,-2.3210550816822995,9.466007453793823,11.54419248677257,0,0,0,ok,160,252921.0,56,73.5,0,0,0,0,0,0,-20.0,-16.0,-1009.0
1777592802.147263,6.408815860748291,1.2319737296260227,1.4486402550653397,3.2280181608975913,1.170106301714259,1.4718508058821627,3.133358086359653,2,6.1867427911763695,-2.3210550816822995,9.466007453793823,11.54419248677257,0,0,0,ok,160,252921.0,56,73.5,0,0,0,0,0,0,-20.0,-16.0,-1009.0
1777592802.221623,6.483175754547119,1.2319737296260227,1.4486402550653397,3.2280181608975913,1.1787353939591065,1.404377796429201,3.167253343970761,2,5.323833566691616,4.426245863613865,6.0764816926830445,9.211866588944035,0,0,0,ok,160,252929.0,56,73.5,0,0,0,0,0,0,-22.0,20.0,-987.0
1777592802.2968829,6.558435678482056,1.2319737296260227,1.4486402550653397,3.2280181608975913,1.170106301714259,1.4718508058821627,3.133358086359653,2,6.1867427911763695,-2.3210550816822995,9.466007453793823,11.54419248677257,0,0,0,ok,160,252919.0,56,73.5,0,0,0,0,0,0,-17.0,6.0,-1044.0
1777592802.370642,6.632194757461548,1.2319737296260227,1.4486402550653397,3.2280181608975913,1.2311150071048127,1.3710455627198797,3.1708689060020747,2,0.0858722521209998,7.7594692345460015,5.714925489551659,9.637277115278854,0,0,0,ok,160,252923.0,56,73.5,0,0,0,0,0,0,-12.0,30.0,-1007.0
1777592802.4447832,6.70633602142334,1.2319737296260227,1.4486402550653397,3.2280181608975913,1.1836830733664048,1.4040479348274788,3.1668900050307123,2,4.829065625961793,4.459232023786086,6.112815586687903,8.976142794021253,0,0,0,ok,160,252923.0,56,73.5,0,0,0,0,0,0,-12.0,30.0,-1007.0
1777592802.521566,6.783118724822998,1.2319737296260227,1.4486402550653397,3.2280181608975913,1.2151011527841435,1.4404721240617082,3.138284386956061,2,1.687257684187915,0.8168131003631451,8.973377394153026,9.167089177687354,0,0,0,ok,160,252916.0,56,73.5,0,0,0,0,0,0,5.0,-2.0,-1013.0
1777592802.599382,6.860934734344482,1.2319737296260227,1.4486402550653397,3.2280181608975913,1.1849635482483518,1.4021493095009965,3.1674379493609406,2,4.701018137767088,4.649094556434319,6.058021153665072,8.96734475887572,0,0,0,ok,160,252921.99999999997,55,73.5,0,0,0,0,0,0,24.0,-17.0,-1059.0
1777592802.674283,6.935835838317871,1.2319737296260227,1.4486402550653397,3.2280181608975913,1.2156427265223804,1.438226224053739,3.1390422775254097,2,1.6331003103642328,1.0414031011600766,8.897588337218165,9.105965915893728,0,0,0,ok,160,252931.0,55,73.5,0,0,0,0,0,0,-2.0,-8.0,-1015.0
1777592802.748736,7.010288715362549,1.2319737296260227,1.4486402550653397,3.2280181608975913,1.1847329336127035,1.396002322502804,3.156395999535121,2,4.724079601331921,5.263793256253568,7.162216136247013,10.065872416567675,0,0,0,ok,160,252931.0,55,73.5,0,0,0,0,0,0,-2.0,-8.0,-1015.0
1777592802.822191,7.0837438106536865,1.2319737296260227,1.4486402550653397,3.2280181608975913,1.1847329336127035,1.396002322502804,3.156395999535121,2,4.724079601331921,5.263793256253568,7.162216136247013,10.065872416567675,0,0,0,ok,160,252932.00000000003,55,73.5,0,0,0,0,0,0,-19.0,10.0,-997.0
1777592802.8996968,7.16124963760376,1.2319737296260227,1.4486402550653397,3.2280181608975913,1.2341181643527366,1.3707500667071364,3.171176979794097,2,-0.2144434726713884,7.789018835820327,5.684118110349434,9.644894977144002,0,0,0,ok,160,252921.0,55,73.5,0,0,0,0,0,0,-30.0,32.0,-983.0
1777592802.9736462,7.235198974609375,1.2319737296260227,1.4486402550653397,3.2280181608975913,1.2172845654162787,1.439487490956937,3.1392050280695254,2,1.4689164209743977,0.91527641084026,8.881313282806591,9.048379522732546,0,0,0,ok,160,252925.0,55,73.5,0,0,0,0,0,0,2.0,4.0,-1019.0
1777592803.049268,7.310820817947388,1.2319737296260227,1.4486402550653397,3.2280181608975913,1.185938766681064,1.3998395449129966,3.1560235558893335,2,4.603496294495879,4.880071015234311,7.199460500825783,9.840706415197943,0,0,0,ok,160,252925.0,55,73.5,0,0,0,0,0,0,2.0,4.0,-1019.0
1777592803.125602,7.387154817581177,1.2319737296260227,1.4486402550653397,3.2280181608975913,1.2035858762916942,1.505798781951933,3.105855612059737,2,2.8387853334328472,-5.715852688659329,12.216254883785416,13.782835612216324,0,0,0,ok,160,252925.0,55,73.5,0,0,0,0,0,0,-16.0,20.0,-1006.0
1777592803.2038558,7.465408563613892,1.2319737296260227,1.4486402550653397,3.2280181608975913,1.1870421832879314,1.400315903620347,3.1564972271711738,2,4.493154633809127,4.83243514449927,7.152093372641755,9.731048638255704,0,0,0,ok,160,252930.00000000003,55,74.0,0,0,0,0,0,0,-22.0,20.0,-995.0
1777592803.2791219,7.540674686431885,1.2319737296260227,1.4486402550653397,3.2280181608975913,1.1870421832879314,1.400315903620347,3.1564972271711738,2,4.493154633809127,4.83243514449927,7.152093372641755,9.731048638255704,0,0,0,ok,160,252919.0,55,74.0,0,0,0,0,0,0,5.0,4.0,-1003.0
1777592803.352868,7.6144208908081055,1.2319737296260227,1.4486402550653397,3.2280181608975913,1.2273236038170237,1.5380991437532696,3.0784238069338237,2,0.46501258089990394,-8.945888868792995,14.959435396376763,17.436452383772323,0,0,0,ok,160,252919.0,55,74.0,0,0,0,0,0,0,5.0,4.0,-1003.0
1777592803.426819,7.688371896743774,1.2319737296260227,1.4486402550653397,3.2280181608975913,1.2649441635283614,1.4136703130548445,3.1417390572045285,2,-3.297043390233867,3.496994201049519,8.62791036930628,9.876249333630739,0,0,0,ok,160,252919.99999999997,55,74.0,0,0,0,0,0,0,-16.0,21.0,-1004.0
1777592803.5038521,7.765404939651489,1.2319737296260227,1.4486402550653397,3.2280181608975913,1.2192044203586319,1.4422129326464432,3.1393301790743506,2,1.2769309267390838,0.6427322418896431,8.868798182324067,8.983275489776648,0,0,0,ok,160,252923.99999999997,55,74.0,0,0,0,0,0,0,-16.0,-5.0,-969.0
1777592803.5778298,7.839382648468018,1.2319737296260227,1.4486402550653397,3.2280181608975913,1.1759241709991999,1.46966801814856,3.1230929880027753,2,5.6049558626822815,-2.1027763083220297,10.492517289481595,12.080153868868026,0,0,0,ok,160,252923.99999999997,55,74.0,0,0,0,0,0,0,-16.0,-5.0,-969.0
1777592803.6525598,7.914112567901611,1.2319737296260227,1.4486402550653397,3.2280181608975913,1.1756703759823957,1.4645819897711512,3.112434983500302,2,5.630335364362704,-1.5941734705811506,11.55831773972893,12.955183300209633,0,0,0,ok,160,252923.0,55,74.0,0,0,0,0,0,0,-30.0,32.0,-996.0
1777592803.7284322,7.98998498916626,1.2319737296260227,1.4486402550653397,3.2280181608975913,1.2385181726331427,1.3726422291743727,3.1598767776668897,2,-0.6544443007119982,7.599802589096694,6.814138323070162,10.228283229452959,0,0,0,ok,160,252923.0,55,74.0,0,0,0,0,0,0,-10.0,1.0,-988.0
1777592803.804939,8.066491842269897,1.2319737296260227,1.4486402550653397,3.2280181608975913,1.2620466211153925,1.4116100725666012,3.131080242499062,2,-3.0072891489369757,3.703018249873846,9.693791839852928,10.803968364384083,0,0,0,ok,160,252921.99999999997,55,74.0,0,0,0,0,0,0,-22.0,24.0,-978.0
1777592803.87905,8.140602827072144,1.2319737296260227,1.4486402550653397,3.2280181608975913,1.2170271832979696,1.4433729428746722,3.128141617853222,2,1.4946546328053145,0.526731219066745,9.98765430443691,10.112599900789267,0,0,0,ok,160,252921.99999999997,55,74.0,0,0,0,0,0,0,-22.0,24.0,-978.0
1777592803.9534988,8.215051651000977,1.2319737296260227,1.4486402550653397,3.2280181608975913,1.2447876303424592,1.4772041113524406,3.099792192589924,2,-1.281390071643651,-2.8563856287100897,12.822596830766742,13.199238192410867,0,0,0,ok,160,252923.99999999997,55,74.0,0,0,0,0,0,0,-7.0,20.0,-1039.0
1777592804.029922,8.29147481918335,1.2319737296260227,1.4486402550653397,3.2280181608975913,1.1776791214150875,1.4672551281439707,3.1126185797935944,2,5.429460821093524,-1.8614873078631078,11.539958110399695,12.8885535648848,0,0,0,ok,160,252919.0,55,74.0,0,0,0,0,0,0,-27.0,1.0,-981.0
1777592804.1028311,8.364383935928345,1.2319737296260227,1.4486402550653397,3.2280181608975913,1.1776791214150875,1.4672551281439707,3.1126185797935944,2,5.429460821093524,-1.8614873078631078,11.539958110399695,12.8885535648848,0,0,0,ok,160,252925.0,55,74.0,0,0,0,0,0,0,-12.0,-4.0,-1012.0
1777592804.177183,8.438735723495483,1.2319737296260227,1.4486402550653397,3.2280181608975913,1.2209215860288973,1.438285660841534,3.1168967154854825,2,1.1052143597125363,1.035459422380569,11.112144541210878,11.214875447416892,0,0,0,ok,160,252925.0,55,74.0,0,0,0,0,0,0,-12.0,-4.0,-1012.0
1777592804.2518048,8.513357639312744,1.2319737296260227,1.4486402550653397,3.2280181608975913,1.2209215860288973,1.438285660841534,3.1168967154854825,2,1.1052143597125363,1.035459422380569,11.112144541210878,11.214875447416892,0,0,0,ok,160,252929.0,55,74.0,0,0,0,0,0,0,-28.0,27.0,-987.0
1777592804.326615,8.588167905807495,1.2319737296260227,1.4486402550653397,3.2280181608975913,1.219527089009341,1.4326710330326793,3.1061304774722887,2,1.244664061668166,1.596922203266038,12.188768342530265,12.35578499560268,0,0,0,ok,160,252929.0,55,74.0,0,0,0,0,0,0,-28.0,27.0,-987.0
1777592804.402532,8.664084911346436,1.2319737296260227,1.4486402550653397,3.2280181608975913,1.2652103074340224,1.4081804358021244,3.11975544027878,2,-3.323657780799971,4.045981926321529,10.826272061881115,12.02600671668947,0,0,0,ok,160,252921.0,55,74.0,0,0,0,0,0,0,-33.0,33.0,-978.0
1777592804.47622,8.737772703170776,1.2319737296260227,1.4486402550653397,3.2280181608975913,1.2188616154172878,1.4318169104593488,3.1063770682586256,2,1.3112114208734926,1.6823344605990886,12.164109263896572,12.349699543372004,0,0,0,ok,160,252929.0,55,74.0,0,0,0,0,0,0,-4.0,3.0,-994.0
1777592804.550981,8.812533855438232,1.2319737296260227,1.4486402550653397,3.2280181608975913,1.1755369788203327,1.456955794134577,3.0908309857040246,2,5.6436750805689995,-0.8315539069237321,13.718717519356671,14.857515293313996,0,0,0,ok,160,252929.0,55,74.0,0,0,0,0,0,0,-4.0,3.0,-994.0
1777592804.625813,8.887365818023682,1.2319737296260227,1.4486402550653397,3.2280181608975913,1.2418663778419166,1.4667687840669679,3.078215011544345,2,-0.9892648215893862,-1.8128529001628202,14.980314935324612,15.122001060916926,0,0,0,ok,160,252932.00000000003,54,74.0,0,0,0,0,0,0,-11.0,-31.0,-957.0
1777592804.704951,8.966503858566284,1.2319737296260227,1.4486402550653397,3.2280181608975913,1.1650332252910824,1.5169924313550904,3.0578793200435936,2,6.694050433494025,-6.835217628975077,17.013884085399766,19.51929206997612,0,0,0,ok,160,252923.99999999997,54,74.0,0,0,0,0,0,0,-10.0,-3.0,-1017.0
1777592804.78193,9.043482780456543,1.2319737296260227,1.4486402550653397,3.2280181608975913,1.1877543388802854,1.3852286880021274,3.112568124561933,2,4.421939074573733,6.341156706321227,11.545003633565809,13.894276607740771,0,0,0,ok,160,252933.0,54,74.0,0,0,0,0,0,0,-42.0,30.0,-976.0
1777592804.858618,9.120170831680298,1.2319737296260227,1.4486402550653397,3.2280181608975913,1.217992204612489,1.4268347903548437,3.0951129429832944,2,1.398152501353378,2.1805464710495936,13.290521791429688,13.540590194593252,0,0,0,ok,160,252933.0,54,74.0,0,0,0,0,0,0,-42.0,30.0,-976.0
1777592804.9307,9.19225287437439,1.2319737296260227,1.4486402550653397,3.2280181608975913,1.2408858789761934,1.4596476240012466,3.0676143552346793,2,-0.8912149350170706,-1.1007368935906925,16.0403805662912,16.102785301952007,0,0,0,ok,160,252923.0,54,74.0,0,0,0,0,0,0,8.0,-13.0,-995.0
1777592805.002754,9.264306783676147,1.2319737296260227,1.4486402550653397,3.2280181608975913,1.2408858789761934,1.4596476240012466,3.0676143552346793,2,-0.8912149350170706,-1.1007368935906925,16.0403805662912,16.102785301952007,0,0,0,ok,160,252927.0,54,74.0,0,0,0,0,0,0,-20.0,19.0,-1006.0
1777592805.0743308,9.335883617401123,1.2319737296260227,1.4486402550653397,3.2280181608975913,1.2172606163611412,1.4247677461233565,3.0956746879685006,2,1.471311326488145,2.3872508941983117,13.234347292909066,13.528180665582212,0,0,0,ok,160,252932.00000000003,54,74.0,0,0,0,0,0,0,-28.0,22.0,-1036.0
1777592805.146888,9.408440828323364,1.2319737296260227,1.4486402550653397,3.2280181608975913,1.2342007723112844,1.354125590138183,3.1155004738124767,2,-0.22270426852617486,9.451466492715666,11.251768708511456,14.696329988265244,0,0,0,ok,160,252932.00000000003,54,74.0,0,0,0,0,0,0,-28.0,22.0,-1036.0
1777592805.2206788,9.482231616973877,1.2319737296260227,1.4486402550653397,3.2280181608975913,1.216374003168415,1.4198570262866057,3.0845305190142174,2,1.5599726457607765,2.878322877873396,14.348764188337393,14.717516467710334,0,0,0,ok,160,252930.00000000003,54,74.0,0,0,0,0,0,0,-18.0,23.0,-1012.0
1777592805.300274,9.561826705932617,1.2319737296260227,1.4486402550653397,3.2280181608975913,1.2012708977728521,1.4823754166257852,3.052554922247333,2,3.0702831853170576,-3.3735161560445537,17.546323865025837,18.12955408358158,0,0,0,ok,160,252934.0,54,74.0,0,0,0,0,0,0,-30.0,28.0,-1003.0
1777592805.374592,9.636144876480103,1.2319737296260227,1.4486402550653397,3.2280181608975913,1.2165425819846187,1.415414417564019,3.073835922784329,2,1.5431147641403964,3.3225837501320576,15.418223811326248,15.847472714855746,0,0,0,ok,160,252930.00000000003,54,74.0,0,0,0,0,0,0,-43.0,10.0,-974.0
1777592805.448939,9.71049189567566,1.2319737296260227,1.4486402550653397,3.2280181608975913,1.2165425819846187,1.415414417564019,3.073835922784329,2,1.5431147641403964,3.3225837501320576,15.418223811326248,15.847472714855746,0,0,0,ok,160,252930.00000000003,54,74.0,0,0,0,0,0,0,-43.0,10.0,-974.0
1777592805.525481,9.787033796310425,1.2319737296260227,1.4486402550653397,3.2280181608975913,1.2165425819846187,1.415414417564019,3.073835922784329,2,1.5431147641403964,3.3225837501320576,15.418223811326248,15.847472714855746,0,0,0,ok,160,252932.00000000003,54,74.0,0,0,0,0,0,0,-29.0,37.0,-1014.0
1777592805.603255,9.864807844161987,1.2319737296260227,1.4486402550653397,3.2280181608975913,1.2165425819846187,1.415414417564019,3.073835922784329,2,1.5431147641403964,3.3225837501320576,15.418223811326248,15.847472714855746,0,0,0,ok,160,252921.99999999997,54,74.0,0,0,0,0,0,0,-3.0,-17.0,-1039.0
1777592805.679143,9.940695762634277,1.2319737296260227,1.4486402550653397,3.2280181608975913,1.1982492946076626,1.4762854022940535,3.0428047090464747,2,3.372443501836009,-2.7645147228713807,18.52134518511166,19.027772972476505,0,0,0,ok,160,252923.0,54,74.0,0,0,0,0,0,0,-3.0,-14.0,-991.0
1777592805.754244,10.015796899795532,1.2319737296260227,1.4486402550653397,3.2280181608975913,1.2033888122301386,1.4756747999734854,3.04282544244955,2,2.858491739588409,-2.703454490814572,18.51927184480413,18.9325928195521,0,0,0,ok,160,252923.0,54,74.0,0,0,0,0,0,0,-3.0,-14.0,-991.0
1777592805.829531,10.091083765029907,1.2319737296260227,1.4486402550653397,3.2280181608975913,1.2177185094299374,1.4137669019871772,3.0740966569604726,2,1.4255220196085272,3.4873353078162417,15.392150393711868,15.846511108763814,0,0,0,ok,160,252921.99999999997,54,74.0,0,0,0,0,0,0,-13.0,11.0,-997.0
1777592805.904544,10.166096925735474,1.2319737296260227,1.4486402550653397,3.2280181608975913,1.174802603749951,1.4367820950752122,3.0593125608241127,2,5.717112587607165,1.1858159990127515,16.870560007347855,17.85237605710836,0,0,0,ok,160,252923.0,54,74.0,0,0,0,0,0,0,-33.0,42.0,-970.0
1777592805.9797509,10.24130368232727,1.2319737296260227,1.4486402550653397,3.2280181608975913,1.2403140556844268,1.4464185856395497,3.0469369429873367,2,-0.8340326058404068,0.22216694257899405,18.108121791025454,18.128680132226695,0,0,0,ok,160,252923.0,54,74.0,0,0,0,0,0,0,-33.0,42.0,-970.0
1777592806.053948,10.315500736236572,1.2319737296260227,1.4486402550653397,3.2280181608975913,1.216097745452112,1.4069092085415247,3.0636572167309737,2,1.5875984173910673,4.1731046523814985,16.43609441666176,17.031748907497747,0,0,0,ok,160,252919.0,54,74.0,0,0,0,0,0,0,-13.0,10.0,-1031.0
1777592806.133718,10.395270824432373,1.2319737296260227,1.4486402550653397,3.2280181608975913,1.2167101990120315,1.4102610548648058,3.0746968838878046,2,1.5263530613991216,3.837920020053387,15.33212770097867,15.87871290714353,0,0,0,ok,160,252923.99999999997,54,74.0,0,0,0,0,0,0,12.0,16.0,-1068.0
1777592806.208853,10.47040581703186,1.2319737296260227,1.4486402550653397,3.2280181608975913,1.2400821949780247,1.4450255631078033,3.0469811551140187,2,-0.8108465352002048,0.3614691957536387,18.103700578357262,18.125454662268144,0,0,0,ok,160,252925.0,54,73.5,0,0,0,0,0,0,-7.0,35.0,-1015.0
1777592806.283179,10.544731855392456,1.2319737296260227,1.4486402550653397,3.2280181608975913,1.2174583974188329,1.412304406026954,3.074144696744228,2,1.4515332207189813,3.6335849038385604,15.387346415336323,15.877037433029434,0,0,0,ok,160,252925.0,54,73.5,0,0,0,0,0,0,-7.0,35.0,-1015.0
1777592806.358721,10.62027382850647,1.2319737296260227,1.4486402550653397,3.2280181608975913,1.2132011836462886,1.410772005654581,3.074995810210918,2,1.87725459797341,3.7868249410758725,15.302235068667347,15.875217354629175,0,0,0,ok,160,252926.00000000003,54,73.5,0,0,0,0,0,0,-11.0,8.0,-1006.0
1777592806.434945,10.696497917175293,1.2319737296260227,1.4486402550653397,3.2280181608975913,1.234784086967238,1.3438267753789486,3.105327736368823,2,-0.2810357341215264,10.48134796863911,12.26904245287681,16.138991264451498,0,0,0,ok,160,252923.99999999997,54,73.5,0,0,0,0,0,0,-25.0,29.0,-995.0
1777592806.508872,10.770424842834473,1.2319737296260227,1.4486402550653397,3.2280181608975913,1.2132011836462886,1.410772005654581,3.074995810210918,2,1.87725459797341,3.7868249410758725,15.302235068667347,15.875217354629175,0,0,0,ok,160,252917.99999999997,54,73.5,0,0,0,0,0,0,-9.0,14.0,-1008.0
1777592806.581651,10.843203783035278,1.2319737296260227,1.4486402550653397,3.2280181608975913,1.2132011836462886,1.410772005654581,3.074995810210918,2,1.87725459797341,3.7868249410758725,15.302235068667347,15.875217354629175,0,0,0,ok,160,252917.99999999997,54,73.5,0,0,0,0,0,0,-9.0,14.0,-1008.0
1777592806.653515,10.915067911148071,1.2319737296260227,1.4486402550653397,3.2280181608975913,1.2595481999287208,1.3875058623542111,3.0879295764380017,2,-2.7574470302698106,6.113439271112853,14.00885844595896,15.53144451766301,0,0,0,ok,160,252917.99999999997,53,73.5,0,0,0,0,0,0,-16.0,13.0,-1003.0
1777592806.729512,10.99106478691101,1.2319737296260227,1.4486402550653397,3.2280181608975913,1.2186916243129866,1.4165595106482742,3.085060869148367,2,1.3282105313036086,3.208074441706543,14.295729174922434,14.711347915188636,0,0,0,ok,160,252919.99999999997,53,73.5,0,0,0,0,0,0,-9.0,7.0,-1024.0
1777592806.806506,11.068058729171753,1.2319737296260227,1.4486402550653397,3.2280181608975913,1.2461121481363038,1.4512360307298602,3.05739020491359,2,-1.413841851028108,-0.25957756645205166,17.062795598400136,17.12323926497282,0,0,0,ok,160,252921.99999999997,53,73.5,0,0,0,0,0,0,-19.0,9.0,-1006.0
1777592806.882536,11.144088745117188,1.2319737296260227,1.4486402550653397,3.2280181608975913,1.1763817745677918,1.448257226673916,3.0804353866951693,2,5.559195505823089,0.03830283914236787,14.758277420242205,15.770633284439814,0,0,0,ok,160,252921.99999999997,53,73.5,0,0,0,0,0,0,-19.0,9.0,-1006.0
1777592806.957675,11.21922779083252,1.2319737296260227,1.4486402550653397,3.2280181608975913,1.2020554842361724,1.481224906903925,3.0542046883217564,2,2.991824538985033,-3.2584651838585277,17.381347257583492,17.93543537010452,0,0,0,ok,160,252917.99999999997,53,73.5,0,0,0,0,0,0,-12.0,5.0,-1008.0
1777592807.034834,11.29638671875,1.2319737296260227,1.4486402550653397,3.2280181608975913,1.2495435456729018,1.4642650663020977,3.07859164223527,2,-1.7569816046879128,-1.5624811236758074,14.942651866232115,15.126505756997055,0,0,0,ok,160,252925.0,53,73.5,0,0,0,0,0,0,-15.0,9.0,-976.0
1777592807.108901,11.370453834533691,1.2319737296260227,1.4486402550653397,3.2280181608975913,1.2074391268031837,1.4873031674177164,3.064147957098125,2,2.4534602822839036,-3.8662912352376733,16.387020379946637,17.01476159707231,0,0,0,ok,160,252926.00000000003,53,73.5,0,0,0,0,0,0,4.0,14.0,-1027.0
1777592807.182482,11.444034814834595,1.2319737296260227,1.4486402550653397,3.2280181608975913,1.222328742252846,1.4262990971430511,3.0957677257327525,2,0.9644987373176761,2.2341157922288524,13.22504351648388,13.447055707487273,0,0,0,ok,160,252926.00000000003,53,73.5,0,0,0,0,0,0,4.0,14.0,-1027.0
1777592807.2569752,11.51852798461914,1.2319737296260227,1.4486402550653397,3.2280181608975913,1.2232291065331196,1.431266662547431,3.107036509423289,2,0.8744623092903137,1.7373592517908598,12.098165147430251,12.2535179207707,0,0,0,ok,160,252923.0,53,73.5,0,0,0,0,0,0,2.0,3.0,-1005.0
1777592807.332581,11.594133853912354,1.2319737296260227,1.4486402550653397,3.2280181608975913,1.2232291065331196,1.431266662547431,3.107036509423289,2,0.8744623092903137,1.7373592517908598,12.098165147430251,12.2535179207707,0,0,0,ok,160,252917.99999999997,53,73.5,0,0,0,0,0,0,4.0,-17.0,-1007.0
1777592807.408929,11.67048192024231,1.2319737296260227,1.4486402550653397,3.2280181608975913,1.2087420524723866,1.4944906570134906,3.074663722023099,2,2.3231677153636054,-4.585040194815093,15.335443887449252,16.17391545195171,0,0,0,ok,160,252917.99999999997,53,73.5,0,0,0,0,0,0,4.0,-17.0,-1007.0
1777592807.4837382,11.745290994644165,1.2319737296260227,1.4486402550653397,3.2280181608975913,1.2230924801468976,1.437063774123891,3.1172853122283115,2,0.8881249479125053,1.1576480941448697,11.07328486692798,11.168999631888168,0,0,0,ok,160,252926.00000000003,53,73.5,0,0,0,0,0,0,-7.0,2.0,-978.0
1777592807.5601852,11.821738004684448,1.2319737296260227,1.4486402550653397,3.2280181608975913,1.2525342646109618,1.4746579196061527,3.1001864252632454,2,-2.056053498493915,-2.6017664540813,12.783173563434591,13.206289070861082,0,0,0,ok,160,252916.0,53,73.5,0,0,0,0,0,0,-11.0,9.0,-976.0
1777592807.63475,11.896302700042725,1.2319737296260227,1.4486402550653397,3.2280181608975913,1.1943655290458595,1.3987208927457124,3.146076472446842,2,3.760820058016323,4.991936231962724,8.194168845074934,10.305707055527863,0,0,0,ok,160,252914.0,53,73.5,0,0,0,0,0,0,-2.0,-11.0,-1001.0
1777592807.708082,11.969634771347046,1.2319737296260227,1.4486402550653397,3.2280181608975913,1.2522795697105855,1.473234690139674,3.1002364937697515,2,-2.030584008456282,-2.459443507433434,12.778166712783978,13.170181408065545,0,0,0,ok,160,252914.0,53,73.5,0,0,0,0,0,0,-2.0,-11.0,-1001.0
1777592807.782523,12.044075727462769,1.2319737296260227,1.4486402550653397,3.2280181608975913,1.2242748213979493,1.4378774219192962,3.128729909847535,2,0.7698908228073398,1.0762833146043427,9.928825105005634,10.016620468907107,0,0,0,ok,160,252910.0,53,73.5,0,0,0,0,0,0,-4.0,18.0,-1005.0
1777592807.859097,12.120649814605713,1.2319737296260227,1.4486402550653397,3.2280181608975913,1.2426895338831598,1.3689618956575735,3.160523100109902,2,-1.071580425713714,7.967835940776613,6.749506078768919,10.497167546307095,0,0,0,ok,160,252914.0,53,73.5,0,0,0,0,0,0,-30.0,35.0,-980.0
1777592807.9336672,12.195219993591309,1.2319737296260227,1.4486402550653397,3.2280181608975913,1.2239870711686098,1.4364127279684982,3.128780396988605,2,0.7986658457412865,1.2227527096841495,9.923776390898631,10.030669428246085,0,0,0,ok,160,252917.0,53,73.5,0,0,0,0,0,0,-5.0,-3.0,-1021.0
1777592808.0070348,12.268587589263916,1.2319737296260227,1.4486402550653397,3.2280181608975913,1.2239870711686098,1.4364127279684982,3.128780396988605,2,0.7986658457412865,1.2227527096841495,9.923776390898631,10.030669428246085,0,0,0,ok,160,252917.0,53,73.5,0,0,0,0,0,0,-5.0,-3.0,-1021.0
1777592808.083075,12.344627857208252,1.2319737296260227,1.4486402550653397,3.2280181608975913,1.2426895338831598,1.3689618956575735,3.160523100109902,2,-1.071580425713714,7.967835940776613,6.749506078768919,10.497167546307095,0,0,0,ok,160,252921.0,53,73.5,0,0,0,0,0,0,-15.0,42.0,-999.0
1777592808.158117,12.41966986656189,1.2319737296260227,1.4486402550653397,3.2280181608975913,1.2239870711686098,1.4364127279684982,3.128780396988605,2,0.7986658457412865,1.2227527096841495,9.923776390898631,10.030669428246085,0,0,0,ok,160,252921.0,53,73.5,0,0,0,0,0,0,-15.0,42.0,-999.0
1777592808.2347,12.49625277519226,1.2319737296260227,1.4486402550653397,3.2280181608975913,1.1795100100382379,1.4624766652971357,3.113336055605554,2,5.246371958778484,-1.3836410231796048,11.468210529203748,12.686951326186383,0,0,0,ok,160,252911.0,53,74.0,0,0,0,0,0,0,-7.0,4.0,-1005.0
1777592808.305675,12.567227840423584,1.2319737296260227,1.4486402550653397,3.2280181608975913,1.2051928209222624,1.5013091470866602,3.096822063266945,2,2.6780908703760264,-5.266889202132052,13.119609763064632,14.388761340456913,0,0,0,ok,160,252911.0,53,74.0,0,0,0,0,0,0,-7.0,4.0,-1005.0
1777592808.375669,12.637221813201904,1.2319737296260227,1.4486402550653397,3.2280181608975913,1.2470906006259093,1.4740659668955605,3.100285508593498,2,-1.5116870999886567,-2.54257118302208,12.773265230409336,13.111299354197909,0,0,0,ok,160,252919.0,53,74.0,0,0,0,0,0,0,-28.0,32.0,-980.0
1777592808.444869,12.706421852111816,1.2319737296260227,1.4486402550653397,3.2280181608975913,1.1798421874175071,1.4639103587732896,3.1132865017626634,2,5.213154220851557,-1.52701037079499,11.473165913492789,12.694182670870568,0,0,0,ok,160,252919.0,53,74.0,0,0,0,0,0,0,-22.0,32.0,-1005.0
1777592808.516775,12.778327703475952,1.2319737296260227,1.4486402550653397,3.2280181608975913,1.247327021741434,1.4754859011643466,3.1002365388930455,2,-1.5353292115411366,-2.684564609900697,12.77816220045458,13.147073900821773,0,0,0,ok,160,252914.0,53,74.0,0,0,0,0,0,0,-10.0,-1.0,-997.0
1777592808.585391,12.846943855285645,1.2319737296260227,1.4486402550653397,3.2280181608975913,1.224191245803472,1.4399793545015895,3.128864175112937,2,0.7782483822550645,0.8660900563750129,9.915398578465418,9.983532015277374,0,0,0,ok,160,252914.0,53,74.0,0,0,0,0,0,0,-10.0,-1.0,-997.0
1777592808.6574259,12.918978691101074,1.2319737296260227,1.4486402550653397,3.2280181608975913,1.2235652009974998,1.4364331978129834,3.117385187131697,2,0.8408528628522927,1.2207057252356268,11.063297376589443,11.162155027029538,0,0,0,ok,160,252915.0,52,74.0,0,0,0,0,0,0,-20.0,24.0,-1012.0
1777592808.729355,12.990907907485962,1.2319737296260227,1.4486402550653397,3.2280181608975913,1.2235652009974998,1.4364331978129834,3.117385187131697,2,0.8408528628522927,1.2207057252356268,11.063297376589443,11.162155027029538,0,0,0,ok,160,252917.99999999997,52,74.0,0,0,0,0,0,0,-19.0,8.0,-1014.0
1777592808.8005939,13.062146663665771,1.2319737296260227,1.4486402550653397,3.2280181608975913,1.2216465203192624,1.43725287860252,3.1170529434469283,2,1.0327209306760343,1.138737646281962,11.096521745066301,11.202501095132526,0,0,0,ok,160,252910.0,52,74.0,0,0,0,0,0,0,-13.0,1.0,-998.0
1777592808.872641,13.134193897247314,1.2319737296260227,1.4486402550653397,3.2280181608975913,1.2216465203192624,1.43725287860252,3.1170529434469283,2,1.0327209306760343,1.138737646281962,11.096521745066301,11.202501095132526,0,0,0,ok,160,252910.0,52,74.0,0,0,0,0,0,0,-13.0,1.0,-998.0
1777592808.944045,13.205597877502441,1.2319737296260227,1.4486402550653397,3.2280181608975913,1.23011457288999,1.5373239820254851,3.067815923656302,2,0.18591567360326522,-8.868372696014548,16.020223724128925,18.312022473889957,0,0,0,ok,160,252916.0,52,74.0,0,0,0,0,0,0,-8.0,0.0,-990.0
1777592809.01554,13.277092695236206,1.2319737296260227,1.4486402550653397,3.2280181608975913,1.2179498218152012,1.4365312161846275,3.118003039187696,2,1.4023907810821523,1.210903888071213,11.001512170989525,11.156444692528208,0,0,0,ok,160,252923.0,52,74.0,0,0,0,0,0,0,-18.0,26.0,-1005.0
1777592809.084596,13.34614872932434,1.2319737296260227,1.4486402550653397,3.2280181608975913,1.2400057317495878,1.3684541022658596,3.1492401784727786,2,-0.8032002123565141,8.018615279948005,7.877798242481271,11.269561958576126,0,0,0,ok,160,252923.0,52,74.0,0,0,0,0,0,0,-18.0,26.0,-1005.0
1777592809.154237,13.41578984260559,1.2319737296260227,1.4486402550653397,3.2280181608975913,1.2179498218152012,1.4365312161846275,3.118003039187696,2,1.4023907810821523,1.210903888071213,11.001512170989525,11.156444692528208,0,0,0,ok,160,252919.99999999997,52,74.0,0,0,0,0,0,0,4.0,-1.0,-1013.0
1777592809.2251258,13.48667860031128,1.2319737296260227,1.4486402550653397,3.2280181608975913,1.263171255577848,1.4087248851014778,3.120159085844892,2,-3.1197525951825344,3.9915369963861913,10.78590750526991,11.916418277356062,0,0,0,ok,160,252917.99999999997,52,73.5,0,0,0,0,0,0,-16.0,11.0,-1003.0
1777592809.298164,13.559716701507568,1.2319737296260227,1.4486402550653397,3.2280181608975913,1.191893556753426,1.3960112269238127,3.134870020360789,2,4.00801728725968,5.262902814152692,9.314814053680243,11.42488991022792,0,0,0,ok,160,252917.99999999997,52,73.5,0,0,0,0,0,0,-16.0,11.0,-1003.0
1777592809.3706439,13.63219666481018,1.2319737296260227,1.4486402550653397,3.2280181608975913,1.207386246972915,1.4946789736224186,3.074404978382452,2,2.4587482653107617,-4.603871855707897,15.361318251513945,16.223784315634973,0,0,0,ok,160,252913.0,52,73.5,0,0,0,0,0,0,-6.0,0.0,-999.0
1777592809.4431858,13.70473861694336,1.2319737296260227,1.4486402550653397,3.2280181608975913,1.2184202720879607,1.4334571089197805,3.1069761206622704,2,1.355345753806203,1.5183146145559157,12.104204023532095,12.27411896734039,0,0,0,ok,160,252914.0,52,73.5,0,0,0,0,0,0,-29.0,1.0,-991.0
1777592809.513988,13.775540828704834,1.2319737296260227,1.4486402550653397,3.2280181608975913,1.2184202720879607,1.4334571089197805,3.1069761206622704,2,1.355345753806203,1.5183146145559157,12.104204023532095,12.27411896734039,0,0,0,ok,160,252915.0,52,73.5,0,0,0,0,0,0,-5.0,0.0,-1005.0
1777592809.585424,13.84697675704956,1.2319737296260227,1.4486402550653397,3.2280181608975913,1.2448595818064874,1.4679251909401922,3.078550561732371,2,-1.2885852180464674,-1.9284935874852582,14.946759916522012,15.125646147629157,0,0,0,ok,160,252915.0,52,73.5,0,0,0,0,0,0,-5.0,0.0,-1005.0
1777592809.656539,13.918091773986816,1.2319737296260227,1.4486402550653397,3.2280181608975913,1.2448595818064874,1.4679251909401922,3.078550561732371,2,-1.2885852180464674,-1.9284935874852582,14.946759916522012,15.125646147629157,0,0,0,ok,160,252913.0,52,73.5,0,0,0,0,0,0,-2.0,0.0,-1018.0
1777592809.7301278,13.99168062210083,1.2319737296260227,1.4486402550653397,3.2280181608975913,1.2448595818064874,1.4679251909401922,3.078550561732371,2,-1.2885852180464674,-1.9284935874852582,14.946759916522012,15.125646147629157,0,0,0,ok,160,252914.0,52,73.5,0,0,0,0,0,0,-18.0,0.0,-992.0
1777592809.801245,14.062797784805298,1.2319737296260227,1.4486402550653397,3.2280181608975913,1.1910899865477578,1.386351614448324,3.1130115239761795,2,4.088374307826492,6.228864061701556,11.500663692141178,13.703241125361082,0,0,0,ok,160,252914.0,52,73.5,0,0,0,0,0,0,-18.0,0.0,-992.0
1777592809.872483,14.13403582572937,1.2319737296260227,1.4486402550653397,3.2280181608975913,1.2170663899918428,1.4279113211762877,3.0963196925189287,2,1.4907339634179895,2.072893388905195,13.169846837866261,13.415067666035485,0,0,0,ok,160,252911.0,52,73.5,0,0,0,0,0,0,-15.0,7.0,-989.0
1777592809.944603,14.206155776977539,1.2319737296260227,1.4486402550653397,3.2280181608975913,1.2170663899918428,1.4279113211762877,3.0963196925189287,2,1.4907339634179895,2.072893388905195,13.169846837866261,13.415067666035485,0,0,0,ok,160,252913.0,52,73.5,0,0,0,0,0,0,-17.0,14.0,-1009.0
1777592810.0149682,14.27652096748352,1.2319737296260227,1.4486402550653397,3.2280181608975913,1.2440904441119849,1.462209295179445,3.0679139462952514,2,-1.2116714485962188,-1.3569040114105313,16.010421460233992,16.113439469270563,0,0,0,ok,160,252913.0,52,73.5,0,0,0,0,0,0,-17.0,14.0,-1009.0
1777592810.086787,14.348339796066284,1.2319737296260227,1.4486402550653397,3.2280181608975913,1.2605703695732484,1.3950686781932498,3.0877232343204533,2,-2.859663994722572,5.357157687208991,14.029492657713805,15.287363437858753,0,0,0,ok,160,252907.00000000003,52,73.5,0,0,0,0,0,0,8.0,-14.0,-1014.0
1777592810.158022,14.419574737548828,1.2319737296260227,1.4486402550653397,3.2280181608975913,1.2605703695732484,1.3950686781932498,3.0877232343204533,2,-2.859663994722572,5.357157687208991,14.029492657713805,15.287363437858753,0,0,0,ok,160,252914.0,52,73.5,0,0,0,0,0,0,1.0,1.0,-1020.0
1777592810.231155,14.4927077293396,1.2319737296260227,1.4486402550653397,3.2280181608975913,1.2147484443373282,1.4196648037535997,3.0747157398781213,2,1.7225285288694492,2.8975451311739953,15.330242101947,15.696470788819619,0,0,0,ok,160,252916.0,52,73.5,0,0,0,0,0,0,-21.0,31.0,-1012.0
1777592810.30284,14.564392805099487,1.2319737296260227,1.4486402550653397,3.2280181608975913,1.2587418415734866,1.392620036442004,3.0768066648808277,2,-2.676811194746387,5.602021862333562,15.121149601676365,16.34616567867401,0,0,0,ok,160,252916.0,52,73.5,0,0,0,0,0,0,-21.0,31.0,-1012.0
1777592810.3737931,14.635345935821533,1.2319737296260227,1.4486402550653397,3.2280181608975913,1.2414402931918114,1.453522564525167,3.0467228116434137,2,-0.9466563565788677,-0.4882309459827372,18.129534925417758,18.160797458427,0,0,0,ok,160,252915.0,52,73.5,0,0,0,0,0,0,-10.0,12.0,-1028.0
1777592810.445651,14.70720386505127,1.2319737296260227,1.4486402550653397,3.2280181608975913,1.2559499016326656,1.3862171147786135,3.0667409956041567,2,-2.3976172006642926,6.242314028672613,16.12771652934346,17.459046168801503,0,0,0,ok,160,252914.0,52,73.5,0,0,0,0,0,0,-1.0,1.0,-982.0
1777592810.516628,14.778180837631226,1.2319737296260227,1.4486402550653397,3.2280181608975913,1.17474464679423,1.43943049569735,3.048594380334521,2,5.722908283179273,0.9209759367989623,17.94237805630705,18.855471519145137,0,0,0,ok,160,252914.0,52,73.5,0,0,0,0,0,0,-1.0,1.0,-982.0
1777592810.5885959,14.850148677825928,1.2319737296260227,1.4486402550653397,3.2280181608975913,1.2163514077105506,1.4116299659948153,3.052626959122179,2,1.5622321915472082,3.7010289070524394,17.53912017754122,17.993302114769758,0,0,0,ok,160,252917.99999999997,52,73.5,0,0,0,0,0,0,-37.0,14.0,-960.0
1777592810.6603048,14.921857595443726,1.2319737296260227,1.4486402550653397,3.2280181608975913,1.2023389127146817,1.4724136072087162,3.021792999606111,2,2.9634816911340955,-2.3773352143376503,20.62251612914805,20.96955216383956,0,0,0,ok,160,252913.0,51,73.5,0,0,0,0,0,0,-20.0,29.0,-1001.0
