timestamp,elapsed,phase,mission_state,target_x,target_y,target_z,pos_x,pos_y,pos_z,marker_id,err_x_cm,err_y_cm,err_z_cm,err_3d_cm,cmd_lr,cmd_fb,cmd_ud,publish_count,tello_height_cm,tello_baro_cm,tello_battery,tello_temp_c,tello_pitch,tello_roll,tello_yaw,tello_vgx,tello_vgy,tello_vgz
1778195746.8158789,1.0013580322265625e-05,wait_slave,2,-0.025606593974156062,1.446967898927133,3.6458868082324036,-0.017332474948403842,1.462654865827496,3.651335784278389,2,-0.827411902575222,-1.5686966900362975,-0.5448976045985265,1.8553525706321146,-4,3,-8,1,140,251419.0,82,67.5,0,0,0,0,0,0
1778195746.887222,0.07135319709777832,wait_slave,2,-0.025606593974156062,1.446967898927133,3.6458868082324036,-0.09381422640445103,1.3499965354884536,3.6753649841404155,2,6.820763243029497,9.697136343867951,-2.9478175908011828,12.21666456270548,30,10,30,4,140,251403.00000000003,82,67.5,0,0,0,0,0,0
1778195746.959323,0.14345407485961914,wait_slave,2,-0.025606593974156062,1.446967898927133,3.6458868082324036,-0.07858013002062592,1.4053947955818784,3.6494103505145907,2,5.297353604646986,4.157310334525466,-0.35235422821870976,6.743095574909365,-2,-8,-16,8,140,251419.99999999997,82,67.5,0,0,0,0,0,0
1778195747.032366,0.21649718284606934,wait_slave,2,-0.025606593974156062,1.446967898927133,3.6458868082324036,-0.023403422894914705,1.4095648174478113,3.6838405474231823,2,-0.22031710792413567,3.740308147932181,-3.7953739190778712,5.3332267770223725,-18,14,1,12,140,251419.99999999997,82,67.5,0,0,0,0,0,0
1778195747.104543,0.28867411613464355,wait_slave,2,-0.025606593974156062,1.446967898927133,3.6458868082324036,-0.007092188538846411,1.533448847585582,3.6320815505391026,2,-1.851440543530965,-8.648094865844902,1.3805257693300987,8.951157930383513,-6,-18,-30,15,140,251423.0,82,67.5,0,0,0,0,0,0
1778195747.1755378,0.3596689701080322,wait_slave,2,-0.025606593974156062,1.446967898927133,3.6458868082324036,-0.021342455234078406,1.4786103490919063,3.66545858552685,2,-0.4264138740077656,-3.1642450164773184,-1.957177729444659,3.744972627521062,4,13,17,19,140,251417.0,82,67.5,0,0,0,0,0,0
1778195747.2452538,0.4293849468231201,wait_slave,2,-0.025606593974156062,1.446967898927133,3.6458868082324036,-0.08161332145202582,1.4172432105306516,3.665923006798178,2,5.600672747786977,2.972468839648146,-2.003619856577421,6.649631475514582,25,1,24,22,150,251421.0,82,67.5,0,0,0,0,0,0
1778195747.314486,0.49861717224121094,wait_slave,2,-0.025606593974156062,1.446967898927133,3.6458868082324036,-0.015187446422170625,1.4778501000408721,3.6703168589744037,2,-1.0419147551985437,-3.088220111373907,-2.443005074200011,4.073200658691112,-24,3,-23,26,150,251421.0,82,67.5,0,0,0,0,0,0
1778195747.386129,0.5702600479125977,wait_slave,2,-0.025606593974156062,1.446967898927133,3.6458868082324036,-0.13027514657492079,1.474319564153074,3.618686745308968,2,10.466855260076473,-2.73516652259409,2.7200062923435464,11.155027080742496,30,-19,0,29,150,251419.99999999997,82,67.5,0,-1,0,0,0,0
1778195747.458156,0.6422872543334961,wait_slave,2,-0.025606593974156062,1.446967898927133,3.6458868082324036,-0.013764317864489284,1.5435749153836378,3.6511979632481193,2,-1.1842276109666778,-9.660701645650471,-0.5311155015715663,9.747493780293436,-30,11,-30,33,150,251427.0,82,67.5,0,-1,0,0,0,0
1778195747.529481,0.7136120796203613,wait_slave,2,-0.025606593974156062,1.446967898927133,3.6458868082324036,0.05135739147025564,1.6099407387081577,3.644309405110053,2,-7.69639854444117,-16.297283978102463,0.15774031223507734,18.02389795865188,-27,-2,-30,36,150,251413.0,82,68.0,0,-1,0,0,0,0
1778195747.600847,0.7849781513214111,wait_slave,2,-0.025606593974156062,1.446967898927133,3.6458868082324036,-0.07814036411409253,1.4224518794462475,3.669587532914542,2,5.2533770139936475,2.4516019480885554,-2.3700724682138574,6.263031667460554,30,10,30,40,150,251413.0,82,68.0,0,-1,0,0,0,0
1778195747.6722791,0.8564102649688721,wait_slave,2,-0.025606593974156062,1.446967898927133,3.6458868082324036,-0.012960006034347993,1.5464860973101753,3.652073680083942,2,-1.264658793980807,-9.951819838304221,-0.6186871851538545,10.050913082518028,-23,-5,-30,43,150,251416.0,82,68.0,0,0,0,0,0,0
1778195747.743928,0.9280591011047363,wait_slave,2,-0.025606593974156062,1.446967898927133,3.6458868082324036,-0.012421223658434455,1.4839757223258485,3.6731207893969677,2,-1.3185370315721607,-3.7007823398715445,-2.7233981164564103,4.78029571589986,0,9,19,47,150,251423.99999999997,82,68.0,0,-1,0,0,0,0
1778195747.813302,0.9974331855773926,wait_slave,2,-0.025606593974156062,1.446967898927133,3.6458868082324036,-0.006211863048126931,1.597478495992537,3.619020701090255,2,-1.9394730926029131,-15.051059706540393,2.6866107142148543,15.411483747404354,-3,-20,-30,51,150,251423.99999999997,82,68.0,0,-1,0,0,0,0
1778195747.8859332,1.0700643062591553,wait_slave,2,-0.025606593974156062,1.446967898927133,3.6458868082324036,-0.012043873666255145,1.4862313530473723,3.673614185664894,2,-1.3562720307900917,-3.926345412023924,-2.772737743249021,4.994370501761205,1,20,30,54,150,251415.0,82,68.0,0,0,0,0,0,0
1778195747.95606,1.1401910781860352,wait_slave,2,-0.025606593974156062,1.446967898927133,3.6458868082324036,-0.0016695383087632631,1.546282025920398,3.6375764448177224,2,-2.3937055665392797,-9.931412699326492,0.8310363414681277,10.24955637793487,-5,-13,-28,58,150,251417.0,82,68.0,0,1,0,0,0,0
1778195748.027124,1.2112550735473633,wait_slave,2,-0.025606593974156062,1.446967898927133,3.6458868082324036,-0.008724501546592656,1.5530600671478578,3.6543810753430845,2,-1.6882092427563407,-10.609216822072476,-0.8494267110680909,10.776226508502385,1,6,-10,61,150,251417.0,82,68.0,0,1,0,0,0,0
1778195748.097687,1.281818151473999,wait_slave,2,-0.025606593974156062,1.446967898927133,3.6458868082324036,-0.0037032868452071543,1.6040084258393859,3.6216028592941854,2,-2.1903307128948906,-15.704052691225279,2.428394893821828,16.040945150488188,-3,-13,-29,65,150,251414.0,82,68.0,0,1,0,0,0,0
1778195748.167475,1.3516061305999756,wait_slave,2,-0.025606593974156062,1.446967898927133,3.6458868082324036,-0.06276618214549812,1.4842554885552435,3.6443529475902556,2,3.7159588171342057,-3.7287589628110407,0.15338606421479994,5.266452374993666,23,8,30,68,150,251414.0,82,68.0,0,1,0,0,0,0
1778195748.238494,1.4226250648498535,wait_slave,2,-0.025606593974156062,1.446967898927133,3.6458868082324036,-0.004071284748678794,1.5466112977701592,3.6422534953659995,2,-2.1535309225477266,-9.964339884302609,0.3633312866404115,10.200871256325353,-21,0,-29,72,150,251419.99999999997,82,68.0,0,0,0,0,0,0
1778195748.308646,1.4927771091461182,wait_slave,2,-0.025606593974156062,1.446967898927133,3.6458868082324036,0.05971626251068085,1.61225163833047,3.636008346255691,2,-8.532285648483692,-16.528373940333687,0.9878461976712494,18.626939727423718,-27,-2,-30,75,150,251423.99999999997,82,68.0,0,0,0,0,0,0
1778195748.3793411,1.5634722709655762,wait_slave,2,-0.025606593974156062,1.446967898927133,3.6458868082324036,1.9553640892899793e-05,1.5540570672587055,3.6397555640998336,2,-2.562614761504896,-10.708916833157245,0.6131244132570046,11.028318806667366,19,1,12,79,150,251421.99999999997,81,68.0,0,0,0,0,0,0
1778195748.44994,1.6340711116790771,wait_slave,2,-0.025606593974156062,1.446967898927133,3.6458868082324036,-0.0499549541396318,1.5976835316895985,3.595284768112442,2,2.434836016547574,-15.071563276246547,5.060204011996161,16.083721915663762,19,-18,-27,82,150,251421.99999999997,81,68.0,0,0,0,0,0,0
1778195748.519115,1.7032461166381836,wait_slave,2,-0.025606593974156062,1.446967898927133,3.6458868082324036,-0.12202314864449759,1.4309920983016537,3.6425714081432994,2,9.641655467034154,1.597580062547932,0.3315400089104248,9.778737187323758,30,16,30,86,150,251423.0,81,68.0,0,0,0,0,0,0
1778195748.588667,1.7727980613708496,wait_slave,2,-0.025606593974156062,1.446967898927133,3.6458868082324036,0.013228066507404712,1.5991590519185093,3.6118695882241028,2,-3.883466048156077,-15.21911529913762,3.4017220008300875,16.070920683226497,-30,-12,-30,89,150,251419.0,81,68.0,0,-1,0,0,0,0
1778195748.6602418,1.8443729877471924,wait_slave,2,-0.025606593974156062,1.446967898927133,3.6458868082324036,0.00697814670373087,1.549400555251863,3.64530494529051,2,-3.258474067788693,-10.243265632472998,0.05818629418934407,10.749210655331177,0,11,8,93,150,251421.99999999997,81,68.0,0,0,0,0,0,0
1778195748.731709,1.9158401489257812,wait_slave,2,-0.025606593974156062,1.446967898927133,3.6458868082324036,0.007023704398348318,1.547888234673609,3.6453332863767747,2,-3.263029837250438,-10.092033574647585,0.055352185562895784,10.606581412266976,-1,0,-7,96,150,251421.99999999997,81,68.0,0,0,0,0,0,0
1778195748.8022249,1.9863560199737549,wait_slave,2,-0.025606593974156062,1.446967898927133,3.6458868082324036,0.01192158868364579,1.5371971853946036,3.6315216594546524,2,-3.752818265780185,-9.022928646747053,1.436514877775119,9.877269931227517,-4,-5,-3,100,150,251416.0,81,68.0,0,0,0,0,0,0
1778195748.872127,2.056258201599121,wait_slave,2,-0.025606593974156062,1.446967898927133,3.6458868082324036,0.009189728586324608,1.598113613067273,3.609152901708661,2,-3.479632256048067,-15.114571414014,3.6733906523742643,15.939005883417256,-1,-10,-30,104,150,251417.99999999997,81,68.0,0,0,0,0,0,0
1778195748.945004,2.1291351318359375,wait_slave,2,-0.025606593974156062,1.446967898927133,3.6458868082324036,0.009429368236533175,1.5352038663116985,3.6311798132227584,2,-3.5035962210689235,-8.82359673845654,1.470699500964523,9.60697678280356,-2,6,14,107,150,251419.99999999997,81,68.0,0,0,0,0,0,0
1778195749.01456,2.1986911296844482,wait_slave,2,-0.025606593974156062,1.446967898927133,3.6458868082324036,0.07368706474201314,1.5999650427782952,3.6237269019908642,2,-9.92936587161692,-15.299714385116214,2.2159906241539407,18.37346405349032,-29,-4,-30,111,150,251419.99999999997,81,68.0,0,0,0,0,0,0
1778195749.0848582,2.268989324569702,wait_slave,2,-0.025606593974156062,1.446967898927133,3.6458868082324036,0.015783668929578165,1.5832252902131918,3.598405627427153,2,-4.1390262903734225,-13.625739128605874,4.748118080525066,15.011226823275722,17,-11,-5,114,150,251417.0,81,68.0,0,0,0,0,0,0
1778195749.155744,2.3398752212524414,wait_slave,2,-0.025606593974156062,1.446967898927133,3.6458868082324036,0.07476814293388967,1.535375061565778,3.646213609170466,2,-10.037473690804573,-8.84071626386449,-0.0326800938062366,13.375732134738765,-27,16,8,118,150,251421.0,81,68.0,0,0,0,0,0,0
1778195749.225843,2.4099740982055664,wait_slave,2,-0.025606593974156062,1.446967898927133,3.6458868082324036,0.07264106765201539,1.596819708637856,3.6228455350260105,2,-9.824766162617145,-14.985180971072287,2.3041273206393154,18.066285772001123,-5,-9,-30,121,150,251421.0,81,68.0,0,0,0,0,0,0
1778195749.297111,2.4812421798706055,wait_slave,2,-0.025606593974156062,1.446967898927133,3.6458868082324036,-0.055656194484046795,1.4078010808079613,3.6485106291249774,2,3.0049600509890735,3.9166818119171776,-0.2623820892573736,4.943584295286786,30,9,30,125,150,251417.0,81,68.0,0,-1,0,0,0,0
1778195749.368609,2.5527400970458984,wait_slave,2,-0.025606593974156062,1.446967898927133,3.6458868082324036,0.012250665518402037,1.521011025396593,3.6157409113300996,2,-3.7857259492558097,-7.4043126469459875,3.014589690230407,8.84552529457898,-26,-13,-30,128,150,251409.0,81,68.0,0,0,0,0,0,0
1778195749.438668,2.6227991580963135,wait_slave,2,-0.025606593974156062,1.446967898927133,3.6458868082324036,0.012250665518402037,1.521011025396593,3.6157409113300996,2,-3.7857259492558097,-7.4043126469459875,3.014589690230407,8.84552529457898,-2,-1,-7,132,150,251423.0,81,68.0,0,-1,0,0,0,0
1778195749.509923,2.694054126739502,wait_slave,2,-0.025606593974156062,1.446967898927133,3.6458868082324036,-0.04562102412529678,1.5237247031836851,3.5968650771262425,2,2.0014430151140723,-7.675680425655207,4.902173110616115,9.324867041732182,21,-9,-8,135,150,251423.0,81,68.0,0,-1,0,0,0,0
1778195749.5814579,2.7655889987945557,wait_slave,2,-0.025606593974156062,1.446967898927133,3.6458868082324036,0.010635049263371443,1.5200054688453424,3.614158231552249,2,-3.6241643237527503,-7.303756991820931,3.1728576680154497,8.749083324704355,-22,4,-5,139,150,251412.0,81,68.0,0,0,0,0,0,0
1778195749.6519198,2.8360509872436523,wait_slave,2,-0.025606593974156062,1.446967898927133,3.6458868082324036,0.01237858046742768,1.463063661423433,3.6298819269301177,2,-3.798517444158374,-1.6095762496299848,1.6004881302285945,4.425046071167057,-3,4,16,142,150,251417.99999999997,81,68.0,0,0,0,0,0,0
1778195749.723775,2.9079060554504395,wait_slave,2,-0.025606593974156062,1.446967898927133,3.6458868082324036,0.013390540825435115,1.4594503645329704,3.63178599583922,2,-3.8997134799591175,-1.2482465605837323,1.4100812393183837,4.330613559677386,-3,0,-1,146,150,251417.99999999997,81,68.0,0,0,0,0,0,0
1778195749.7953768,2.9795079231262207,wait_slave,2,-0.025606593974156062,1.446967898927133,3.6458868082324036,-0.058282382959387036,1.400030305025255,3.6272296452099724,2,3.2675788985230976,4.693759390187813,1.8657163022431256,6.01575817262508,26,-2,21,150,150,251417.99999999997,81,68.0,0,0,0,0,0,0
1778195749.865536,3.0496671199798584,wait_slave,2,-0.025606593974156062,1.446967898927133,3.6458868082324036,0.012307841804630293,1.4592892724961124,3.6307349597070693,2,-3.7914435778786353,-1.2321373568979332,1.5151848525334355,4.264855449818591,-27,0,-24,153,150,251417.0,81,68.0,0,0,0,0,0,0
1778195749.9346292,3.118760347366333,wait_slave,2,-0.025606593974156062,1.446967898927133,3.6458868082324036,-0.05510000988133612,1.3966715727722745,3.629615034906734,2,2.949341590718006,5.029632615485857,1.6271773325669425,6.053389640285664,25,-1,23,157,150,251417.0,81,68.0,0,0,0,0,0,0
1778195750.005846,3.1899771690368652,wait_slave,2,-0.025606593974156062,1.446967898927133,3.6458868082324036,0.011778758104400766,1.459885589234796,3.630224873826757,2,-3.7385352078556826,-1.2917690307662877,1.5661934405646782,4.254206697198812,-25,0,-25,160,150,251411.0,81,68.0,0,0,0,0,0,0
1778195750.076899,3.2610301971435547,wait_slave,2,-0.025606593974156062,1.446967898927133,3.6458868082324036,0.010219627478796345,1.4640712520132668,3.6278064222286934,2,-3.5826221452952405,-1.7103353086133755,1.8080386003710203,4.362273705796219,-1,-2,-4,164,150,251416.0,81,68.0,0,0,0,0,0,0
1778195750.1470358,3.331166982650757,wait_slave,2,-0.025606593974156062,1.446967898927133,3.6458868082324036,-0.04780082664941032,1.4536650986273694,3.5978680237981657,2,2.219423267525426,-0.66971997002363,4.80187844342379,5.332204146888956,21,-13,1,167,150,251417.0,81,68.0,0,0,0,0,0,0
1778195750.217896,3.402027130126953,wait_slave,2,-0.025606593974156062,1.446967898927133,3.6458868082324036,0.019224162951336443,1.5136925062824713,3.598324934660877,2,-4.48307569254925,-6.672460735533825,4.756187357152664,9.340290044142385,-26,-2,-27,171,150,251417.0,81,68.0,0,0,0,0,0,0
1778195750.2895591,3.4736902713775635,wait_slave,2,-0.025606593974156062,1.446967898927133,3.6458868082324036,0.012197233812254793,1.456755116675453,3.6132945116299218,2,-3.7803827786410853,-0.9787217748320032,3.2592296602481863,5.086429813122157,0,2,16,174,150,251408.0,81,68.0,0,0,0,0,0,0
1778195750.360357,3.5444881916046143,wait_slave,2,-0.025606593974156062,1.446967898927133,3.6458868082324036,-0.04256909585079938,1.5074999211245612,3.5648655163812375,2,1.6962501876643314,-6.053202219742815,8.102129185116613,10.254902200634048,20,-22,-24,178,150,251411.0,80,68.0,0,0,0,0,0,0
1778195750.431485,3.6156160831451416,wait_slave,2,-0.025606593974156062,1.446967898927133,3.6458868082324036,0.01751649743814432,1.515282050104314,3.59686798182758,2,-4.312309141230037,-6.831415117718098,4.901882640482347,9.449481258840917,-24,7,-9,181,150,251408.0,80,68.0,0,0,0,0,0,0
1778195750.5010061,3.6851372718811035,wait_slave,2,-0.025606593974156062,1.446967898927133,3.6458868082324036,-0.049933521015648186,1.4559166363132228,3.595922693683357,2,2.4326927041492126,-0.89487373860897,4.996411454904681,5.628758320231516,25,-3,18,185,150,251408.0,80,68.0,0,0,0,0,0,0
1778195750.5723588,3.7564899921417236,wait_slave,2,-0.025606593974156062,1.446967898927133,3.6458868082324036,-0.049933521015648186,1.4559166363132228,3.595922693683357,2,2.4326927041492126,-0.89487373860897,4.996411454904681,5.628758320231516,1,-3,-2,189,150,251413.0,80,68.0,0,0,0,0,0,0
1778195750.644207,3.828338146209717,wait_slave,2,-0.025606593974156062,1.446967898927133,3.6458868082324036,-0.04468241060160194,1.5082424283327436,3.56296316287198,2,1.9075816627445878,-6.127452940561051,8.292364536042385,10.485602364072514,-1,-16,-24,192,150,251413.0,80,68.0,0,0,0,0,0,0
1778195750.714895,3.8990261554718018,wait_slave,2,-0.025606593974156062,1.446967898927133,3.6458868082324036,0.01772422632350401,1.568952891193566,3.559144057121107,2,-4.333082029766007,-12.198499226643289,8.674275111129681,15.582747895113425,-25,-7,-30,196,150,251411.0,80,68.0,0,0,0,0,0,0
1778195750.784374,3.9685051441192627,wait_slave,2,-0.025606593974156062,1.446967898927133,3.6458868082324036,0.01714583544540127,1.509325554816098,3.5798583912943496,2,-4.2752429419557325,-6.235765588896491,6.602841693805406,10.037927730655515,-2,2,14,199,150,251411.0,80,68.0,0,0,0,0,0,0
1778195750.8562,4.040331125259399,wait_slave,2,-0.025606593974156062,1.446967898927133,3.6458868082324036,-0.05152894627374116,1.4562108006136003,3.5944915869419627,2,2.59223522995851,-0.9242901686467242,5.139522129044094,5.829981433780812,24,1,15,203,150,251414.0,80,68.0,0,0,0,0,0,0
1778195750.927132,4.111263036727905,wait_slave,2,-0.025606593974156062,1.446967898927133,3.6458868082324036,0.01775848428492932,1.565455363909237,3.5602246962162196,2,-4.336507825908538,-11.848746498210394,8.566211201618401,15.250510419449956,-27,-17,-30,206,150,251406.0,80,68.0,0,0,0,0,0,0
1778195750.996785,4.18091607093811,wait_slave,2,-0.025606593974156062,1.446967898927133,3.6458868082324036,0.01775848428492932,1.565455363909237,3.5602246962162196,2,-4.336507825908538,-11.848746498210394,8.566211201618401,15.250510419449956,-3,-5,-10,210,150,251409.0,80,68.0,0,-1,0,0,0,0
1778195751.0684211,4.252552270889282,wait_slave,2,-0.025606593974156062,1.446967898927133,3.6458868082324036,-0.054015992471216245,1.4548921102921675,3.5921841926520477,2,2.8409398497060185,-0.7924211365034406,5.370261558035594,6.126873565607498,26,7,30,213,150,251411.0,80,68.0,0,-1,0,0,0,0
1778195751.139574,4.323705196380615,wait_slave,2,-0.025606593974156062,1.446967898927133,3.6458868082324036,-0.04506972810076282,1.5054031469512243,3.560655335042004,2,1.9463134126606756,-5.843524802409128,8.523147319039959,10.515653010571027,-2,-16,-24,217,150,251411.0,80,68.0,0,-1,0,0,0,0
1778195751.210502,4.394633054733276,wait_slave,2,-0.025606593974156062,1.446967898927133,3.6458868082324036,-0.04941954817351024,1.5054461060342614,3.558620429294874,2,2.381295419935418,-5.847820710712837,8.726637893752942,10.771340857587424,2,-6,-6,220,150,251417.99999999997,80,68.0,0,0,0,0,0,0
1778195751.280223,4.464354038238525,wait_slave,2,-0.025606593974156062,1.446967898927133,3.6458868082324036,-0.056409122488731755,1.453551219430247,3.5900325337480457,2,3.0802528514575696,-0.6583320503113832,5.585427448435798,6.412359822960631,3,7,15,224,150,251417.99999999997,80,68.0,0,0,0,0,0,0
1778195751.352256,4.536387205123901,wait_slave,2,-0.025606593974156062,1.446967898927133,3.6458868082324036,-0.05833404576255452,1.452942722402324,3.5884346649626355,2,3.272745178839846,-0.5974823475190849,5.745214326976811,6.638925652853478,2,-4,-2,228,150,251410.0,80,68.0,0,0,0,0,0,0
1778195751.424195,4.608326196670532,wait_slave,2,-0.025606593974156062,1.446967898927133,3.6458868082324036,-0.05833404576255452,1.452942722402324,3.5884346649626355,2,3.272745178839846,-0.5974823475190849,5.745214326976811,6.638925652853478,1,-4,-3,231,150,251410.0,80,68.0,0,0,0,0,0,0
1778195751.496381,4.680512189865112,wait_slave,2,-0.025606593974156062,1.446967898927133,3.6458868082324036,-0.14055014880239147,1.3426459126356511,3.607035193144417,2,11.494355482823542,10.432198629148193,3.8851615087986513,16.001420441728527,30,3,30,235,140,251411.0,80,68.0,0,0,0,0,0,0
1778195751.5669498,4.7510809898376465,wait_slave,2,-0.025606593974156062,1.446967898927133,3.6458868082324036,-0.06611039051763834,1.4477974707883754,3.587644389825328,2,4.050379654348228,-0.08295718612423286,5.824241840707556,7.094663505631275,-24,-11,-30,238,140,251411.0,80,68.0,0,0,0,0,0,0
1778195751.636357,4.820488214492798,wait_slave,2,-0.025606593974156062,1.446967898927133,3.6458868082324036,-0.06611039051763834,1.4477974707883754,3.587644389825328,2,4.050379654348228,-0.08295718612423286,5.824241840707556,7.094663505631275,2,-4,-2,242,140,251410.0,80,68.5,0,0,0,0,0,0
1778195751.708108,4.892239093780518,wait_slave,2,-0.025606593974156062,1.446967898927133,3.6458868082324036,-0.12840176091824462,1.394938397485674,3.5816669190334505,2,10.279516694408857,5.2029501441459125,6.421988919895316,13.19018936029186,27,-6,19,245,140,251409.0,80,68.5,0,0,0,0,0,0
1778195751.7791328,4.963263988494873,wait_slave,2,-0.025606593974156062,1.446967898927133,3.6458868082324036,-0.0672639100764969,1.4505565632027242,3.5873563780187205,2,4.165731610234085,-0.35886642755911247,5.853043021368309,7.193067327039332,-19,-2,-22,249,140,251409.0,80,68.5,0,0,0,0,0,0
1778195751.848404,5.032535076141357,wait_slave,2,-0.025606593974156062,1.446967898927133,3.6458868082324036,-0.11921593234428651,1.455229742837501,3.5692745463377396,2,9.360933837013045,-0.8261843910367883,7.661226189466408,12.124522657618096,24,-12,-4,252,140,251417.0,80,68.5,0,0,0,0,0,0
1778195751.919026,5.103157043457031,wait_slave,2,-0.025606593974156062,1.446967898927133,3.6458868082324036,-0.13164977002458955,1.402873688006642,3.5975684697768147,2,10.604317605043349,4.409421092049115,4.831833845558897,12.459581234805944,10,5,18,256,140,251417.0,80,68.5,0,0,0,0,0,0
1778195751.9901,5.174231052398682,wait_slave,2,-0.025606593974156062,1.446967898927133,3.6458868082324036,-0.13856230438744066,1.4010473782813069,3.5961459874048383,2,11.29557104132846,4.592052064582619,4.974082082756537,13.168840491081028,9,-4,1,259,140,251417.0,80,68.5,0,0,0,0,0,0
1778195752.061941,5.246072053909302,wait_slave,2,-0.025606593974156062,1.446967898927133,3.6458868082324036,-0.14172851011095755,1.4078960218901666,3.612144443842305,2,11.61219161368015,3.9071877036966463,3.37423643900987,12.708051832247296,8,2,-2,263,140,251413.0,80,68.5,0,0,0,0,0,0
1778195752.131142,5.31527304649353,wait_slave,2,-0.025606593974156062,1.446967898927133,3.6458868082324036,-0.07703269442608973,1.4708348781037448,3.614665354386745,2,5.142610045193368,-2.3866979176611736,3.1221453845658775,6.472291466664486,-20,-2,-26,266,140,251413.0,80,68.5,0,0,0,0,0,0
1778195752.2005818,5.3847129344940186,wait_slave,2,-0.025606593974156062,1.446967898927133,3.6458868082324036,-0.07567279563307672,1.468001115683725,3.616886318211164,2,5.006620165892066,-2.1033216756591866,2.90004900212395,6.156337529045575,2,-2,-2,270,140,251414.0,80,68.5,0,0,0,0,0,0
1778195752.270476,5.454607248306274,wait_slave,2,-0.025606593974156062,1.446967898927133,3.6458868082324036,-0.13278482220590915,1.4647759306449148,3.5810467397637424,2,10.71782282317531,-1.780803171778178,6.484006846866119,12.652483186940005,26,-17,-2,273,140,251413.0,80,68.5,0,0,0,0,0,0
1778195752.340398,5.524529218673706,wait_slave,2,-0.025606593974156062,1.446967898927133,3.6458868082324036,-0.13278482220590915,1.4647759306449148,3.5810467397637424,2,10.71782282317531,-1.780803171778178,6.484006846866119,12.652483186940005,6,-5,-3,277,140,251413.0,80,68.5,0,0,0,0,0,0
1778195752.4102058,5.594336986541748,wait_slave,2,-0.025606593974156062,1.446967898927133,3.6458868082324036,-0.14192372866023106,1.4119593748382453,3.611194870810803,2,11.6317134686075,3.500852408888777,3.4691937421600816,12.632815641227815,10,7,18,280,140,251410.0,79,68.5,0,0,0,0,0,0
1778195752.481886,5.666017055511475,wait_slave,2,-0.025606593974156062,1.446967898927133,3.6458868082324036,-0.14192372866023106,1.4119593748382453,3.611194870810803,2,11.6317134686075,3.500852408888777,3.4691937421600816,12.632815641227815,7,-3,0,284,140,251410.0,79,68.5,0,0,0,0,0,0
1778195752.552243,5.736374139785767,wait_slave,2,-0.025606593974156062,1.446967898927133,3.6458868082324036,-0.02354390202044776,1.4751625531602386,3.648965429424345,2,-0.20626919537083016,-2.819465423310552,-0.30786211919413553,2.8437143560205524,-30,12,-26,287,140,251413.0,79,68.5,0,0,0,0,0,0
1778195752.623227,5.807358026504517,wait_slave,2,-0.025606593974156062,1.446967898927133,3.6458868082324036,-0.13494779032826587,1.4705138767607138,3.597364626902015,2,10.934119635410982,-2.35459778335807,4.852218133038866,12.191928630592697,30,-22,-2,291,140,251407.00000000003,79,68.5,0,0,0,0,0,0
1778195752.693894,5.878025054931641,wait_slave,2,-0.025606593974156062,1.446967898927133,3.6458868082324036,-0.14192372866023106,1.4119593748382453,3.611194870810803,2,11.6317134686075,3.500852408888777,3.4691937421600816,12.632815641227815,9,1,20,295,140,251410.0,79,68.5,0,0,0,0,0,0
1778195752.764135,5.94826602935791,wait_slave,2,-0.025606593974156062,1.446967898927133,3.6458868082324036,-0.14416985499755763,1.411597943524777,3.610429316918636,2,11.856326102340157,3.53699554023561,3.545749131376752,12.87070872171918,8,-3,0,298,150,251413.0,79,68.5,0,0,0,0,0,0
1778195752.833812,6.0179431438446045,wait_slave,2,-0.025606593974156062,1.446967898927133,3.6458868082324036,-0.14416985499755763,1.411597943524777,3.610429316918636,2,11.856326102340157,3.53699554023561,3.545749131376752,12.87070872171918,7,-3,0,302,150,251413.0,79,68.5,0,0,0,0,0,0
1778195752.9050722,6.089203357696533,wait_slave,2,-0.025606593974156062,1.446967898927133,3.6458868082324036,-0.07077069557199556,1.5299806826799265,3.5993805051554157,2,4.51641015978395,-8.301278375279342,4.650630307698789,10.532689383731329,-22,-8,-30,305,150,251410.0,79,68.5,0,0,0,0,0,0
1778195752.974984,6.1591150760650635,wait_slave,2,-0.025606593974156062,1.446967898927133,3.6458868082324036,-0.0776563204745424,1.4781460993949596,3.631771681123227,2,5.204972650038635,-3.117820046782649,1.411512710917684,6.229358736246626,6,9,13,309,150,251411.0,79,68.5,0,0,0,0,0,0
1778195753.048268,6.232399225234985,wait_slave,2,-0.025606593974156062,1.446967898927133,3.6458868082324036,-0.14598575657643953,1.417558995764554,3.6272580382047965,2,12.037916260228346,2.9408903162579048,1.86287700276071,12.531184080841854,30,-4,20,312,150,251421.99999999997,79,68.5,0,0,0,0,0,0
1778195753.1196082,6.303739309310913,wait_slave,2,-0.025606593974156062,1.446967898927133,3.6458868082324036,-0.08114936322138666,1.4670271604227483,3.6167988975464653,2,5.554276924723061,-2.005926149561521,2.90879106859383,6.58291708551285,-18,-6,-21,316,150,251421.99999999997,79,68.5,0,0,0,0,0,0
1778195753.19152,6.375651121139526,wait_slave,2,-0.025606593974156062,1.446967898927133,3.6458868082324036,-0.13338139041254204,1.4704930680359896,3.5984265389680816,2,10.777479643838598,-2.352516910885649,4.746026926432201,12.008879001629495,25,-10,-5,319,150,251411.0,79,68.5,0,0,0,0,0,0
1778195753.2638788,6.448009967803955,wait_slave,2,-0.025606593974156062,1.446967898927133,3.6458868082324036,-0.1365379949519514,1.4737215779493913,3.5957660558997024,2,11.093140097779534,-2.6753679022258225,5.012075233270119,12.463396358344063,8,-5,-5,323,150,251408.0,79,68.5,0,0,0,0,0,0
1778195753.3350022,6.5191333293914795,wait_slave,2,-0.025606593974156062,1.446967898927133,3.6458868082324036,-0.1241681831159096,1.5220044944954236,3.5683765118823287,2,9.856158914175355,-7.5036595568290565,7.751029635007489,14.612571152573892,2,-15,-24,327,150,251408.0,79,68.5,0,0,0,0,0,0
1778195753.406935,6.591066122055054,wait_slave,2,-0.025606593974156062,1.446967898927133,3.6458868082324036,-0.1320783059817745,1.4716636810555448,3.5995930366423403,2,10.647171200761845,-2.4695782128411725,4.6293771590063315,11.869802189084776,10,6,13,330,150,251411.0,79,68.5,0,0,0,0,0,0
1778195753.47883,6.66296124458313,wait_slave,2,-0.025606593974156062,1.446967898927133,3.6458868082324036,-0.12200679772500678,1.5197037142848036,3.5713179131021056,2,9.640020375085072,-7.273581535767049,7.456889513029807,14.192962425055617,3,-16,-24,334,150,251421.0,79,68.5,0,0,0,0,0,0
1778195753.550066,6.73419713973999,wait_slave,2,-0.025606593974156062,1.446967898927133,3.6458868082324036,-0.1376319153166361,1.411312901851315,3.6158665517137685,2,11.202532134248004,3.5654997075817985,3.0020256518635158,12.133493824866422,13,12,30,337,150,251421.0,79,68.5,0,0,0,0,0,0
1778195753.619623,6.803754091262817,wait_slave,2,-0.025606593974156062,1.446967898927133,3.6458868082324036,-0.13385480986013287,1.476069851699386,3.598208722448399,2,10.82482158859768,-2.9101952772252915,4.767808578400468,12.18105075996418,6,-10,-27,341,150,251421.0,79,68.5,0,0,0,0,0,0
1778195753.69133,6.875461101531982,wait_slave,2,-0.025606593974156062,1.446967898927133,3.6458868082324036,-0.07116420971229731,1.4745205111706707,3.6192468096738724,2,4.5557615738141255,-2.7552612243537666,2.6639998558531275,5.953429529595043,-17,4,-4,344,150,251409.0,79,69.0,0,0,0,0,0,0
1778195753.762203,6.94633412361145,wait_slave,2,-0.025606593974156062,1.446967898927133,3.6458868082324036,-0.06639327931676453,1.5363134155434475,3.60149049461588,2,4.0786685342608475,-8.93455166163144,4.439631361652374,10.778315129652592,2,-10,-30,348,150,251409.0,79,69.0,0,0,0,0,0,0
1778195753.832355,7.016486167907715,wait_slave,2,-0.025606593974156062,1.446967898927133,3.6458868082324036,-0.06639327931676453,1.5363134155434475,3.60149049461588,2,4.0786685342608475,-8.93455166163144,4.439631361652374,10.778315129652592,3,-4,-9,352,150,251413.0,79,69.0,0,0,0,0,0,0
1778195753.903598,7.087729215621948,wait_slave,2,-0.025606593974156062,1.446967898927133,3.6458868082324036,-0.06639327931676453,1.5363134155434475,3.60149049461588,2,4.0786685342608475,-8.93455166163144,4.439631361652374,10.778315129652592,3,-4,-9,355,150,251413.0,79,69.0,0,0,0,0,0,0
1778195753.9775,7.161631107330322,wait_slave,2,-0.025606593974156062,1.446967898927133,3.6458868082324036,-0.06472686811107198,1.5362507562974472,3.602740844010093,2,3.912027413691592,-8.928285737031416,4.314596422231043,10.659924341864818,3,-3,-9,359,150,251408.0,79,69.0,0,0,0,0,0,0
1778195754.047793,7.231924057006836,wait_slave,2,-0.025606593974156062,1.446967898927133,3.6458868082324036,-0.11235691897572364,1.5280720267523695,3.5720831595383955,2,8.675032500156759,-8.110412782523646,7.380364869400813,13.982302027462598,23,-17,-5,362,150,251427.0,79,69.0,0,0,0,0,0,0
1778195754.118198,7.302329063415527,wait_slave,2,-0.025606593974156062,1.446967898927133,3.6458868082324036,-0.148814246023794,1.3613162784715072,3.64309851834078,2,12.320765204963795,8.565162045562591,0.27882898916238297,15.008031240232336,21,23,30,366,150,251416.0,79,69.0,0,0,0,0,0,0
1778195754.189468,7.373599052429199,wait_slave,2,-0.025606593974156062,1.446967898927133,3.6458868082324036,-0.06430426842529502,1.5336662053585322,3.6027300960572477,2,3.869767445113896,-8.669830643139909,4.315671217515593,10.429097828560417,-25,-18,-30,369,150,251416.0,79,69.0,0,0,0,0,0,0
1778195754.260996,7.445127248764038,wait_slave,2,-0.025606593974156062,1.446967898927133,3.6458868082324036,-0.1266626539404836,1.4695325583438006,3.6036262631936804,2,10.105605996632754,-2.256465941666752,4.226054503872323,11.183668797616525,29,-4,18,373,150,251407.00000000003,79,69.0,0,0,0,0,0,0
1778195754.3310359,7.515166997909546,wait_slave,2,-0.025606593974156062,1.446967898927133,3.6458868082324036,-0.1266626539404836,1.4695325583438006,3.6036262631936804,2,10.105605996632754,-2.256465941666752,4.226054503872323,11.183668797616525,7,-4,-4,376,150,251401.00000000003,79,69.0,0,0,0,0,0,0
1778195754.403557,7.587688207626343,wait_slave,2,-0.025606593974156062,1.446967898927133,3.6458868082324036,-0.13060193599663772,1.471169496219939,3.6001359935034634,2,10.499534202248165,-2.420159729280602,4.575081472894027,11.70592850067985,9,-5,-5,380,150,251415.0,78,69.0,0,0,0,0,0,0
1778195754.473759,7.65789008140564,wait_slave,2,-0.025606593974156062,1.446967898927133,3.6458868082324036,-0.1269412915585113,1.4675360119417578,3.6030928374680147,2,10.133469758435524,-2.056811301462469,4.2793970764388956,11.190662241922272,6,-3,-3,384,150,251415.0,78,69.0,0,0,0,0,0,0
1778195754.544411,7.72854208946228,wait_slave,2,-0.025606593974156062,1.446967898927133,3.6458868082324036,-0.06340886765725928,1.526942649134135,3.604261356623584,2,3.7802273683103222,-7.997475020700184,4.1625451608819475,9.776323842796305,-18,-4,-29,387,150,251410.0,78,69.0,0,0,0,0,0,0
1778195754.616058,7.800189256668091,wait_slave,2,-0.025606593974156062,1.446967898927133,3.6458868082324036,-0.1405716573219038,1.4160691153016947,3.6297553720736726,2,11.496506334774773,3.089878362543841,1.6131436158731027,12.013294241225646,30,5,30,391,150,251413.0,78,69.0,0,0,0,0,0,0
1778195754.686025,7.8701560497283936,wait_slave,2,-0.025606593974156062,1.446967898927133,3.6458868082324036,-0.0606713228394995,1.5854655081651297,3.584544669534342,2,3.5064728865343437,-13.849760923799659,6.134213869806171,15.547984099262866,-24,-21,-30,394,150,251413.0,78,69.0,0,0,0,0,0,0
1778195754.757492,7.941623210906982,wait_slave,2,-0.025606593974156062,1.446967898927133,3.6458868082324036,-0.14006579977913103,1.4155458530215017,3.6301727934822092,2,11.445920580497496,3.1422045905631357,1.5714014750194405,11.972963301526713,30,13,30,398,150,251411.0,78,69.0,0,0,0,0,0,0
1778195754.827405,8.011536121368408,wait_slave,2,-0.025606593974156062,1.446967898927133,3.6458868082324036,-0.07859546656253347,1.4699521381684355,3.6358282526297407,2,5.298887258837741,-2.298423924130244,1.0058555602662889,5.862823903632602,-16,0,-24,401,150,251417.0,78,69.0,0,0,0,0,0,0
1778195754.8978539,8.081984996795654,wait_slave,2,-0.025606593974156062,1.446967898927133,3.6458868082324036,-0.0749134373907685,1.532254037316259,3.617288854578788,2,4.9306843416612445,-8.528613838912591,2.8597953653615615,10.258037415711554,3,-10,-30,405,150,251415.0,78,69.0,0,0,0,0,0,0
1778195754.969482,8.153613090515137,wait_slave,2,-0.025606593974156062,1.446967898927133,3.6458868082324036,-0.0749134373907685,1.532254037316259,3.617288854578788,2,4.9306843416612445,-8.528613838912591,2.8597953653615615,10.258037415711554,4,-3,-9,408,150,251415.0,78,69.0,0,0,0,0,0,0
1778195755.041599,8.225730180740356,wait_slave,2,-0.025606593974156062,1.446967898927133,3.6458868082324036,-0.13953194631414245,1.4137831454313936,3.630504462537788,2,11.39253523399864,3.318475349573946,1.5382345694615829,11.965295787999436,30,1,30,412,150,251419.99999999997,78,69.0,0,0,0,0,0,0
1778195755.112361,8.296492099761963,wait_slave,2,-0.025606593974156062,1.446967898927133,3.6458868082324036,-0.08654177063434765,1.4129637106213262,3.6677335272805602,2,6.093517666019159,3.400418830580687,-2.1846719048156604,7.312085687486587,-13,12,0,415,150,251412.0,78,69.0,0,0,0,0,0,0
1778195755.182127,8.366258144378662,wait_slave,2,-0.025606593974156062,1.446967898927133,3.6458868082324036,-0.08792119132835508,1.4162048137981422,3.6652635074518263,2,6.231459735419902,3.076308512899084,-1.9376699219422644,7.214522106632884,6,-1,-2,419,150,251412.0,78,69.0,0,0,0,0,0,0
1778195755.253259,8.437390089035034,wait_slave,2,-0.025606593974156062,1.446967898927133,3.6458868082324036,-0.13950874479286401,1.412568424001385,3.6304129584386544,2,11.390215081870796,3.439947492574813,1.5473849793749217,11.99852651942495,27,-15,0,423,150,251409.0,78,69.0,0,0,0,0,0,0
1778195755.325092,8.509223222732544,wait_slave,2,-0.025606593974156062,1.446967898927133,3.6458868082324036,-0.07541883316095066,1.4675679299560414,3.636782387917841,2,4.9812239186794605,-2.0600031028908283,0.9104420314562489,5.466727467561044,-17,0,-24,426,150,251409.0,78,69.0,0,0,0,0,0,0
1778195755.3945742,8.578705310821533,wait_slave,2,-0.025606593974156062,1.446967898927133,3.6458868082324036,-0.07541883316095066,1.4675679299560414,3.636782387917841,2,4.9812239186794605,-2.0600031028908283,0.9104420314562489,5.466727467561044,5,-2,-4,430,150,251409.0,78,69.0,0,0,0,0,0,0
1778195755.466018,8.65014910697937,wait_slave,2,-0.025606593974156062,1.446967898927133,3.6458868082324036,-0.07541883316095066,1.4675679299560414,3.636782387917841,2,4.9812239186794605,-2.0600031028908283,0.9104420314562489,5.466727467561044,5,-2,-4,433,150,251403.00000000003,78,69.0,0,0,0,0,0,0
1778195755.536629,8.720760107040405,wait_slave,2,-0.025606593974156062,1.446967898927133,3.6458868082324036,-0.08837857957287465,1.4154927171873752,3.664773217672802,2,6.277198559871859,3.147518173975783,-1.888640944039821,7.271661229118751,10,8,17,437,150,251398.0,78,69.0,0,0,0,0,0,0
1778195755.608424,8.792555093765259,wait_slave,2,-0.025606593974156062,1.446967898927133,3.6458868082324036,-0.0116441879308955,1.5299731628304394,3.6346577122737003,2,-1.3962406043260562,-8.300526390330631,1.1229095958703361,8.491710790072972,-25,-13,-30,440,150,251398.0,78,69.0,0,0,0,0,0,0
1778195755.680501,8.86463212966919,wait_slave,2,-0.025606593974156062,1.446967898927133,3.6458868082324036,-0.0116441879308955,1.5299731628304394,3.6346577122737003,2,-1.3962406043260562,-8.300526390330631,1.1229095958703361,8.491710790072972,1,-2,-9,444,150,251389.0,78,68.0,0,0,0,0,0,0
1778195755.752487,8.936618089675903,wait_slave,2,-0.025606593974156062,1.446967898927133,3.6458868082324036,-0.0751150752081482,1.5291985464464584,3.6168451151057037,2,4.950848123399214,-8.22306475193253,2.904169312669991,10.028154887719614,27,-10,-8,448,140,251392.0,78,68.0,0,0,0,0,0,0
1778195755.824338,9.008469104766846,wait_slave,2,-0.025606593974156062,1.446967898927133,3.6458868082324036,-0.07834806126428528,1.466304506052614,3.6357275430346765,2,5.274146729012923,-1.933660712548102,1.015926519772714,5.708570238158347,6,3,17,451,150,251391.0,78,68.0,0,0,0,0,0,0
1778195755.8969119,9.081043004989624,wait_slave,2,-0.025606593974156062,1.446967898927133,3.6458868082324036,-0.07834806126428528,1.466304506052614,3.6357275430346765,2,5.274146729012923,-1.933660712548102,1.015926519772714,5.708570238158347,5,-2,-4,455,150,251391.0,78,68.0,0,0,0,0,0,0
1778195755.966867,9.15099811553955,wait_slave,2,-0.025606593974156062,1.446967898927133,3.6458868082324036,-0.07834806126428528,1.466304506052614,3.6357275430346765,2,5.274146729012923,-1.933660712548102,1.015926519772714,5.708570238158347,5,-2,-4,458,150,251404.0,78,68.0,0,0,0,0,0,0
1778195756.038063,9.222194194793701,wait_slave,2,-0.025606593974156062,1.446967898927133,3.6458868082324036,-0.013787086370929291,1.4659732149580686,3.654576407439727,2,-1.181950760322677,-1.9005316030935582,-0.8689599207323262,2.4008580378739297,-21,5,-4,462,150,251400.0,78,68.0,0,0,0,0,0,0
1778195756.108695,9.292826175689697,wait_slave,2,-0.025606593974156062,1.446967898927133,3.6458868082324036,-0.08162676139087566,1.4026542324402729,3.652827328333136,2,5.60201674167196,4.431366648686019,-0.6940520100732428,7.176441328523936,29,-2,21,465,150,251400.0,78,68.0,0,0,0,0,0,0
1778195756.180833,9.364964246749878,wait_slave,2,-0.025606593974156062,1.446967898927133,3.6458868082324036,-0.07543011611140593,1.4648275495081444,3.6378769708175773,2,4.982352213724988,-1.7859650581011355,0.8009837414826304,5.353043968107117,3,-7,-26,469,150,251404.0,78,68.0,0,0,0,0,0,0
1778195756.253878,9.438009262084961,wait_slave,2,-0.025606593974156062,1.446967898927133,3.6458868082324036,-0.06763937666298436,1.4625110508518229,3.6206304707411467,2,4.203278268882831,-1.5543151924689802,2.5256337491256886,5.144149080064186,2,-9,-3,473,150,251403.00000000003,78,68.0,0,0,0,0,0,0
1778195756.3255968,9.509727954864502,wait_slave,2,-0.025606593974156062,1.446967898927133,3.6458868082324036,-0.011230628873848847,1.5307017159251513,3.635062974575,2,-1.4375965100307215,-8.373381699801818,1.0823833657403803,8.564564120062384,-17,2,-30,476,150,251403.00000000003,78,68.0,0,0,0,0,0,0
1778195756.39746,9.581591129302979,wait_slave,2,-0.025606593974156062,1.446967898927133,3.6458868082324036,-0.015554229831962196,1.4784723295767024,3.6685740319742997,2,-1.0052364142193866,-3.1504430649569315,-2.2687223741896023,4.010348234898857,3,11,12,480,150,251417.0,77,68.0,0,0,0,0,0,0
1778195756.46837,9.652501106262207,wait_slave,2,-0.025606593974156062,1.446967898927133,3.6458868082324036,-0.072234577890959,1.4590125573301256,3.622616807558845,2,4.662798391680294,-1.2044658402992514,2.3270000673558666,5.348584496423173,25,-19,2,483,150,251417.0,77,68.0,0,0,0,0,0,0
1778195756.538301,9.722432136535645,wait_slave,2,-0.025606593974156062,1.446967898927133,3.6458868082324036,-0.06531751634959204,1.4597037086642688,3.6237774795408124,2,3.971092237543598,-1.2735809737135728,2.2109328691591212,4.720148960320259,2,-3,-4,487,150,251410.0,77,68.0,0,0,0,0,0,0
1778195756.609241,9.79337215423584,wait_slave,2,-0.025606593974156062,1.446967898927133,3.6458868082324036,-0.061518746177952055,1.521954992257192,3.6054907770574434,2,3.5912152203795995,-7.498709333005893,4.039603117496027,9.24369308052141,3,-11,-30,490,150,251410.0,77,68.0,0,0,0,0,0,0
1778195756.6804202,9.864551305770874,wait_slave,2,-0.025606593974156062,1.446967898927133,3.6458868082324036,-0.061518746177952055,1.521954992257192,3.6054907770574434,2,3.5912152203795995,-7.498709333005893,4.039603117496027,9.24369308052141,4,-4,-8,494,150,251406.0,77,69.0,0,0,0,0,0,0
1778195756.7509701,9.93510127067566,wait_slave,2,-0.025606593974156062,1.446967898927133,3.6458868082324036,-0.061518746177952055,1.521954992257192,3.6054907770574434,2,3.5912152203795995,-7.498709333005893,4.039603117496027,9.24369308052141,4,-4,-8,497,150,251406.0,77,69.0,0,0,0,0,0,0
1778195756.8205209,10.00465202331543,wait_slave,2,-0.025606593974156062,1.446967898927133,3.6458868082324036,-0.06671702529216228,1.4627145437264506,3.6215198797629555,2,4.111043131800622,-1.5746644799317533,2.43669284694481,5.031671281615663,6,2,16,501,150,251402.0,77,69.0,0,0,0,0,0,0
1778195756.89181,10.07594108581543,wait_slave,2,-0.025606593974156062,1.446967898927133,3.6458868082324036,-0.13271716123688893,1.3997178820501959,3.6185680604094945,2,10.711056726273286,4.7250016876937195,2.7318747822909106,12.021460683638646,30,-4,21,504,150,251402.0,77,69.0,0,0,0,0,0,0
1778195756.963856,10.147987127304077,wait_slave,2,-0.025606593974156062,1.446967898927133,3.6458868082324036,-0.06382386214832936,1.4590123566293869,3.6233077833414558,2,3.82172681741733,-1.204445770225382,2.2579024890947874,4.599392256661856,-19,-1,-25,508,150,251414.0,77,69.0,0,0,0,0,0,0
1778195757.0344021,10.218533277511597,wait_slave,2,-0.025606593974156062,1.446967898927133,3.6458868082324036,-0.06806650344690968,1.4618174107854904,3.62017702690327,2,4.245990947275362,-1.4849511858357367,2.570978132913382,5.181066271394148,6,-4,-5,512,140,251402.0,77,69.0,0,0,0,0,0,0
1778195757.1039932,10.288124322891235,wait_slave,2,-0.025606593974156062,1.446967898927133,3.6458868082324036,-0.06806650344690968,1.4618174107854904,3.62017702690327,2,4.245990947275362,-1.4849511858357367,2.570978132913382,5.181066271394148,5,-3,-4,515,140,251406.0,77,69.0,0,0,0,0,0,0
1778195757.174763,10.358894109725952,wait_slave,2,-0.025606593974156062,1.446967898927133,3.6458868082324036,-0.06806650344690968,1.4618174107854904,3.62017702690327,2,4.245990947275362,-1.4849511858357367,2.570978132913382,5.181066271394148,5,-3,-4,519,140,251406.0,77,69.0,0,0,0,0,0,0
1778195757.245452,10.429583072662354,wait_slave,2,-0.025606593974156062,1.446967898927133,3.6458868082324036,-0.06806650344690968,1.4618174107854904,3.62017702690327,2,4.245990947275362,-1.4849511858357367,2.570978132913382,5.181066271394148,5,-3,-4,522,140,251404.0,77,69.0,0,0,0,0,0,0
1778195757.326143,10.510274171829224,wait_slave,2,-0.025606593974156062,1.446967898927133,3.6458868082324036,-0.05933899406064591,1.5207810125706076,3.605373406433138,2,3.373240008648985,-7.381311364347454,4.051340179926566,9.070604327545244,2,-9,-27,526,140,251403.00000000003,77,69.0,0,0,0,0,0,0
1778195757.39642,10.580551147460938,wait_slave,2,-0.025606593974156062,1.446967898927133,3.6458868082324036,-0.05490413278116324,1.5712591123534638,3.5713079402839023,2,2.929753880700718,-12.429121342633076,7.457886794850133,14.788055673285044,3,-18,-30,530,140,251403.00000000003,77,69.0,0,0,0,0,0,0
1778195757.4677079,10.651839017868042,wait_slave,2,-0.025606593974156062,1.446967898927133,3.6458868082324036,-0.057915737670444445,1.5121247917752085,3.5903873562498894,2,3.2309143696288385,-6.5156892848075465,5.549945198251427,9.148492019104792,5,0,12,533,150,251416.0,77,69.0,0,0,0,0,0,0
1778195757.538223,10.722354173660278,wait_slave,2,-0.025606593974156062,1.446967898927133,3.6458868082324036,-0.1257868394614623,1.3985141778545191,3.6002529256706155,2,10.018024548730624,4.845372107261392,4.563388256178813,12.027591574934144,30,-1,30,537,150,251409.0,77,69.0,0,0,0,0,0,0
1778195757.609565,10.793696165084839,wait_slave,2,-0.025606593974156062,1.446967898927133,3.6458868082324036,-0.1257868394614623,1.3985141778545191,3.6002529256706155,2,10.018024548730624,4.845372107261392,4.563388256178813,12.027591574934144,8,-5,0,540,140,251398.0,77,69.0,0,0,0,0,0,0
1778195757.6790478,10.863178968429565,wait_slave,2,-0.025606593974156062,1.446967898927133,3.6458868082324036,-0.06855371526381315,1.4622976017145435,3.6197652277842436,2,4.29471212896571,-1.5329702787410415,2.612158044816004,5.255275425444944,-14,2,-27,544,140,251398.0,77,69.0,0,0,0,0,0,0
1778195757.751761,10.935892105102539,wait_slave,2,-0.025606593974156062,1.446967898927133,3.6458868082324036,-0.1418284836240291,1.346183596096457,3.624169513949859,2,11.622188964987306,10.078430283067608,2.1717294282544763,15.535972516005344,30,-2,30,547,140,251405.00000000003,77,69.0,0,0,0,0,0,0
1778195757.823137,11.007268190383911,wait_slave,2,-0.025606593974156062,1.446967898927133,3.6458868082324036,-0.06587329861723634,1.4519853740364548,3.605150665910815,2,4.026670464308029,-0.5017475109321712,4.073614232158862,5.7497963881605845,-21,-11,-30,551,140,251405.00000000003,77,69.0,0,0,0,0,0,0
1778195757.8939362,11.078067302703857,wait_slave,2,-0.025606593974156062,1.446967898927133,3.6458868082324036,-0.0743830694281995,1.3974208311686351,3.6359867926168605,2,4.877647545404344,4.954706775849793,0.9900015615543101,7.022867498658994,9,7,18,555,140,251407.00000000003,77,69.0,0,0,0,0,0,0
1778195757.965313,11.149444103240967,wait_slave,2,-0.025606593974156062,1.446967898927133,3.6458868082324036,-0.057915737670444445,1.5121247917752085,3.5903873562498894,2,3.2309143696288385,-6.5156892848075465,5.549945198251427,9.148492019104792,0,-21,-30,558,140,251407.00000000003,77,69.0,0,0,0,0,0,0
1778195758.034821,11.218952178955078,wait_slave,2,-0.025606593974156062,1.446967898927133,3.6458868082324036,-0.04676811114810109,1.5660836067561128,3.5561443979350633,2,2.116151717394503,-11.911570782897973,8.974241029734031,15.063220726882484,0,-20,-30,562,140,251407.00000000003,77,69.0,0,0,0,0,0,0
1778195758.104309,11.288440227508545,wait_slave,2,-0.025606593974156062,1.446967898927133,3.6458868082324036,-0.12533731284034366,1.3979986508145106,3.600663115950921,2,9.97307188661876,4.896924811262249,4.522369228148282,11.995576638849997,30,10,30,565,140,251407.00000000003,77,69.0,0,0,0,0,0,0
1778195758.1758,11.359931230545044,wait_slave,2,-0.025606593974156062,1.446967898927133,3.6458868082324036,-0.05015080793832305,1.5091812065750934,3.573524638895999,2,2.454421396416699,-6.221330764796029,7.236216933640449,9.853526089014553,-21,-16,-30,569,140,251411.0,77,69.0,0,0,0,0,0,0
1778195758.247529,11.431660175323486,wait_slave,2,-0.025606593974156062,1.446967898927133,3.6458868082324036,-0.05644800588013599,1.455874949055377,3.6058015305356217,2,3.0841411905979927,-0.8907050128243998,4.008527769678194,5.1355211209472165,7,6,14,572,140,251414.0,77,69.0,0,0,0,0,0,0
1778195758.317934,11.502065181732178,wait_slave,2,-0.025606593974156062,1.446967898927133,3.6458868082324036,-0.05686894642971452,1.455208273226822,3.6053550999841915,2,3.1262352455558458,-0.8240374299688824,4.053170824821217,5.1846483228592515,5,-5,-4,576,140,251410.0,77,69.0,0,0,0,0,0,0
1778195758.3900642,11.574195384979248,wait_slave,2,-0.025606593974156062,1.446967898927133,3.6458868082324036,-0.05728342138868636,1.4545501206240923,3.604915390820415,2,3.16768274145303,-0.7582221696959213,4.097141741198884,5.234088770415725,5,-5,-4,579,140,251410.0,77,69.0,0,0,0,0,0,0
1778195758.462492,11.646623134613037,wait_slave,2,-0.025606593974156062,1.446967898927133,3.6458868082324036,-0.1261938398806115,1.3955690413505861,3.599582722582649,2,10.058724590645545,5.139885757654694,4.630408564975452,12.20807312686146,30,-7,20,583,140,251413.0,76,69.0,0,0,0,0,0,0
1778195758.534503,11.718634128570557,wait_slave,2,-0.025606593974156062,1.446967898927133,3.6458868082324036,-0.05125433232259291,1.5060977070133261,3.57227295029861,2,2.564773834843685,-5.912980808619306,7.361385793379371,9.784242825378294,-21,-16,-30,587,140,251406.0,76,69.0,0,0,0,0,0,0
1778195758.6059468,11.790077924728394,wait_slave,2,-0.025606593974156062,1.446967898927133,3.6458868082324036,-0.05125433232259291,1.5060977070133261,3.57227295029861,2,2.564773834843685,-5.912980808619306,7.361385793379371,9.784242825378294,4,-7,-8,590,140,251406.0,76,69.0,0,0,0,0,0,0
1778195758.678169,11.862300157546997,wait_slave,2,-0.025606593974156062,1.446967898927133,3.6458868082324036,-0.126206311433404,1.3944535376237006,3.5994938630534112,2,10.059971745924793,5.2514361303432455,4.6392945178992395,12.259839582298355,30,3,30,594,140,251412.0,76,69.5,0,0,0,0,0,0
1778195758.749155,11.933286190032959,wait_slave,2,-0.025606593974156062,1.446967898927133,3.6458868082324036,-0.04997258527736048,1.502328891109237,3.574538046825465,2,2.436599130320442,-5.5360992182103885,7.13487614069388,9.353708752082824,-22,-16,-30,597,140,251409.0,76,69.5,0,0,0,0,0,0
1778195758.820269,12.004400253295898,wait_slave,2,-0.025606593974156062,1.446967898927133,3.6458868082324036,0.00030940740742324557,1.5103036232010258,3.604232566452757,2,-2.5916001381579306,-6.333572427389278,4.165424177964683,8.011322584408811,-15,4,-11,601,140,251409.0,76,69.5,0,0,0,0,0,0
1778195758.8919392,12.076070308685303,wait_slave,2,-0.025606593974156062,1.446967898927133,3.6458868082324036,-0.07560728260292748,1.396005470240385,3.633375236663566,2,5.000068862877143,5.096242868674805,1.2511571568837532,7.24829457467436,30,6,30,604,140,251412.0,76,69.5,0,0,0,0,0,0
1778195758.961524,12.145655155181885,wait_slave,2,-0.025606593974156062,1.446967898927133,3.6458868082324036,-0.06029464691988262,1.451203954392441,3.6037292846926117,2,3.468805294572656,-0.42360554653080307,4.215752353979196,5.475821375902258,0,-16,-24,608,140,251412.0,76,69.5,0,0,0,0,0,0
1778195759.033122,12.2172532081604,wait_slave,2,-0.025606593974156062,1.446967898927133,3.6458868082324036,-0.13827064641696896,1.3370042472788302,3.626967899618746,2,11.26640524428129,10.99636516483029,1.8918908613657415,15.856581756418414,30,3,30,612,140,251411.0,76,69.5,0,0,0,0,0,0
1778195759.104398,12.28852915763855,wait_slave,2,-0.025606593974156062,1.446967898927133,3.6458868082324036,-0.0002033061429844718,1.5183473816290003,3.6197793197679404,2,-2.540328783117159,-7.1379482701867225,2.61074884644632,8.013712334081873,-30,-7,-30,615,140,251407.00000000003,76,69.5,0,0,0,0,0,0
1778195759.174943,12.359074115753174,wait_slave,2,-0.025606593974156062,1.446967898927133,3.6458868082324036,-0.1379198792770293,1.3364674459027526,3.627361970560015,2,11.231328530287325,11.05004530243805,1.852483767238855,15.864360618980605,30,-1,30,619,140,251407.00000000003,76,69.5,0,0,0,0,0,0
1778195759.2463691,12.430500268936157,wait_slave,2,-0.025606593974156062,1.446967898927133,3.6458868082324036,-0.06244403398569087,1.4598048800882664,3.6185953805311364,2,3.683744001153481,-1.2836981161133298,2.7291427701267246,4.760889725574637,-20,-7,-30,622,140,251403.00000000003,76,69.5,0,0,0,0,0,0
1778195759.319793,12.503924131393433,wait_slave,2,-0.025606593974156062,1.446967898927133,3.6458868082324036,-0.06800599816781472,1.4551055792684795,3.6199542655356973,2,4.239940419365866,-0.8137680341346432,2.5932542696706307,5.036296345561559,8,-4,-2,626,140,251409.0,76,69.5,0,0,0,0,0,0
1778195759.392538,12.576669216156006,wait_slave,2,-0.025606593974156062,1.446967898927133,3.6458868082324036,-0.07365003923215752,1.3895394988877239,3.636391909478984,2,4.804344525800146,5.742840003940919,0.94948987534198,7.547414700202109,8,1,22,630,140,251409.0,76,69.5,0,0,0,0,0,0
1778195759.4636889,12.647819995880127,wait_slave,2,-0.025606593974156062,1.446967898927133,3.6458868082324036,-0.08970084642530485,1.3384052775457604,3.65998633436259,2,6.409425245114879,10.856262138137263,-1.409952613018639,12.685705575789887,13,6,21,633,140,251409.0,76,69.5,0,0,0,0,0,0
1778195759.534771,12.718902111053467,wait_slave,2,-0.025606593974156062,1.446967898927133,3.6458868082324036,-0.06776724755290231,1.4525356277318928,3.6202885166390213,2,4.216065357874625,-0.5567728804759753,2.559829159338234,4.963660792933205,-1,-18,-30,637,140,251408.0,76,69.5,0,0,0,0,0,0
1778195759.60537,12.789501190185547,wait_slave,2,-0.025606593974156062,1.446967898927133,3.6458868082324036,-0.014843196679813486,1.458280863097451,3.652438512204505,2,-1.0763397294342576,-1.1312964170318018,-0.6551703972101475,1.6933951239235647,-15,8,-6,640,140,251410.0,76,69.5,0,0,0,0,0,0
1778195759.67621,12.86034107208252,wait_slave,2,-0.025606593974156062,1.446967898927133,3.6458868082324036,-0.024107941497655494,1.3985565197440017,3.68490776616097,2,-0.14986524765005677,4.841137918313132,-3.9020957928566524,6.219761049526904,6,10,20,644,140,251410.0,76,69.5,0,0,0,0,0,0
1778195759.7483468,12.932477951049805,wait_slave,2,-0.025606593974156062,1.446967898927133,3.6458868082324036,-0.0766049389245882,1.3947368985504145,3.651318681246876,2,5.099834495043214,5.223100037671857,-0.5431873014472455,7.320118737070729,25,-14,1,647,140,251410.0,76,69.5,0,0,0,0,0,0
1778195759.819062,13.003193140029907,wait_slave,2,-0.025606593974156062,1.446967898927133,3.6458868082324036,-0.0845971217174466,1.3274732621446996,3.6658787368334824,2,5.899052774329054,11.949463678243344,-1.999192860107879,13.475358174233534,10,3,28,651,140,251411.0,76,69.5,0,0,0,0,0,0
1778195759.890851,13.074982166290283,wait_slave,2,-0.025606593974156062,1.446967898927133,3.6458868082324036,-0.02343303533737706,1.397481436892221,3.6857691061121267,2,-0.2173558636779,4.948646203491203,-3.9882297879723083,6.3594276205074225,-17,6,-24,654,140,251411.0,76,69.5,0,0,0,0,0,0
1778195759.962364,13.14649510383606,wait_slave,2,-0.025606593974156062,1.446967898927133,3.6458868082324036,-0.07603037897024101,1.393696466546566,3.6521537501790697,2,5.042378499608495,5.327143238056697,-0.6266941946666105,7.361846346244673,25,-14,1,658,140,251411.0,76,69.5,0,0,0,0,0,0
1778195760.034446,13.218577146530151,wait_slave,2,-0.025606593974156062,1.446967898927133,3.6458868082324036,-0.01522534616166471,1.461338614221618,3.670536059476069,2,-1.0381247812491352,-1.437071529448497,-2.464925124366557,3.0362367349942416,-18,4,-28,662,140,251412.0,76,69.5,0,0,0,0,0,0
1778195760.104962,13.289093255996704,wait_slave,2,-0.025606593974156062,1.446967898927133,3.6458868082324036,-0.023308975090188255,1.3958687219439436,3.6861603340779547,2,-0.22976188839678063,5.109917698318944,-4.027352584555111,6.510270213230443,6,4,23,665,140,251412.0,76,69.5,0,0,0,0,0,0
1778195760.175379,13.35951018333435,wait_slave,2,-0.025606593974156062,1.446967898927133,3.6458868082324036,-0.08156354895581885,1.4003887058373787,3.666633564775957,2,5.59569549816628,4.657919308975433,-2.0746756543553513,7.570488720545018,28,-8,-1,669,140,251407.00000000003,76,69.5,0,0,0,0,0,0
1778195760.244638,13.4287691116333,wait_slave,2,-0.025606593974156062,1.446967898927133,3.6458868082324036,-0.09085602800972592,1.3362472511997536,3.679058941518747,2,6.524943403556986,11.072064772737944,-3.3172133286343275,13.272882468363667,11,3,27,672,140,251407.00000000003,76,69.5,0,0,0,0,0,0
1778195760.3124611,13.496592283248901,wait_slave,2,-0.025606593974156062,1.446967898927133,3.6458868082324036,-0.02630873808709322,1.4036280825802718,3.7013109584665584,2,0.07021441129371579,4.333981634686124,-5.542415023415481,7.036099144066374,-19,8,-24,676,140,251409.0,76,69.5,0,-1,0,0,0,0
1778195760.381521,13.565652132034302,wait_slave,2,-0.025606593974156062,1.446967898927133,3.6458868082324036,-0.015317230215989852,1.4588438867842273,3.6709363376494175,2,-1.028936375816621,-1.1875987857094206,-2.5049529417013883,2.957006963372858,0,-12,-24,679,140,251409.0,76,69.5,0,-1,0,0,0,0
1778195760.450828,13.63495922088623,wait_slave,2,-0.025606593974156062,1.446967898927133,3.6458868082324036,-0.020197968035126967,1.4608639778159223,3.66742789682214,2,-0.5408625939029095,-1.3896078888789187,-2.154108858973647,2.6198716393416404,5,-2,-5,682,140,251411.0,76,69.5,0,0,0,0,0,0
1778195760.5216498,13.705780982971191,wait_slave,2,-0.025606593974156062,1.446967898927133,3.6458868082324036,-0.026508062231195728,1.397309832785537,3.68266998565255,2,0.09014682570396663,4.965806614159596,-3.6783177420146362,6.180403157613211,6,4,22,686,140,251405.00000000003,76,69.5,0,0,0,0,0,0
1778195760.589349,13.77348017692566,wait_slave,2,-0.025606593974156062,1.446967898927133,3.6458868082324036,-0.03420136033016008,1.3310860103778528,3.716611315748443,2,0.8594766356004018,11.588188854928028,-7.07245075160392,13.60310187635467,7,13,28,689,140,251405.00000000003,76,69.5,0,0,0,0,0,0
1778195760.662305,13.846436262130737,wait_slave,2,-0.025606593974156062,1.446967898927133,3.6458868082324036,-0.03420136033016008,1.3310860103778528,3.716611315748443,2,0.8594766356004018,11.588188854928028,-7.07245075160392,13.60310187635467,4,1,4,693,140,251407.00000000003,76,68.5,0,0,0,0,0,0
1778195760.735926,13.92005705833435,wait_slave,2,-0.025606593974156062,1.446967898927133,3.6458868082324036,-0.03488402586182704,1.3346669735372312,3.7151417978342756,2,0.9277431887670977,11.230092538990188,-6.925498960187193,13.22642134918364,4,0,3,697,140,251415.0,76,68.5,0,0,0,0,0,0
1778195760.807329,13.991460084915161,wait_slave,2,-0.025606593974156062,1.446967898927133,3.6458868082324036,-0.02507911356589787,1.397525179192176,3.70397077963986,2,-0.052748040825819145,4.9442719734957175,-5.808397140745658,7.627980404296313,0,-3,-21,700,140,251415.0,76,68.5,0,0,0,0,0,0
1778195760.878177,14.062308073043823,wait_slave,2,-0.025606593974156062,1.446967898927133,3.6458868082324036,-0.03413436873692044,1.334497786703687,3.7161134739384827,2,0.8527774762764377,11.247011222344616,-7.022666570607905,13.286848257638978,7,5,27,704,140,251412.0,76,68.5,0,0,0,0,0,0
1778195760.9482272,14.132358312606812,wait_slave,2,-0.025606593974156062,1.446967898927133,3.6458868082324036,-0.08651984420666148,1.3929083326281129,3.669248882671192,2,6.091325023250542,5.40595662990202,-2.336207443878857,8.472689823432392,26,-17,-19,707,140,251412.0,76,68.5,0,0,0,0,0,0
1778195761.019274,14.203405141830444,wait_slave,2,-0.025606593974156062,1.446967898927133,3.6458868082324036,-0.024127538638742285,1.3967985746051297,3.7054162158890724,2,-0.14790553354137764,5.016932432200338,-5.952940765666881,7.786462023002126,-18,13,0,711,140,251410.0,76,68.5,0,0,0,0,0,0
1778195761.09038,14.274511098861694,wait_slave,2,-0.025606593974156062,1.446967898927133,3.6458868082324036,-0.035129905322122346,1.3379701886794795,3.7348059461065675,2,0.9523311347966283,10.899771024765359,-8.891913787416383,14.098867819277656,8,13,25,714,140,251407.00000000003,76,68.5,0,0,0,0,0,0
1778195761.162048,14.346179246902466,wait_slave,2,-0.025606593974156062,1.446967898927133,3.6458868082324036,-0.035527388813696215,1.3369611504656504,3.7347053704232445,2,0.9920794839540152,11.00067484614826,-8.881856219084083,14.173441313585213,4,2,5,718,140,251398.0,76,68.5,0,0,0,0,0,0
