timestamp,phase,command,axis,repeat,t_send,t_since_cmd,marker_id,pos_x,pos_y,pos_z,marker_dist,tello_height_cm,tello_baro_cm,tello_battery,tello_temp_c,tello_pitch,tello_roll,tello_yaw,tello_vgx,tello_vgy,tello_vgz,tello_agx,tello_agy,tello_agz
1777582260.998084,init_hover,none,-,0,,,2,1.1512821892037293,1.1373343464023808,2.7490331842251945,2.850216077269618,130,254479.0,73,70.5,0,0,0,0,0,-1,2.0,10.0,-1000.0
1777582261.18695,init_hover,none,-,0,,,2,1.238772627836363,1.104491150921705,2.7750978227122074,2.873062490645288,130,254482.00000000003,73,70.5,0,0,0,0,0,0,0.0,26.0,-954.0
1777582261.237814,init_hover,none,-,0,,,2,1.1472472359146426,1.2142866327567345,2.7389741960579923,2.8612452036556264,130,254482.00000000003,73,70.5,0,0,0,0,0,0,0.0,26.0,-954.0
1777582261.2877812,init_hover,none,-,0,,,2,1.1573176981314437,1.1573435050025527,2.763833632951332,2.8700338662371023,130,254480.00000000003,73,70.5,0,0,0,0,0,0,18.0,-1.0,-962.0
1777582261.337606,init_hover,none,-,0,,,2,1.1839851957933896,1.1994425839192098,2.7588016119587397,2.878184381063989,130,254480.00000000003,73,70.5,0,0,0,0,0,0,18.0,-1.0,-962.0
1777582261.387327,init_hover,none,-,0,,,2,1.1461582560523158,1.2242260760053663,2.746539012049969,2.8712693020495097,130,254473.99999999997,73,70.5,0,0,0,0,0,0,24.0,-1.0,-949.0
1777582261.437533,init_hover,none,-,0,,,2,1.1200949048855227,1.1945849089864198,2.7674547556874067,2.8817692115339955,130,254473.99999999997,73,70.5,0,0,0,0,0,0,24.0,-1.0,-949.0
1777582261.48769,init_hover,none,-,0,,,2,1.2020670788840289,1.1483891012413063,2.790591645977707,2.8962594990480506,130,254481.0,73,70.5,0,-1,0,0,0,0,0.0,12.0,-991.0
1777582261.54688,init_hover,none,-,0,,,2,1.1575703310645773,1.1736969266777504,2.779616614346508,2.8895854142650887,130,254481.0,73,70.5,0,-1,0,0,0,0,0.0,12.0,-991.0
1777582261.5978189,init_hover,none,-,0,,,2,1.161195973397947,1.1794407083821872,2.7874943742920895,2.898902696958469,130,254477.0,73,70.5,0,-1,0,0,0,0,12.0,8.0,-984.0
1777582261.648559,init_hover,none,-,0,,,2,1.1515490763286336,1.239490035955608,2.7615253609347525,2.890282505584986,130,254477.0,73,70.5,0,-1,0,0,0,0,12.0,8.0,-984.0
1777582261.698594,init_hover,none,-,0,,,2,1.1201760630747186,1.2081133232217685,2.7835305532192143,2.900953596666023,130,254479.0,73,70.5,0,0,0,0,0,0,23.0,5.0,-996.0
1777582261.749195,init_hover,none,-,0,,,2,1.1510140044349417,1.24085794393033,2.761062879985373,2.8902102931515796,130,254479.0,73,70.5,0,0,0,0,0,0,23.0,5.0,-996.0
1777582261.807673,init_hover,none,-,0,,,2,1.1141880153749995,1.2678159458574674,2.7561764357369705,2.8918250230004445,130,254475.0,73,70.5,0,0,0,0,0,0,24.0,3.0,-993.0
1777582261.8577018,init_hover,none,-,0,,,2,1.14633974971439,1.2435847680634704,2.7607088018605768,2.890426209389479,130,254477.0,73,70.5,0,0,0,0,0,0,19.0,-1.0,-989.0
1777582261.908305,init_hover,none,-,0,,,2,1.1196826678937861,1.213338362484452,2.781899087990822,2.9008284624650305,130,254477.0,73,70.5,0,0,0,0,0,0,19.0,-1.0,-989.0
1777582261.958028,init_hover,none,-,0,,,2,1.2000717777139527,1.16460581012833,2.796164579250002,2.9057162826697245,130,254477.0,73,70.5,0,0,0,0,0,0,19.0,-1.0,-989.0
1777582262.006921,init_hover,none,-,0,,,2,1.1467186073138675,1.2510013454059812,2.7682539225403793,2.8998205839801723,130,254481.0,73,70.5,0,0,0,0,0,0,13.0,8.0,-976.0
1777582262.057062,init_hover,none,-,0,,,2,1.118930786050909,1.21733455483117,2.7809696972007827,2.901029603975245,130,254481.0,73,70.5,0,0,0,0,0,0,13.0,8.0,-976.0
1777582262.1075342,init_hover,none,-,0,,,2,1.135452656011546,1.3062128175955852,2.742064499615837,2.8911047737583915,130,254487.0,73,70.5,0,-1,0,0,0,0,-6.0,11.0,-987.0
1777582262.1583622,init_hover,none,-,0,,,2,1.1216371151150564,1.2223862016259144,2.7891643100597165,2.910421309863764,130,254487.0,73,70.5,0,-1,0,0,0,0,-6.0,11.0,-987.0
1777582262.209574,init_hover,none,-,0,,,2,1.1573986383791606,1.196650940783171,2.7929149061563154,2.9085736583150967,130,254484.0,73,70.5,0,-1,0,0,0,0,-18.0,24.0,-994.0
1777582262.260716,init_hover,none,-,0,,,2,1.1090408154810532,1.2831456563425694,2.7618198337016118,2.901634874270903,130,254484.0,73,70.5,0,-1,0,0,0,0,-18.0,24.0,-994.0
1777582262.311166,init_hover,none,-,0,,,2,1.1161169366406196,1.2219624926538035,2.7799534786127227,2.901249183637185,140,254478.00000000003,73,70.5,0,0,0,0,0,0,-6.0,15.0,-985.0
1777582262.362035,init_hover,none,-,0,,,2,1.1072664801912038,1.2836333373251736,2.761738528540744,2.901639824759687,140,254478.00000000003,73,70.5,0,0,0,0,0,0,-6.0,15.0,-985.0
1777582262.413227,init_hover,none,-,0,,,2,1.116404075880131,1.2282260519469053,2.7877784725562837,2.910535537328708,140,254490.0,73,70.5,0,0,0,0,0,0,2.0,18.0,-987.0
1777582262.464639,init_hover,none,-,0,,,2,1.1155998147093558,1.2284562307749383,2.7872970874834797,2.9101079185082717,140,254490.0,73,70.5,0,0,0,0,0,0,2.0,18.0,-987.0
1777582262.514982,init_hover,none,-,0,,,2,1.1067314678441438,1.2861206026468652,2.7607113314468097,2.9014011070932995,140,254490.0,73,70.5,0,0,0,0,0,0,13.0,7.0,-1013.0
1777582262.565721,init_hover,none,-,0,,,2,1.1410296173406689,1.264621986348391,2.774344395805502,2.9093723307238775,140,254490.0,73,70.5,0,0,0,0,0,0,13.0,7.0,-1013.0
1777582262.615666,init_hover,none,-,0,,,2,1.1094941051260148,1.2303816467130901,2.7871836277194126,2.91031187553541,140,254481.0,73,71.0,0,0,0,0,0,0,24.0,6.0,-1002.0
1777582262.666293,init_hover,none,-,0,,,2,1.1399461548641274,1.264860997564245,2.7740720123202753,2.909131313795879,140,254481.0,73,71.0,0,0,0,0,0,0,24.0,6.0,-1002.0
1777582262.7163131,init_hover,none,-,0,,,2,1.1126223922379586,1.2316599539023678,2.786477973031432,2.910120543267521,140,254485.0,73,71.0,0,0,0,0,0,0,17.0,7.0,-1004.0
1777582262.7675211,init_hover,none,-,0,,,2,1.0748818009690748,1.2596725722868662,2.7802294966099588,2.9110685786286026,140,254485.0,73,71.0,0,0,0,0,0,0,17.0,7.0,-1004.0
1777582262.818453,init_hover,none,-,0,,,2,1.073809552950715,1.259956397008506,2.779910171186768,2.9108200588030657,140,254481.0,73,71.0,0,0,0,0,0,0,-8.0,17.0,-994.0
1777582262.869497,init_hover,none,-,0,,,2,1.073809552950715,1.259956397008506,2.779910171186768,2.9108200588030657,140,254481.0,73,71.0,0,0,0,0,0,0,-8.0,17.0,-994.0
1777582262.919817,init_hover,none,-,0,,,2,1.0727399579072334,1.2602327415994372,2.7795991451687563,2.9105777569099422,140,254486.0,73,71.0,0,0,0,0,0,0,11.0,0.0,-984.0
1777582262.970068,init_hover,none,-,0,,,2,1.1083029719435094,1.235101397352706,2.794775208039819,2.918885462135548,140,254486.0,73,71.0,0,0,0,0,0,0,11.0,0.0,-984.0
1777582263.0203142,init_hover,none,-,0,,,2,1.071671912936333,1.2605012016560684,2.779296741422325,2.910341828383093,140,254488.0,73,71.0,0,0,0,0,0,0,-6.0,17.0,-1000.0
1777582263.069942,init_hover,none,-,0,,,2,1.107362040550545,1.2364762031220047,2.793971421239708,2.918474832655717,140,254488.0,73,71.0,0,0,0,0,0,0,-6.0,17.0,-1000.0
1777582263.120448,init_hover,none,-,0,,,2,1.0982310226406573,1.2922001918494148,2.767224013884044,2.9091578264442237,140,254484.0,73,71.0,0,0,0,0,0,0,15.0,11.0,-980.0
1777582263.1704378,init_hover,none,-,0,,,2,1.1016627050057441,1.232112041828218,2.7852963794063177,2.9087147809433898,140,254484.0,73,71.0,0,0,0,0,0,0,15.0,11.0,-980.0
1777582263.220719,init_hover,none,-,0,,,2,1.0975308134826407,1.2883115406421626,2.758098580023096,2.8992615318287616,140,254491.0,73,71.0,0,0,0,0,0,0,-3.0,13.0,-1006.0
1777582263.270854,init_hover,none,-,0,,,2,1.0681631868354975,1.260167342854726,2.7784632770683824,2.9093628614820304,140,254491.0,73,71.0,0,0,0,0,0,0,-3.0,13.0,-1006.0
1777582263.3203998,init_hover,none,-,0,,,2,1.0681631868354975,1.260167342854726,2.7784632770683824,2.9093628614820304,140,254491.0,73,71.0,0,0,0,0,0,0,-24.0,24.0,-989.0
1777582263.36891,init_hover,none,-,0,,,2,1.0991790941033384,1.2314021682176408,2.784860384797334,2.9080084973805884,140,254491.0,73,71.0,0,0,0,0,0,0,-24.0,24.0,-989.0
1777582263.418113,init_hover,none,-,0,,,2,1.1031198978803358,1.231257498485642,2.7845198525261137,2.9077781124493507,140,254487.0,73,71.0,0,0,0,0,0,0,0.0,5.0,-991.0
1777582263.468126,init_hover,none,-,0,,,2,1.1031198978803358,1.231257498485642,2.7845198525261137,2.9077781124493507,140,254487.0,73,71.0,0,0,0,0,0,0,0.0,5.0,-991.0
1777582263.518584,init_hover,none,-,0,,,2,1.1021753198798718,1.2339646678740672,2.7936217444943914,2.9172348747686985,140,254484.0,73,71.0,0,0,0,0,0,0,18.0,12.0,-1019.0
1777582263.568588,init_hover,none,-,0,,,2,1.0705901791383854,1.258973136203572,2.7779644094435985,2.908591425801415,140,254484.0,73,71.0,0,0,0,0,0,0,18.0,12.0,-1019.0
1777582263.618986,init_hover,none,-,0,,,2,1.0325704682879242,1.2837682971502025,2.761328740499388,2.899490239949119,140,254480.00000000003,73,70.5,0,0,0,0,0,0,-13.0,27.0,-1021.0
1777582263.669389,init_hover,none,-,0,,,2,1.0627933571893444,1.254733196117161,2.769192048885618,2.8987818900122675,140,254480.00000000003,73,70.5,0,0,0,0,0,0,-13.0,27.0,-1021.0
1777582263.720722,init_hover,none,-,0,,,2,1.110696562012395,1.1671257734226494,2.8112174985232703,2.9161069090645655,140,254498.0,73,70.5,0,0,0,0,0,0,-11.0,26.0,-992.0
1777582263.771631,init_hover,none,-,0,,,2,1.0322439021199599,1.2827524749776575,2.7613401590971978,2.899188002794237,140,254498.0,73,70.5,0,0,0,0,0,0,-11.0,26.0,-992.0
1777582263.8221178,init_hover,none,-,0,,,2,1.0651664233494007,1.257423887018057,2.777996896813913,2.9080387107927286,140,254485.0,73,70.5,0,0,0,0,0,0,-10.0,16.0,-986.0
1777582263.8724082,init_hover,none,-,0,,,2,1.0973026784569464,1.2282674585730624,2.7847228003777795,2.906918620998847,140,254485.0,73,70.5,0,0,0,0,0,0,-10.0,16.0,-986.0
1777582263.922718,init_hover,none,-,0,,,2,1.0702268884041302,1.1927533921055138,2.7965290527565863,2.9075702054226267,130,254481.0,73,70.5,0,0,0,0,0,0,16.0,9.0,-975.0
1777582263.973221,init_hover,none,-,0,,,2,1.0702268884041302,1.1927533921055138,2.7965290527565863,2.9075702054226267,130,254481.0,73,70.5,0,0,0,0,0,0,16.0,9.0,-975.0
1777582264.0233972,init_hover,none,-,0,,,2,1.1012492538422103,1.2281359307258057,2.784388836166891,2.906696014744836,130,254481.0,73,70.5,0,0,0,0,0,0,18.0,-5.0,-983.0
1777582264.073806,init_hover,none,-,0,,,2,1.1012492538422103,1.2281359307258057,2.784388836166891,2.906696014744836,130,254481.0,73,70.5,0,0,0,0,0,0,18.0,-5.0,-983.0
1777582264.1242292,init_hover,none,-,0,,,2,1.068955251504825,1.2570813271875574,2.777750823014497,2.907790030741799,130,254482.00000000003,73,70.5,0,0,0,0,0,0,4.0,-2.0,-1006.0
1777582264.174612,init_hover,none,-,0,,,2,1.1012492538422103,1.2281359307258057,2.784388836166891,2.906696014744836,130,254482.00000000003,73,70.5,0,0,0,0,0,0,4.0,-2.0,-1006.0
1777582264.225357,init_hover,none,-,0,,,2,1.0994756173719211,1.2272203147813787,2.784606096563861,2.9065821785490864,140,254489.0,73,70.5,0,0,0,0,0,0,-20.0,23.0,-993.0
1777582264.276872,init_hover,none,-,0,,,2,1.1090080106694773,1.1649940901221556,2.811505181436365,2.9157606365330246,140,254485.0,73,70.5,0,0,0,0,0,0,-14.0,28.0,-1011.0
1777582264.327805,init_hover,none,-,0,,,2,1.1012492538422103,1.2281359307258057,2.784388836166891,2.906696014744836,140,254485.0,73,70.5,0,0,0,0,0,0,-14.0,28.0,-1011.0
1777582264.378816,init_hover,none,-,0,,,2,1.1012492538422103,1.2281359307258057,2.784388836166891,2.906696014744836,140,254489.0,73,70.5,0,0,0,0,0,0,17.0,10.0,-990.0
1777582264.430382,init_hover,none,-,0,,,2,1.0319158368958856,1.2817470293804654,2.7613514011865163,2.8988890984825164,140,254489.0,73,70.5,0,0,0,0,0,0,17.0,10.0,-990.0
1777582264.481334,init_hover,none,-,0,,,2,1.0686763111484952,1.2521863784692373,2.769242591470451,2.8982136894603645,140,254485.0,73,70.5,0,0,0,0,0,0,14.0,1.0,-973.0
1777582264.532046,init_hover,none,-,0,,,2,1.038177450760426,1.222771301879256,2.7891839175876982,2.908256704466184,140,254485.0,73,70.5,0,0,0,0,0,0,14.0,1.0,-973.0
1777582264.5826461,init_hover,none,-,0,,,2,1.1099006815771664,1.163584080809065,2.811743527119917,2.915654381194195,140,254482.00000000003,73,70.5,0,0,0,0,0,0,-18.0,16.0,-1008.0
1777582264.633344,init_hover,none,-,0,,,2,1.070685218757399,1.1902362926875383,2.796834489981292,2.9071898738782505,140,254482.00000000003,73,70.5,0,0,0,0,0,0,-18.0,16.0,-1008.0
1777582264.683585,init_hover,none,-,0,,,2,1.098492827573271,1.2221005761957304,2.775967995974814,2.896816961622041,140,254481.0,73,70.5,0,0,0,0,0,0,4.0,17.0,-997.0
1777582264.733998,init_hover,none,-,0,,,2,1.0625829533644622,1.2503359417441104,2.7695410380804995,2.8978173512983303,140,254481.0,73,70.5,0,0,0,0,0,0,4.0,17.0,-997.0
1777582264.784724,init_hover,none,-,0,,,2,1.094036489734071,1.2774583962688175,2.74954186653862,2.887690526083574,140,254477.0,73,70.5,0,0,0,0,0,0,44.0,10.0,-969.0
1777582264.8349361,init_hover,none,-,0,,,2,1.068703673239867,1.2488630905196587,2.769579326324999,2.89756076484516,140,254477.0,73,70.5,0,0,0,0,0,0,44.0,10.0,-969.0
1777582264.885445,init_hover,none,-,0,,,2,1.100128516607241,1.2189032625940035,2.7764825844710708,2.8964605668291474,140,254478.00000000003,73,70.5,0,0,0,0,0,0,15.0,0.0,-974.0
1777582264.936279,init_hover,none,-,0,,,2,1.0645281736630927,1.2433147908388196,2.7612671905318136,2.8878954654127065,140,254478.00000000003,73,70.5,0,0,0,0,0,0,15.0,0.0,-974.0
1777582264.9861681,init_hover,none,-,0,,,2,1.0897074263174231,1.2747348801696705,2.7498875209098674,2.887055578020236,140,254478.00000000003,73,70.5,0,0,0,0,0,0,19.0,6.0,-999.0
1777582265.036268,init_hover,none,-,0,,,2,1.1062446669912034,1.1541602105688864,2.8033528655557234,2.904966926023232,140,254478.00000000003,73,70.5,0,0,0,0,0,0,19.0,6.0,-999.0
1777582265.0864809,init_hover,none,-,0,,,2,1.070064540915975,1.1844992045654843,2.7972327632453937,2.9060039872015153,140,254478.00000000003,73,70.5,0,0,0,0,0,0,-6.0,16.0,-1006.0
1777582265.1363468,init_hover,none,-,0,,,2,1.0938285445542018,1.2733921147880234,2.749910280582948,2.886801713523609,140,254478.00000000003,73,70.5,0,0,0,0,0,0,-6.0,16.0,-1006.0
1777582265.1868732,init_hover,none,-,0,,,2,1.0305411332684005,1.2688704543229226,2.7538414229021333,2.887821187280869,140,254483.0,73,70.5,0,0,0,0,0,0,-11.0,19.0,-1016.0
1777582265.236777,init_hover,none,-,0,,,2,1.0897546772878826,1.2716930951372478,2.750229333215971,2.8864625650589284,140,254483.0,73,70.5,0,0,0,0,0,0,-11.0,19.0,-1016.0
1777582265.286838,init_hover,none,-,0,,,2,1.1064138151147755,1.1505760682680894,2.803695061989529,2.9043750334501452,140,254466.0,73,70.5,0,0,0,0,0,0,-4.0,30.0,-990.0
1777582265.337035,init_hover,none,-,0,,,2,1.0337658881327032,1.2093306685859235,2.7811415686910808,2.896705834463799,140,254466.0,73,70.5,0,0,0,0,0,0,-4.0,30.0,-990.0
1777582265.386671,init_hover,none,-,0,,,2,1.1011972111911532,1.2122478791130684,2.7768907338393682,2.8950146183326066,140,254480.00000000003,73,70.5,0,0,0,0,0,0,-4.0,23.0,-994.0
1777582265.4368188,init_hover,none,-,0,,,2,1.0938278970905944,1.2703780567061884,2.7502670100459445,2.886231151937617,140,254480.00000000003,73,70.5,0,0,0,0,0,0,-4.0,23.0,-994.0
1777582265.4876301,init_hover,none,-,0,,,2,1.1011972111911532,1.2122478791130684,2.7768907338393682,2.8950146183326066,140,254475.0,73,70.5,0,0,0,0,0,0,9.0,7.0,-1000.0
1777582265.538422,init_hover,none,-,0,,,2,1.0683976097579677,1.239440221763965,2.770904456250403,2.896074865158717,140,254475.0,73,70.5,0,0,0,0,0,0,9.0,7.0,-1000.0
1777582265.588245,init_hover,none,-,0,,,2,1.1093157353286238,1.145739865919379,2.8041907396158448,2.903715478789055,140,254473.0,73,70.5,0,0,0,0,0,0,0.0,13.0,-1017.0
1777582265.638816,init_hover,none,-,0,,,2,1.035637182923749,1.13481635891273,2.800726011745468,2.8957367426960934,140,254473.0,73,70.5,0,0,0,0,0,0,0.0,13.0,-1017.0
1777582265.688494,init_hover,none,-,0,,,2,1.064322502165307,1.2318626388642655,2.762731753957261,2.8859694347908107,130,254478.00000000003,73,70.5,0,0,0,0,0,0,28.0,10.0,-993.0
1777582265.737673,init_hover,none,-,0,,,2,1.0950753792507368,1.2050430078896075,2.778319540270697,2.8941653442990427,130,254478.00000000003,73,70.5,0,0,0,0,0,0,28.0,10.0,-993.0
1777582265.787283,init_hover,none,-,0,,,2,1.0771675555491864,1.1005077687456466,2.8170635898668483,2.903878998005243,130,254469.0,73,70.5,0,0,0,0,0,0,18.0,3.0,-1000.0
1777582265.837312,init_hover,none,-,0,,,2,1.1003614273813134,1.203864719258759,2.7783124442815033,2.8940094922139488,130,254469.0,73,70.5,0,0,0,0,0,0,18.0,3.0,-1000.0
1777582265.887341,init_hover,none,-,0,,,2,1.064006296123593,1.2289500585127477,2.763139688132366,2.8855148486160975,130,254469.0,73,70.5,0,0,0,0,0,0,18.0,3.0,-1000.0
1777582265.93836,init_hover,none,-,0,,,2,1.1007775987667991,1.2030330668557987,2.7780665295694873,2.8935569587604952,130,254473.0,73,70.5,0,0,0,0,0,0,-1.0,22.0,-1004.0
1777582265.988585,init_hover,none,-,0,,,2,1.0768584835492832,1.0970060441370073,2.817490631014543,2.9034424581712903,130,254473.0,73,70.5,0,0,0,0,0,0,-1.0,22.0,-1004.0
1777582266.057457,recenter,right,-,1,,,2,1.1011443039685436,1.1982223036731368,2.7697306081991186,2.884232420992038,130,254462.0,73,70.5,0,0,0,0,0,0,19.0,7.0,-1017.0
1777582266.108421,recenter,right,-,1,,,2,1.1103037274480732,1.1335333008716142,2.796247955535205,2.8929639895116837,130,254477.0,73,70.5,0,0,0,0,0,0,-9.0,27.0,-1031.0
1777582266.1589172,recenter,right,-,1,,,2,1.1103037274480732,1.1335333008716142,2.796247955535205,2.8929639895116837,130,254477.0,73,70.5,0,0,0,0,0,0,-9.0,27.0,-1031.0
1777582266.208603,recenter,right,-,1,,,2,1.0773984077577412,1.0955958118170788,2.8178557636604227,2.9034729466167164,130,254473.99999999997,73,70.5,0,0,0,0,0,0,7.0,19.0,-1025.0
1777582266.258461,recenter,right,-,1,,,2,1.1016178426466823,1.197040827558928,2.770085936967405,2.8842635741077083,130,254473.99999999997,73,70.5,0,0,0,0,0,0,7.0,19.0,-1025.0
1777582266.307775,recenter,right,-,1,,,2,1.0697044814808194,1.1597572324665477,2.7822167646683074,2.884929789895262,130,254466.0,73,70.5,0,0,0,0,0,0,-15.0,34.0,-1018.0
1777582266.358434,recenter,right,-,1,,,2,1.110833897480537,1.132241544810359,2.796598738847374,2.8929960834573745,130,254466.0,73,70.5,0,0,0,0,0,0,-15.0,34.0,-1018.0
1777582266.4083369,recenter,right,-,1,,,2,1.0698972851144288,1.1633392704563255,2.790878821335752,2.8942316886641257,130,254473.0,73,70.5,0,0,0,0,0,0,2.0,22.0,-999.0
1777582266.4587789,recenter,right,-,1,,,2,1.0741865072221064,1.162730170577968,2.7912159183329535,2.8945029372448365,130,254473.0,73,70.5,0,0,0,0,0,0,2.0,22.0,-999.0
1777582266.510278,recenter,right,-,1,,,2,1.1552110473263502,1.1042452757013754,2.8095328172390266,2.9006079584636923,130,254477.0,73,70.5,0,0,0,0,0,0,9.0,20.0,-1001.0
1777582266.561345,recenter,right,-,1,,,2,1.1366013591500523,1.1701224257686471,2.784451895130898,2.8922172875307064,130,254477.0,73,70.5,0,0,0,0,0,0,9.0,20.0,-1001.0
1777582266.6128771,recenter,right,-,1,,,2,1.1117710156853111,1.1318917677012044,2.796912949119995,2.8932473735460684,130,254471.0,73,70.5,0,0,0,0,0,0,0.0,30.0,-974.0
1777582266.66345,recenter,right,-,1,,,2,1.1117710156853111,1.1318917677012044,2.796912949119995,2.8932473735460684,130,254471.0,73,70.5,0,0,0,0,0,0,0.0,30.0,-974.0
1777582266.713988,recenter,right,-,1,,,2,1.0680330375277434,1.2243769065100603,2.764429453067347,2.8855321830069016,130,254469.0,73,70.5,0,0,0,0,0,0,16.0,15.0,-968.0
1777582266.7650912,recenter,right,-,1,,,2,1.1053660860381351,1.1990994039629215,2.7792250695081053,2.8937439168805565,130,254469.0,73,70.5,0,0,0,0,0,0,16.0,15.0,-968.0
1777582266.81635,recenter,right,-,1,,,2,1.1119052079896528,1.1315293425560773,2.7974314345223372,2.8936621408605108,130,254469.0,73,70.5,0,0,0,0,0,0,16.0,15.0,-968.0
1777582266.867114,recenter,right,-,1,,,2,1.1119052079896528,1.1315293425560773,2.7974314345223372,2.8936621408605108,130,254471.0,73,70.5,0,0,0,0,0,0,4.0,16.0,-993.0
1777582266.918483,recenter,right,-,1,,,2,1.1378836015215383,1.1707408109181434,2.7846919066237064,2.8926739014273424,130,254473.99999999997,73,70.5,0,0,0,0,0,0,-18.0,27.0,-1014.0
1777582266.9695559,recenter,right,-,1,,,2,1.1037457681234362,1.1972804834341189,2.7706951387165524,2.8849906248332937,130,254473.99999999997,73,70.5,0,0,0,0,0,0,-18.0,27.0,-1014.0
1777582267.020263,recenter,right,-,1,,,2,1.1123363975278242,1.1325044428056947,2.797379550061212,2.893875355304765,130,254477.0,73,70.5,0,-1,0,0,0,0,-6.0,15.0,-1005.0
1777582267.071202,recenter,right,-,1,,,2,1.1578277446573273,1.1041437140142598,2.8003721288344976,2.8918526979987194,130,254477.0,73,70.5,0,-1,0,0,0,0,-6.0,15.0,-1005.0
1777582267.122266,recenter,right,-,1,,,2,1.139680631346847,1.1694727902808542,2.7754408430528335,2.883517110585939,130,254477.0,73,70.5,0,-1,0,0,0,0,-6.0,15.0,-1005.0
1777582267.173385,recenter,right,-,1,,,2,1.0728615458125412,1.1617559637923685,2.782820611163506,2.886117029357587,130,254473.0,73,70.5,0,-1,0,0,0,0,17.0,7.0,-1002.0
1777582267.224512,recenter,right,-,1,,,2,1.1582048152519422,1.1051855003177777,2.8003106422996074,2.892067607578318,130,254480.00000000003,73,70.5,0,0,0,0,0,0,-9.0,28.0,-1019.0
1777582267.274763,recenter,right,-,1,,,2,1.0733242418785403,1.1626966573988209,2.7827841390630295,2.8863420102744515,130,254480.00000000003,73,70.5,0,0,0,0,0,0,-9.0,28.0,-1019.0
1777582267.3257449,recenter,right,-,1,,,2,1.0733242418785403,1.1626966573988209,2.7827841390630295,2.8863420102744515,130,254473.0,73,70.5,0,0,0,0,0,0,5.0,14.0,-1005.0
1777582267.375249,recenter,right,-,1,,,2,1.1030708285068673,1.1991225639713239,2.770746751557008,2.8855256070949893,130,254473.0,73,70.5,0,0,0,0,0,0,5.0,14.0,-1005.0
1777582267.426551,recenter,right,-,1,,,2,1.1426236713768578,1.1712433891958547,2.7751832257387736,2.8838862344824188,130,254476.00000000003,73,70.5,0,0,0,0,0,0,24.0,0.0,-991.0
1777582267.4779048,recenter,right,-,1,,,2,1.103340104594997,1.196499255724995,2.7620791637064914,2.8764859721837213,130,254476.00000000003,73,70.5,0,0,0,0,0,0,24.0,0.0,-991.0
1777582267.528781,recenter,right,-,1,,,2,1.1077074449460822,1.200905906538935,2.770320961951051,2.885780552476429,130,254476.00000000003,73,70.5,0,0,0,0,0,0,-1.0,9.0,-1009.0
1777582267.5802188,recenter,right,-,1,,,2,1.1037376324529262,1.197435116896608,2.762034909346506,2.876717070289605,130,254476.00000000003,73,70.5,0,0,0,0,0,0,-1.0,9.0,-1009.0
1777582267.631319,recenter,right,-,1,,,2,1.0737407605690399,1.1659556215523286,2.7823225394275313,2.886770587934445,130,254480.00000000003,73,70.5,0,0,0,0,0,0,8.0,21.0,-993.0
1777582267.682165,recenter,right,-,1,,,2,1.1144106151695914,1.135667945773029,2.7875569346123616,2.8852678868706207,130,254480.00000000003,73,70.5,0,0,0,0,0,0,8.0,21.0,-993.0
1777582267.733464,recenter,right,-,1,,,2,1.0680493355463871,1.2280516860445907,2.755203302706775,2.877750084019791,130,254479.0,73,70.5,0,0,0,0,0,0,23.0,3.0,-975.0
1777582267.78447,recenter,right,-,1,,,2,1.1043560725879689,1.1996187344409504,2.761372371314498,2.8767095236422437,130,254479.0,73,70.5,0,0,0,0,0,0,23.0,3.0,-975.0
1777582267.835378,recenter,right,-,1,,,2,1.1570562799739805,1.1093617461736582,2.8001346649707384,2.8928558387836394,130,254478.00000000003,73,70.5,0,0,0,0,0,0,-13.0,41.0,-1000.0
1777582267.885868,recenter,right,-,1,,,2,1.1047435668010719,1.2005714573399162,2.7613314420511874,2.8769492880400342,130,254478.00000000003,73,70.5,0,0,0,0,0,0,-13.0,41.0,-1000.0
1777582267.936456,recenter,right,-,1,,,2,1.1018132282990112,1.2007397977129473,2.7615120860566207,2.8770643299263967,130,254475.0,73,70.5,0,0,0,0,0,0,8.0,15.0,-997.0
1777582267.9865768,recenter,right,-,1,,,2,1.1051289185536246,1.2015350894872392,2.761290578900452,2.8771924249726433,130,254475.0,73,70.5,0,0,0,0,0,0,8.0,15.0,-997.0
1777582268.035603,recenter,right,-,1,,,2,1.1005264318552952,1.2581958243535494,2.7352111058152175,2.868446518555703,130,254469.0,73,70.5,0,0,0,0,0,0,-2.0,31.0,-1006.0
1777582268.0858319,recenter,right,-,1,,,2,1.1005264318552952,1.2581958243535494,2.7352111058152175,2.868446518555703,130,254469.0,73,70.5,0,0,0,0,0,0,-2.0,31.0,-1006.0
1777582268.1361332,recenter,right,-,1,,,2,1.1056904059753716,1.2022793904910376,2.7618146365789915,2.8779233431667106,130,254469.0,73,70.5,0,0,0,0,0,0,-2.0,31.0,-1006.0
1777582268.185292,recenter,right,-,1,,,2,1.1056904059753716,1.2022793904910376,2.7618146365789915,2.8779233431667106,130,254480.00000000003,73,70.5,0,0,0,0,0,0,20.0,10.0,-990.0
1777582268.235521,recenter,right,-,1,,,2,1.070511237719005,1.2285288891697532,2.747004475028786,2.870098524556554,130,254480.00000000003,73,70.5,0,0,0,0,0,0,20.0,10.0,-990.0
1777582268.285936,recenter,right,-,1,,,2,1.070511237719005,1.2285288891697532,2.747004475028786,2.870098524556554,130,254475.0,73,70.5,0,0,0,0,0,0,8.0,22.0,-987.0
1777582268.3358898,recenter,right,-,1,,,2,1.07092377952448,1.2294931911844826,2.746973065478962,2.8703571483685337,130,254475.0,73,70.5,0,0,0,0,0,0,8.0,22.0,-987.0
1777582268.3362849,pre_hover,right,x,1,,,2,1.1078000058208048,1.2027366268124118,2.752780325467914,2.869461004015278,130,254475.0,73,70.5,0,0,0,0,0,0,8.0,22.0,-987.0
1777582268.386108,pre_hover,right,x,1,,,2,1.0717432197890426,1.2314529784549917,2.7469102369022615,2.870884357574476,130,254477.0,73,70.5,0,0,0,0,0,0,-3.0,17.0,-1002.0
1777582268.436057,pre_hover,right,x,1,,,2,1.10840707866676,1.207245052064628,2.7613564184657142,2.878973070139713,130,254477.0,73,70.5,0,0,0,0,0,0,-3.0,17.0,-1002.0
1777582268.4865851,pre_hover,right,x,1,,,2,1.1355662584517148,1.2379090267921724,2.7406069860553464,2.8690410243887716,130,254476.00000000003,73,70.5,0,0,0,0,0,0,27.0,16.0,-984.0
1777582268.536717,pre_hover,right,x,1,,,2,1.1009383988343826,1.2607372312065417,2.7268913660864325,2.8612923066301845,130,254476.00000000003,73,70.5,0,0,0,0,0,0,27.0,16.0,-984.0
1777582268.58712,pre_hover,right,x,1,,,2,1.109000447751049,1.2081503615918296,2.76186278691103,2.8797350847386802,130,254477.0,73,70.5,0,0,0,0,0,0,-7.0,25.0,-1008.0
1777582268.637228,pre_hover,right,x,1,,,2,1.1191610809989794,1.1442104059797664,2.7791505954637383,2.8795358174295846,130,254477.0,73,70.5,0,0,0,0,0,0,-7.0,25.0,-1008.0
1777582268.6873689,pre_hover,right,x,1,,,2,1.1191610809989794,1.1442104059797664,2.7791505954637383,2.8795358174295846,130,254478.00000000003,73,71.0,0,-1,0,0,0,0,1.0,30.0,-1000.0
1777582268.7380888,pre_hover,right,x,1,,,2,1.109381544220685,1.2092175380283905,2.7618179899968514,2.8800062423437693,130,254479.0,73,71.0,0,0,0,0,0,0,0.0,15.0,-990.0
1777582268.788906,pre_hover,right,x,1,,,2,1.1103281139588743,1.20664862114893,2.7529117533750975,2.8707799310643694,130,254479.0,73,71.0,0,0,0,0,0,0,0.0,15.0,-990.0
1777582268.838945,pre_hover,right,x,1,,,2,1.0739528491054362,1.2341536699744484,2.7471643309250138,2.8719667877831263,130,254481.0,73,71.0,0,0,0,0,0,0,20.0,-3.0,-971.0
1777582268.889602,pre_hover,right,x,1,,,2,1.1107021254774452,1.2077275974423896,2.752866997340724,2.8710547778304423,130,254481.0,73,71.0,0,0,0,0,0,0,20.0,-3.0,-971.0
1777582268.940223,pre_hover,right,x,1,,,2,1.0747745035692566,1.2362208514641613,2.7470986790131375,2.8725263603739477,130,254473.0,73,71.0,0,0,0,0,0,0,-11.0,20.0,-1016.0
1777582268.990923,pre_hover,right,x,1,,,2,1.1101367223862828,1.2113826265927319,2.761728918211379,2.880558710049061,130,254473.0,73,71.0,0,0,0,0,0,0,-11.0,20.0,-1016.0
1777582269.0414279,pre_hover,right,x,1,,,2,1.1101367223862828,1.2113826265927319,2.761728918211379,2.880558710049061,130,254476.00000000003,73,71.0,0,0,0,0,0,0,23.0,0.0,-986.0
1777582269.092575,pre_hover,right,x,1,,,2,1.0751832799468943,1.2372697802682697,2.7470657853422167,2.872811104046331,130,254476.00000000003,73,71.0,0,0,0,0,0,0,23.0,0.0,-986.0
1777582269.14332,pre_hover,right,x,1,,,2,1.0751832799468943,1.2372697802682697,2.7470657853422167,2.872811104046331,130,254473.99999999997,73,71.0,0,0,0,0,0,0,0.0,15.0,-979.0
1777582269.1943429,pre_hover,right,x,1,,,2,1.111731611032534,1.2133528665068796,2.761414983640799,2.8808747890588364,130,254473.99999999997,73,71.0,0,0,0,0,0,0,0.0,15.0,-979.0
1777582269.245228,pre_hover,right,x,1,,,2,1.0755897599531128,1.2383292232290803,2.747032794550083,2.8730991755703945,130,254482.00000000003,73,71.0,0,0,0,0,0,0,-6.0,24.0,-1006.0
1777582269.294865,pre_hover,right,x,1,,,2,1.1121088101441416,1.2144581676145845,2.7613722371654696,2.88116072517558,130,254482.00000000003,73,71.0,0,0,0,0,0,0,-6.0,24.0,-1006.0
1777582269.3456059,pre_hover,right,x,1,,,2,1.07599440222497,1.2393989674054726,2.746999737542824,2.873390564074304,130,254480.00000000003,73,71.0,0,0,0,0,0,0,19.0,13.0,-1012.0
1777582269.396698,pre_hover,right,x,1,,,2,1.1124837614350012,1.2155738644032383,2.761329566974135,2.8814500346752094,130,254480.00000000003,73,71.0,0,0,0,0,0,0,19.0,13.0,-1012.0
1777582269.446987,pre_hover,right,x,1,,,2,1.1116219207231866,1.2158374191875208,2.7615518587498973,2.881704151417612,140,254483.0,73,71.0,0,0,0,0,0,0,11.0,7.0,-988.0
1777582269.4983711,pre_hover,right,x,1,,,2,1.1116219207231866,1.2158374191875208,2.7615518587498973,2.881704151417612,140,254483.0,73,71.0,0,0,0,0,0,0,11.0,7.0,-988.0
1777582269.549194,pre_hover,right,x,1,,,2,1.112856495410596,1.216699695335595,2.7612870361088957,2.8817427152160313,140,254475.0,73,71.0,0,0,0,0,0,0,2.0,20.0,-990.0
1777582269.599506,pre_hover,right,x,1,,,2,1.1116219207231866,1.2158374191875208,2.7615518587498973,2.881704151417612,140,254475.0,73,71.0,0,0,0,0,0,0,2.0,20.0,-990.0
1777582269.64976,pre_hover,right,x,1,,,2,1.071578149080567,1.2993166300886325,2.72888670154291,2.8741462145196297,140,254478.00000000003,73,70.5,0,0,0,0,0,0,-16.0,30.0,-993.0
1777582269.700048,pre_hover,right,x,1,,,2,1.1119871768143765,1.216976362760842,2.761508032598895,2.881998979734207,140,254478.00000000003,73,70.5,0,0,0,0,0,0,-16.0,30.0,-993.0
1777582269.751132,pre_hover,right,x,1,,,2,1.1036195185583417,1.2727363531349756,2.7352534107583937,2.8729805025051993,140,254481.0,73,70.5,0,0,0,0,0,0,12.0,16.0,-992.0
1777582269.801879,pre_hover,right,x,1,,,2,1.078896140861434,1.2405825820009904,2.7467667573442394,2.8735920548083485,140,254481.0,73,70.5,0,0,0,0,0,0,12.0,16.0,-992.0
1777582269.851966,pre_hover,right,x,1,,,2,1.103431418323276,1.2700320129098486,2.7268369325841224,2.8641392107733026,140,254483.0,73,70.5,0,0,0,0,0,0,-17.0,13.0,-1002.0
1777582269.9021592,pre_hover,right,x,1,,,2,1.103431418323276,1.2700320129098486,2.7268369325841224,2.8641392107733026,140,254483.0,73,70.5,0,0,0,0,0,0,-17.0,13.0,-1002.0
1777582269.953521,pre_hover,right,x,1,,,2,1.0761264847243397,1.242973002313215,2.7465612661519203,2.874021139976441,140,254471.0,73,70.5,0,0,0,0,0,0,3.0,27.0,-998.0
1777582270.003826,pre_hover,right,x,1,,,2,1.0761264847243397,1.242973002313215,2.7465612661519203,2.874021139976441,140,254471.0,73,70.5,0,0,0,0,0,0,3.0,27.0,-998.0
1777582270.0540202,pre_hover,right,x,1,,,2,1.163453416838461,1.1279990553491146,2.7905335153448023,2.888559666049498,140,254482.00000000003,73,70.5,0,0,0,0,0,0,0.0,20.0,-996.0
1777582270.1045601,pre_hover,right,x,1,,,2,1.163453416838461,1.1279990553491146,2.7905335153448023,2.888559666049498,140,254482.00000000003,73,70.5,0,0,0,0,0,0,0.0,20.0,-996.0
1777582270.1546948,pre_hover,right,x,1,,,2,1.0757365221673947,1.2418749157474926,2.7465931274855295,2.8737194021869295,140,254483.0,73,70.5,0,0,0,0,0,0,8.0,16.0,-983.0
1777582270.2052622,pre_hover,right,x,1,,,2,1.1031900526423528,1.2700857038153601,2.7262438172469743,2.863582139563235,140,254483.0,73,70.5,0,0,0,0,0,0,8.0,16.0,-983.0
1777582270.25567,pre_hover,right,x,1,,,2,1.1031900526423528,1.2700857038153601,2.7262438172469743,2.863582139563235,140,254476.00000000003,73,70.5,0,0,0,0,0,0,-23.0,32.0,-1015.0
1777582270.30603,pre_hover,right,x,1,,,2,1.1031900526423528,1.2700857038153601,2.7262438172469743,2.863582139563235,140,254476.00000000003,73,70.5,0,0,0,0,0,0,-23.0,32.0,-1015.0
1777582270.3563142,pre_hover,right,x,1,,,2,1.1031900526423528,1.2700857038153601,2.7262438172469743,2.863582139563235,140,254473.99999999997,73,70.5,0,0,0,0,0,0,8.0,19.0,-1010.0
1777582270.406764,pre_hover,right,x,1,,,2,1.1031900526423528,1.2700857038153601,2.7262438172469743,2.863582139563235,140,254473.99999999997,73,70.5,0,0,0,0,0,0,8.0,19.0,-1010.0
1777582270.4576588,pre_hover,right,x,1,,,2,1.0698851541505308,1.2918324459184265,2.7117341499367913,2.855477393763939,140,254481.0,73,70.5,0,0,0,0,0,0,5.0,18.0,-995.0
1777582270.5080261,pre_hover,right,x,1,,,2,1.0698851541505308,1.2918324459184265,2.7117341499367913,2.855477393763939,140,254481.0,73,70.5,0,0,0,0,0,0,5.0,18.0,-995.0
1777582270.558537,pre_hover,right,x,1,,,2,1.1097126299044107,1.210330744086679,2.744002078661258,2.8632534263787965,140,254473.99999999997,73,70.5,0,0,0,0,0,0,5.0,21.0,-988.0
1777582270.609708,pre_hover,right,x,1,,,2,1.1097126299044107,1.210330744086679,2.744002078661258,2.8632534263787965,140,254473.99999999997,73,70.5,0,0,0,0,0,0,5.0,21.0,-988.0
1777582270.661657,pre_hover,right,x,1,,,2,1.083932457423166,1.1785937950473189,2.764335170803538,2.873117103711003,140,254479.0,73,71.5,0,0,0,0,0,0,-9.0,29.0,-1015.0
1777582270.7136362,pre_hover,right,x,1,,,2,1.0745741284727166,1.2336226278513702,2.729591470390187,2.855023219087745,140,254479.0,73,71.5,0,0,0,0,0,0,-9.0,29.0,-1015.0
1777582270.764831,pre_hover,right,x,1,,,2,1.0724370492304565,1.2877397643267963,2.7030989124538016,2.8460626742531754,140,254467.99999999997,73,71.5,0,0,0,0,0,0,20.0,2.0,-994.0
1777582270.816104,pre_hover,right,x,1,,,2,1.1021270953064553,1.2626498784255265,2.7094689370268252,2.8453148643087967,140,254467.99999999997,73,71.5,0,0,0,0,0,0,20.0,2.0,-994.0
1777582270.866174,pre_hover,right,x,1,,,2,1.0698156600880477,1.2878452070396378,2.703477118512181,2.846389268595515,140,254469.99999999997,73,71.5,0,0,0,0,0,0,-18.0,29.0,-998.0
1777582270.916512,pre_hover,right,x,1,,,2,1.069172841675221,1.2841945694220436,2.6951368160723357,2.8373134081326628,140,254469.99999999997,73,71.5,0,0,0,0,0,0,-18.0,29.0,-998.0
1777582270.9669068,pre_hover,right,x,1,,,2,1.0771541180831763,1.2301370251560582,2.721023546398146,2.8458828820816375,140,254471.99999999997,73,71.5,0,0,0,0,0,0,0.0,14.0,-999.0
1777582271.0159109,pre_hover,right,x,1,,,2,1.0724749746818316,1.2293499780896464,2.7213112357620095,2.84580548351376,140,254471.99999999997,73,71.5,0,0,0,0,0,0,0.0,14.0,-999.0
1777582271.06498,pre_hover,right,x,1,,,2,1.0710795497207461,1.282289896044201,2.694996203303053,2.8366339733684467,140,254471.99999999997,73,71.5,0,0,0,0,0,0,-4.0,22.0,-989.0
1777582271.112389,pre_hover,right,x,1,,,2,1.1254719266299948,1.286570799142079,2.689529871837769,2.834664339524409,140,254471.99999999997,73,71.5,0,0,0,0,0,0,-4.0,22.0,-989.0
1777582271.160186,pre_hover,right,x,1,,,2,1.1064489719359212,1.2004053607913572,2.726848391691441,2.843885067382287,130,254471.0,73,71.5,0,0,0,0,0,0,-16.0,15.0,-1006.0
1777582271.211343,pre_hover,right,x,1,,,2,1.1064489719359212,1.2004053607913572,2.726848391691441,2.843885067382287,130,254471.0,73,71.5,0,0,0,0,0,0,-16.0,15.0,-1006.0
1777582271.263677,pre_hover,right,x,1,,,2,1.0716438964934039,1.223665680780862,2.7125357150133946,2.8357376477425036,130,254480.00000000003,73,71.5,0,0,0,0,0,0,22.0,12.0,-996.0
1777582271.315777,pre_hover,right,x,1,,,2,1.1061113892356642,1.1992997735715023,2.72688767734046,2.843599155962075,130,254480.00000000003,73,71.5,0,0,0,0,0,0,22.0,12.0,-996.0
1777582271.366795,response,right,x,1,1777582271.366484,0.00031113624572753906,2,1.097318237253865,1.2495902234162286,2.6931123102633543,2.8256199855462976,130,254473.0,73,71.5,0,0,0,0,0,0,1.0,14.0,-993.0
1777582271.417473,response,right,x,1,1777582271.366484,0.05098915100097656,2,1.0698941899218795,1.2218703897170382,2.712277320572473,2.8349258189536926,130,254473.0,73,71.5,0,0,0,0,0,0,1.0,14.0,-993.0
1777582271.468699,response,right,x,1,1777582271.366484,0.10221505165100098,2,1.1035880285332655,1.1939964412392885,2.718223874059188,2.833708146203734,130,254467.99999999997,72,71.5,0,0,0,0,0,0,-9.0,25.0,-1021.0
1777582271.519092,response,right,x,1,1777582271.366484,0.15260815620422363,2,1.0960238545362462,1.2488338982396323,2.6928631577191333,2.8251108922733903,130,254467.99999999997,72,71.5,0,0,0,0,0,0,-9.0,25.0,-1021.0
1777582271.5691211,response,right,x,1,1777582271.366484,0.2026371955871582,2,1.1067822482935004,1.19305740142002,2.7180391979433614,2.833386590646303,130,254479.0,72,71.5,0,0,0,0,0,0,6.0,4.0,-1019.0
1777582271.619342,response,right,x,1,1777582271.366484,0.25285816192626953,2,1.0944353570271907,1.2471049301589412,2.6926520611638742,2.824337076527251,130,254479.0,72,71.5,0,0,0,0,0,0,6.0,4.0,-1019.0
1777582271.669785,response,right,x,1,1777582271.366484,0.3033010959625244,2,1.0944353570271907,1.2471049301589412,2.6926520611638742,2.824337076527251,130,254475.0,72,71.5,0,4,0,0,0,0,12.0,9.0,-984.0
1777582271.7199628,response,right,x,1,1777582271.366484,0.35347890853881836,2,1.1022936745103544,1.1874835116735047,2.7100246943768447,2.823973817359994,130,254475.0,72,71.5,0,4,0,0,0,0,12.0,9.0,-984.0
1777582271.7702599,response,right,x,1,1777582271.366484,0.4037759304046631,2,1.0965910620069106,1.2428273761157471,2.6847909350920114,2.8156331764528586,130,254469.99999999997,72,71.5,0,3,0,0,1,0,-16.0,27.0,-1002.0
1777582271.8208,response,right,x,1,1777582271.366484,0.4543161392211914,2,1.1064050246705839,1.1863727954812777,2.7111686634538725,2.824914109215083,130,254469.99999999997,72,71.5,0,3,0,0,1,0,-16.0,27.0,-1002.0
1777582271.870964,response,right,x,1,1777582271.366484,0.5044801235198975,2,1.0440705985892216,1.2368184465912924,2.690741251492505,2.8182079079973725,130,254473.99999999997,72,71.5,0,1,0,0,2,0,6.0,13.0,-1021.0
1777582271.920923,response,right,x,1,1777582271.366484,0.5544390678405762,2,1.1122159283100763,1.1834029508454098,2.7131797322241513,2.8262443024819532,130,254473.99999999997,72,71.5,0,1,0,0,2,0,6.0,13.0,-1021.0
1777582271.9703941,response,right,x,1,1777582271.366484,0.6039102077484131,2,1.0762160446341154,1.2627566211953183,2.6832049639986937,2.8195295266592373,130,254467.0,72,71.5,0,0,0,0,2,0,9.0,4.0,-1000.0
1777582272.020565,response,right,x,1,1777582271.366484,0.6540811061859131,2,1.119557569200599,1.180792821970885,2.715842156707268,2.8283794058334535,130,254467.0,72,71.5,0,0,0,0,2,0,9.0,4.0,-1000.0
1777582272.0712278,response,right,x,1,1777582271.366484,0.7047438621520996,2,1.147099759805345,1.2094636626770758,2.6963763685059923,2.819098309950708,130,254466.0,72,71.5,0,0,0,0,2,0,20.0,-7.0,-975.0
1777582272.121323,response,right,x,1,1777582271.366484,0.7548391819000244,2,1.1332981675093483,1.308950617793005,2.6494001399681713,2.8041541913224033,130,254466.0,72,71.5,0,0,0,0,2,0,20.0,-7.0,-975.0
1777582272.1713548,response,right,x,1,1777582271.366484,0.8048708438873291,2,1.1231365217173745,1.2317291200366673,2.695035375158899,2.8231456932747006,130,254464.0,72,71.5,0,0,0,0,2,0,7.0,-2.0,-998.0
1777582272.221212,response,right,x,1,1777582271.366484,0.8547279834747314,2,1.1524414903482743,1.2562531098962162,2.6776140765954084,2.815319686886096,130,254464.0,72,71.5,0,0,0,0,2,0,7.0,-2.0,-998.0
1777582272.270656,response,right,x,1,1777582271.366484,0.9041721820831299,2,1.1856557532356353,1.2350930441405512,2.6902918393348876,2.823033586741985,140,254464.0,72,71.5,0,0,0,0,2,0,-9.0,8.0,-991.0
1777582272.3206851,response,right,x,1,1777582271.366484,0.9542012214660645,2,1.2088864776791128,1.1772511898423972,2.716408674418329,2.8331306110244463,140,254464.0,72,71.5,0,0,0,0,2,0,-9.0,8.0,-991.0
1777582272.3708422,response,right,x,1,1777582271.366484,1.0043582916259766,2,1.2297930404673434,1.2087594138808835,2.695530819076208,2.8236116991501907,140,254471.99999999997,72,71.5,0,0,0,0,2,0,-7.0,15.0,-1013.0
1777582272.4214752,response,right,x,1,1777582271.366484,1.0549912452697754,2,1.2364624528489128,1.2057644487932526,2.698761179610152,2.8263904088284044,140,254471.99999999997,72,71.5,0,0,0,0,2,0,-7.0,15.0,-1013.0
1777582272.471871,response,right,x,1,1777582271.366484,1.1053869724273682,2,1.1918407150152897,1.2757999936517028,2.6762561123002717,2.822441366519855,140,254465.0,72,71.5,0,0,0,0,2,0,21.0,-2.0,-995.0
1777582272.522636,response,right,x,1,1777582271.366484,1.1561520099639893,2,1.2112766473225274,1.22246350469621,2.702834762211266,2.833090148597226,140,254465.0,72,71.5,0,0,0,0,2,0,21.0,-2.0,-995.0
1777582272.571985,response,right,x,1,1777582271.366484,1.2055010795593262,2,1.2890823091134769,1.1799971592515934,2.7119581660836376,2.8366672777170505,140,254465.0,72,71.5,0,0,0,0,2,0,21.0,-2.0,-995.0
1777582272.6219468,response,right,x,1,1777582271.366484,1.255462884902954,2,1.2576380519179033,1.2732227941590843,2.665233935351769,2.816445870984516,130,254459.0,72,71.5,0,0,0,0,1,0,10.0,0.0,-994.0
1777582272.6718059,response,right,x,1,1777582271.366484,1.3053219318389893,2,1.312202056552877,1.2075175877201354,2.694609625120086,2.830278398034901,130,254459.0,72,71.5,0,0,0,0,1,0,10.0,0.0,-994.0
1777582272.7223291,response,right,x,1,1777582271.366484,1.3558452129364014,2,1.2803397665560807,1.2180970294456266,2.6931147848599317,2.8285580034235878,130,254464.0,72,71.0,0,0,0,0,1,0,-16.0,9.0,-988.0
1777582272.7723851,response,right,x,1,1777582271.366484,1.4059011936187744,2,1.2839081820376792,1.2161070980254811,2.6953033049811492,2.830423035010459,130,254464.0,72,71.0,0,0,0,0,1,0,-16.0,9.0,-988.0
1777582272.8232892,response,right,x,1,1777582271.366484,1.4568052291870117,2,1.3089018052246497,1.238907616544998,2.678030311244574,2.823301730653839,130,254457.00000000003,72,71.0,0,0,0,0,1,0,-2.0,7.0,-989.0
1777582272.873578,response,right,x,1,1777582271.366484,1.507094144821167,2,1.3348362960300555,1.188484489416612,2.6992478725962554,2.8319184686189525,130,254457.00000000003,72,71.0,0,0,0,0,1,0,-2.0,7.0,-989.0
1777582272.9240918,response,right,x,1,1777582271.366484,1.557607889175415,2,1.3199709138097258,1.23071788556424,2.6863488186343245,2.830007697243699,130,254461.0,72,71.0,0,0,0,0,2,0,21.0,-22.0,-1007.0
1777582272.974659,response,right,x,1,1777582271.366484,1.6081750392913818,2,1.394710608359931,1.1976924977809618,2.688509894740669,2.8319949222211505,130,254461.0,72,71.0,0,0,0,0,2,0,21.0,-22.0,-1007.0
1777582273.0243998,response,right,x,1,1777582271.366484,1.6579158306121826,2,1.3925246545629406,1.2733524044536044,2.6637708967616702,2.830635161450363,130,254463.0,72,71.0,0,-1,0,0,2,0,-17.0,23.0,-984.0
1777582273.07481,response,right,x,1,1777582271.366484,1.7083261013031006,4,1.3406436636490173,1.1966970466910754,2.695356608675899,2.886940285219858,130,254467.99999999997,72,71.0,0,-6,0,0,1,0,10.0,-28.0,-1076.0
1777582273.125217,response,right,x,1,1777582271.366484,1.7587330341339111,4,1.3168022650415685,1.1272574590953566,2.7064439841814156,2.884527967687944,130,254467.99999999997,72,71.0,0,-6,0,0,1,0,10.0,-28.0,-1076.0
1777582273.175854,response,right,x,1,1777582271.366484,1.8093700408935547,4,1.3569212540661175,1.1316305520448742,2.713140089258693,2.882700588354616,130,254461.0,72,71.0,0,-3,0,0,0,0,8.0,10.0,-974.0
1777582273.226125,response,right,x,1,1777582271.366484,1.8596410751342773,4,1.3618020746138546,1.1682225514188036,2.701199604080062,2.879920447088405,130,254461.0,72,71.0,0,-3,0,0,0,0,8.0,10.0,-974.0
1777582273.2763321,response,right,x,1,1777582271.366484,1.9098482131958008,4,1.364999685183495,1.1642971652598928,2.6921222704191363,2.8696511766289743,130,254462.0,72,71.0,0,-1,0,0,0,0,32.0,0.0,-970.0
1777582273.326655,response,right,x,1,1777582271.366484,1.9601709842681885,4,1.3996411951428382,1.1740422868664804,2.703294647852153,2.875304176871224,130,254462.0,72,71.0,0,-1,0,0,0,0,32.0,0.0,-970.0
1777582273.376662,response,right,x,1,1777582271.366484,2.0101780891418457,4,1.405141281897237,1.173282971843546,2.703959794384873,2.874582059829904,130,254462.0,71,71.0,0,-1,0,0,0,0,-10.0,10.0,-1014.0
1777582273.4278731,response,right,x,1,1777582271.366484,2.061389207839966,4,1.4107075016683175,1.173209675536551,2.6934797443192844,2.8635558286842624,130,254462.0,71,71.0,0,-1,0,0,0,0,-10.0,10.0,-1014.0
1777582273.478646,response,right,x,1,1777582271.366484,2.1121621131896973,4,1.4474315679804057,1.1811602995019197,2.7058763683886777,2.870071463672433,130,254461.0,71,71.0,0,0,0,0,0,0,-8.0,31.0,-1007.0
1777582273.5306659,response,right,x,1,1777582271.366484,2.16418194770813,4,1.4517662068534256,1.183629673498596,2.7039350198804004,2.868083044277313,130,254461.0,71,71.0,0,0,0,0,0,0,-8.0,31.0,-1007.0
1777582273.581475,response,right,x,1,1777582271.366484,2.2149910926818848,4,1.4183139776244504,1.1764338723389054,2.6901105892681407,2.859703335878542,130,254459.0,71,71.0,0,0,0,0,0,0,-13.0,8.0,-989.0
1777582273.631294,response,right,x,1,1777582271.366484,2.264810085296631,4,1.4646865707454837,1.1533884631149791,2.712388549923485,2.8655202476428268,130,254459.0,71,71.0,0,0,0,0,0,0,-13.0,8.0,-989.0
1777582273.6811311,response,right,x,1,1777582271.366484,2.3146471977233887,4,1.4646865707454837,1.1533884631149791,2.712388549923485,2.8655202476428268,130,254467.0,71,70.5,0,-1,0,0,0,0,19.0,6.0,-970.0
1777582273.7314801,response,right,x,1,1777582271.366484,2.3649961948394775,4,1.4317543667679908,1.1432587211447651,2.698857353444603,2.856425675645527,130,254467.0,71,70.5,0,-1,0,0,0,0,19.0,6.0,-970.0
1777582273.78173,response,right,x,1,1777582271.366484,2.41524600982666,4,1.4332705001588426,1.1438879924363738,2.698238609477054,2.855703637451529,130,254462.0,71,70.5,0,-1,0,0,0,0,18.0,14.0,-979.0
1777582273.830653,response,right,x,1,1777582271.366484,2.4641690254211426,4,1.4328748480326057,1.1812357447279394,2.685149348801471,2.853416768052578,130,254462.0,71,70.5,0,-1,0,0,0,0,18.0,14.0,-979.0
1777582273.879906,response,right,x,1,1777582271.366484,2.5134220123291016,4,1.4760763318431525,1.1526518901833271,2.7005885007102113,2.852044727562962,130,254462.0,71,70.5,0,-1,0,0,0,0,6.0,18.0,-1009.0
1777582273.931029,response,right,x,1,1777582271.366484,2.564545154571533,4,1.48230661635664,1.1208569106884867,2.7195350318643494,2.8606838194202604,130,254462.0,71,70.5,0,-1,0,0,0,0,6.0,18.0,-1009.0
1777582273.980916,response,right,x,1,1777582271.366484,2.6144320964813232,4,1.4456323855598772,1.1145310017838592,2.7054479462321033,2.852599970942611,130,254463.0,71,70.5,0,-1,0,0,0,0,-29.0,19.0,-1006.0
1777582274.03107,response,right,x,1,1777582271.366484,2.664586067199707,4,1.5112382195860186,1.2026073739954777,2.6856977958556114,2.8453539894798765,130,254463.0,71,70.5,0,-1,0,0,0,0,-29.0,19.0,-1006.0
1777582274.0807838,response,right,x,1,1777582271.366484,2.7142999172210693,4,1.4777629273824713,1.159882519036607,2.695178602053797,2.848533078572584,130,254463.0,71,70.5,0,-1,0,0,0,0,13.0,13.0,-995.0
1777582274.130908,response,right,x,1,1777582271.366484,2.7644240856170654,4,1.5114105649223104,1.2043610534550955,2.6840667828679807,2.8442803721293366,130,254463.0,71,70.5,0,-1,0,0,0,0,13.0,13.0,-995.0
1777582274.1809862,response,right,x,1,1777582271.366484,2.814502239227295,4,1.4827734213026846,1.1600636628330134,2.6952184379571222,2.847704783430701,130,254459.0,71,70.5,0,-1,0,0,0,0,11.0,15.0,-988.0
1777582274.230659,response,right,x,1,1777582271.366484,2.8641750812530518,4,1.4881656117692836,1.1273007292831143,2.715824131440502,2.8577336308175783,130,254459.0,71,70.5,0,-1,0,0,0,0,11.0,15.0,-988.0
1777582274.280766,response,right,x,1,1777582271.366484,2.9142820835113525,4,1.5227342696735364,1.1691850964711756,2.697074781726575,2.844932454066859,130,254467.0,71,70.5,0,-1,0,0,0,0,3.0,8.0,-1001.0
1777582274.3309581,response,right,x,1,1777582271.366484,2.9644742012023926,4,1.4813776397182445,1.163041707321911,2.692871768635152,2.846534763885586,130,254467.0,71,70.5,0,-1,0,0,0,0,3.0,8.0,-1001.0
1777582274.381075,response,right,x,1,1777582271.366484,3.0145909786224365,4,1.5133801219929164,1.206844794956932,2.682250593315407,2.8429325834710846,130,254464.0,71,70.5,0,-1,0,0,0,0,10.0,23.0,-977.0
1777582274.431401,response,right,x,1,1777582271.366484,3.0649170875549316,4,1.5133801219929164,1.206844794956932,2.682250593315407,2.8429325834710846,130,254464.0,71,70.5,0,-1,0,0,0,0,10.0,23.0,-977.0
1777582274.481466,response,right,x,1,1777582271.366484,3.1149821281433105,4,1.5124632714393045,1.2042801323660526,2.6829048705842586,2.8429803266324507,130,254458.0,71,70.5,0,-1,0,0,0,0,17.0,13.0,-988.0
1777582274.531737,response,right,x,1,1777582271.366484,3.165253162384033,4,1.5124632714393045,1.2042801323660526,2.6829048705842586,2.8429803266324507,130,254458.0,71,70.5,0,-1,0,0,0,0,17.0,13.0,-988.0
1777582274.581584,response,right,x,1,1777582271.366484,3.215100049972534,4,1.5229274552594605,1.1687777105316783,2.6968667787816036,2.8445927307175993,130,254463.0,71,70.5,0,-1,0,0,0,0,0.0,23.0,-973.0
1777582274.6316102,response,right,x,1,1777582271.366484,3.2651262283325195,4,1.4842245775283145,1.1606782259235473,2.694593960998531,2.847014623157,130,254463.0,71,70.5,0,-1,0,0,0,0,0.0,23.0,-973.0
1777582274.6815848,response,right,x,1,1777582271.366484,3.315100908279419,4,1.4842245775283145,1.1606782259235473,2.694593960998531,2.847014623157,130,254465.0,71,71.5,0,-1,0,0,0,0,-5.0,18.0,-983.0
1777582274.731437,response,right,x,1,1777582271.366484,3.36495304107666,4,1.4868361404176582,1.158231829074071,2.686175177830832,2.8379199670527986,130,254465.0,71,71.5,0,-1,0,0,0,0,-5.0,18.0,-983.0
1777582274.781217,response,right,x,1,1777582271.366484,3.4147331714630127,4,1.523559701745701,1.1678943256332681,2.6975043017765503,2.84485263436323,130,254460.0,71,71.5,0,-1,0,0,0,0,22.0,13.0,-999.0
1777582274.83148,response,right,x,1,1777582271.366484,3.464996099472046,4,1.5223138819498074,1.166819529468427,2.697979474989992,2.845222217265167,130,254460.0,71,71.5,0,-1,0,0,0,0,22.0,13.0,-999.0
1777582274.8818948,response,right,x,1,1777582271.366484,3.515410900115967,4,1.488074741068015,1.1212261054352362,2.7077466192157966,2.848530554473382,130,254464.0,71,71.5,0,-1,0,0,0,0,-7.0,15.0,-1014.0
1777582274.9328032,response,right,x,1,1777582271.366484,3.566319227218628,4,1.5485082516612378,1.2099694588364382,2.685690612533516,2.841272494731267,130,254464.0,71,71.5,0,-1,0,0,0,0,-7.0,15.0,-1014.0
1777582274.9834409,response,right,x,1,1777582271.366484,3.616956949234009,4,1.5217094790442378,1.1648506501505111,2.699107202712467,2.8458633191364116,130,254462.0,71,71.5,0,-1,0,0,0,0,6.0,4.0,-984.0
1777582275.034128,response,right,x,1,1777582271.366484,3.6676440238952637,4,1.5122149039963313,1.1970205755971701,2.6771380248263865,2.835532419454921,130,254462.0,71,71.5,0,-1,0,0,0,0,6.0,4.0,-984.0
1777582275.08443,response,right,x,1,1777582271.366484,3.7179460525512695,4,1.484015550112204,1.1537541764517243,2.688943473053808,2.8398595585562156,130,254456.0,71,71.5,0,-1,0,0,0,0,-2.0,14.0,-1027.0
1777582275.135006,response,right,x,1,1777582271.366484,3.768522024154663,4,1.5466978595544196,1.2073606529888234,2.687678259572999,2.8426973953462635,130,254456.0,71,71.5,0,-1,0,0,0,0,-2.0,14.0,-1027.0
1777582275.1846972,response,right,x,1,1777582271.366484,3.8182132244110107,4,1.5194904980945583,1.1625603054856166,2.7011881269169122,2.8475963368990045,130,254457.00000000003,71,71.5,0,0,0,0,0,0,14.0,4.0,-1002.0
1777582275.234148,response,right,x,1,1777582271.366484,3.867664098739624,4,1.5123329105933445,1.1936403802673745,2.6802083850331475,2.837463872982931,130,254457.00000000003,71,71.5,0,0,0,0,0,0,14.0,4.0,-1002.0
1777582275.2844899,response,right,x,1,1777582271.366484,3.91800594329834,4,1.4482805025035814,1.1060128771516353,2.699033084077979,2.8438755555700954,130,254454.0,71,71.5,0,0,0,0,0,0,8.0,24.0,-1016.0
1777582275.334412,response,right,x,1,1777582271.366484,3.967928171157837,4,1.4785452638697527,1.1489067786728362,2.6911195749898744,2.8416370232435515,130,254454.0,71,71.5,0,0,0,0,0,0,8.0,24.0,-1016.0
1777582275.384301,response,right,x,1,1777582271.366484,4.01781702041626,4,1.4767752225493753,1.1481837243822337,2.691250694257961,2.841896084045418,130,254464.0,71,71.5,0,0,0,0,0,0,21.0,34.0,-990.0
1777582275.434171,response,right,x,1,1777582271.366484,4.067687034606934,4,1.5104051022706502,1.191052329838119,2.6821309453445847,2.8388894589962397,130,254464.0,71,71.5,0,0,0,0,0,0,21.0,34.0,-990.0
1777582275.4846468,response,right,x,1,1777582271.366484,4.1181628704071045,4,1.4735328481375471,1.1809446946704738,2.6715530526638864,2.8327085962593914,130,254464.0,71,71.5,0,0,0,0,0,0,21.0,34.0,-990.0
1777582275.534174,response,right,x,1,1777582271.366484,4.16769003868103,4,1.509006410999732,1.190361512346777,2.682873198260178,2.839639875509083,130,254454.0,71,71.5,0,0,0,0,0,0,15.0,9.0,-978.0
1777582275.584224,response,right,x,1,1777582271.366484,4.217740058898926,4,1.4779117729465001,1.1455223271323853,2.693810559589878,2.843412560294177,130,254454.0,71,71.5,0,0,0,0,0,0,15.0,9.0,-978.0
1777582275.633565,response,right,x,1,1777582271.366484,4.267081022262573,4,1.5047014785574833,1.191748054088559,2.6819588507197265,2.8399100132662722,130,254448.99999999997,71,71.5,0,0,0,0,0,0,-17.0,23.0,-982.0
1777582275.683546,response,right,x,1,1777582271.366484,4.317062139511108,4,1.4356172506563913,1.1736051775196645,2.6688499045752776,2.8354457624143246,130,254448.99999999997,71,71.5,0,0,0,0,0,0,-17.0,23.0,-982.0
1777582275.7335072,response,right,x,1,1777582271.366484,4.367023229598999,4,1.4376054144373906,1.1420508718682159,2.6888588730684293,2.8455033307992,130,254455.00000000003,71,71.5,0,0,0,0,0,0,12.0,11.0,-993.0
1777582275.783919,response,right,x,1,1777582271.366484,4.417435169219971,4,1.4759496007929993,1.148508612620593,2.693331440844337,2.8441041145353405,130,254455.00000000003,71,71.5,0,0,0,0,0,0,12.0,11.0,-993.0
1777582275.834003,response,right,x,1,1777582271.366484,4.467519044876099,4,1.506186921444781,1.1889669532334288,2.6843686314438693,2.8411538429529744,130,254448.0,71,71.5,0,0,0,0,0,0,26.0,8.0,-979.0
1777582275.8835142,response,right,x,1,1777582271.366484,4.517030239105225,4,1.4687862584996518,1.1811941490495257,2.681991589050089,2.8435068527090683,130,254448.0,71,71.5,0,0,0,0,0,0,26.0,8.0,-979.0
1777582275.9337568,response,right,x,1,1777582271.366484,4.567272901535034,4,1.4687862584996518,1.1811941490495257,2.681991589050089,2.8435068527090683,130,254446.0,71,71.5,0,0,0,0,0,0,33.0,-1.0,-965.0
1777582275.983619,response,right,x,1,1777582271.366484,4.617135047912598,4,1.472638382319924,1.1489122945725239,2.70289788278071,2.853881018105778,130,254446.0,71,71.5,0,0,0,0,0,0,33.0,-1.0,-965.0
1777582276.033563,response,right,x,1,1777582271.366484,4.667078971862793,4,1.472638382319924,1.1489122945725239,2.70289788278071,2.853881018105778,130,254455.00000000003,71,71.5,0,0,0,0,0,0,32.0,7.0,-977.0
1777582276.083211,response,right,x,1,1777582271.366484,4.716727018356323,4,1.465946126540763,1.1811735375346946,2.6817604864803877,2.8438152088961073,130,254455.00000000003,71,71.5,0,0,0,0,0,0,32.0,7.0,-977.0
1777582276.132454,response,right,x,1,1777582271.366484,4.76596999168396,4,1.5056518425865713,1.1870087780357248,2.685603129217357,2.84187034980581,130,254458.0,71,71.5,0,0,0,0,0,0,19.0,-8.0,-970.0
1777582276.182206,response,right,x,1,1777582271.366484,4.8157219886779785,4,1.4727882214601644,1.1428480592812007,2.695415750762098,2.845178653101662,130,254458.0,71,71.5,0,0,0,0,0,0,19.0,-8.0,-970.0
1777582276.233103,response,right,x,1,1777582271.366484,4.866619110107422,4,1.4370115455740717,1.133800753403008,2.6925331875991114,2.8469553055561563,130,254455.00000000003,71,71.5,0,-1,0,0,0,0,-2.0,7.0,-975.0
1777582276.2829921,response,right,x,1,1777582271.366484,4.916508197784424,4,1.4669254591979346,1.17819503921769,2.683660565342196,2.844607181156504,130,254455.00000000003,71,71.5,0,-1,0,0,0,0,-2.0,7.0,-975.0
1777582276.331987,response,right,x,1,1777582271.366484,4.965502977371216,4,1.5042287285592812,1.1862928619077475,2.6863652951329446,2.8426403425631843,130,254462.0,71,71.5,0,-1,0,0,0,0,-15.0,27.0,-1005.0
1777582276.3830001,response,right,x,1,1777582271.366484,5.016516208648682,4,1.4712874301736014,1.1421447102471296,2.696100801485756,2.8459225717177143,130,254462.0,71,71.5,0,-1,0,0,0,0,-15.0,27.0,-1005.0
1777582276.433959,response,right,x,1,1777582271.366484,5.067475080490112,4,1.4313208906128607,1.135033140921918,2.6920673022115498,2.847963484201204,130,254457.00000000003,70,71.5,0,-1,0,0,0,0,-12.0,13.0,-1020.0
1777582276.492532,response,right,x,1,1777582271.366484,5.1260480880737305,4,1.46977902335526,1.1414370231942899,2.696789059642386,2.8466707529400335,130,254460.0,70,71.5,0,-1,0,0,0,0,11.0,3.0,-1014.0
1777582276.542927,response,right,x,1,1777582271.366484,5.176443099975586,4,1.464651363173842,1.172801507925525,2.6764351280118857,2.836745552223461,130,254460.0,70,71.5,0,-1,0,0,0,0,11.0,3.0,-1014.0
1777582276.5941389,response,right,x,1,1777582271.366484,5.227654933929443,4,1.4682624928679373,1.1407244750149705,2.697480712821281,2.8474233475934048,130,254450.0,70,71.5,0,-1,0,0,0,0,9.0,12.0,-1002.0
1777582276.6441119,response,right,x,1,1777582271.366484,5.277627944946289,4,1.4632012382568145,1.1721145809403781,2.677148366030623,2.8375054555806916,130,254450.0,70,71.5,0,-1,0,0,0,0,9.0,12.0,-1002.0
1777582276.694025,response,right,x,1,1777582271.366484,5.32754111289978,4,1.4710674048448507,1.1365787974032142,2.6905286978289706,2.839236286194367,130,254450.0,70,71.5,0,-1,0,0,0,0,9.0,12.0,-1002.0
1777582276.743343,response,right,x,1,1777582271.366484,5.376859188079834,4,1.4617427728935835,1.1714231446605772,2.6778649247724147,2.838269731011602,130,254453.00000000003,70,71.5,0,-1,0,0,0,0,-18.0,29.0,-1007.0
1777582276.79299,response,right,x,1,1777582271.366484,5.426506042480469,4,1.5015120276216063,1.177337402004077,2.682256068737747,2.836765995538025,130,254455.00000000003,70,71.5,0,-1,0,0,0,0,-12.0,20.0,-1002.0
1777582276.843508,response,right,x,1,1777582271.366484,5.477024078369141,4,1.4973300154632767,1.178337710547146,2.6811729087784744,2.836754284703126,130,254455.00000000003,70,71.5,0,-1,0,0,0,0,-12.0,20.0,-1002.0
1777582276.894038,response,right,x,1,1777582271.366484,5.527554035186768,4,1.4309739837220263,1.1250314051877925,2.678973096578981,2.8330827728648766,130,254463.0,70,71.5,0,-1,0,0,0,0,19.0,-1.0,-971.0
1777582276.944712,response,right,x,1,1777582271.366484,5.578227996826172,4,1.4292152079990241,1.1243613152679877,2.6791127505012495,2.8333972054293306,130,254463.0,70,71.5,0,-1,0,0,0,0,19.0,-1.0,-971.0
1777582276.99541,response,right,x,1,1777582271.366484,5.628926038742065,4,1.460960122690087,1.1626507096989662,2.6728467204193262,2.8313088290031123,130,254448.99999999997,70,71.5,0,0,0,0,0,0,-2.0,12.0,-1003.0
1777582277.0452821,response,right,x,1,1777582271.366484,5.678798198699951,4,1.4276696347174438,1.1236859057366677,2.6797547535641972,2.83414341140957,130,254448.99999999997,70,71.5,0,0,0,0,0,0,-2.0,12.0,-1003.0
1777582277.09626,response,right,x,1,1777582271.366484,5.72977614402771,4,1.4577855970005222,1.1942373024792112,2.6534153062523242,2.822307945445296,130,254450.0,70,71.5,0,0,0,0,0,0,21.0,16.0,-988.0
1777582277.146198,response,right,x,1,1777582271.366484,5.779714107513428,4,1.4610944575963045,1.1640227678181607,2.6741248756833556,2.8328596548587552,130,254450.0,70,71.5,0,0,0,0,0,0,21.0,16.0,-988.0
1777582277.197707,response,right,x,1,1777582271.366484,5.831223011016846,4,1.4604950821190048,1.1589446887240114,2.6660609310273857,2.823994243073235,130,254458.0,70,71.5,0,0,0,0,0,0,-5.0,32.0,-1012.0
1777582277.2478578,response,right,x,1,1777582271.366484,5.881373882293701,4,1.5021219431449193,1.1339663784352232,2.6900842509825633,2.8325152217694307,130,254458.0,70,71.5,0,0,0,0,0,0,-5.0,32.0,-1012.0
1777582277.29732,response,right,x,1,1777582271.366484,5.930835962295532,4,1.4590073073084118,1.158221296049901,2.666796736445092,2.82477918797974,130,254448.99999999997,70,71.5,0,0,0,0,0,0,9.0,7.0,-1004.0
1777582277.347671,response,right,x,1,1777582271.366484,5.981187105178833,4,1.4273594920522392,1.1139028117967882,2.675313774993666,2.82752155972415,130,254448.99999999997,70,71.5,0,0,0,0,0,0,9.0,7.0,-1004.0
1777582277.397665,response,right,x,1,1777582271.366484,6.03118109703064,4,1.4584041589827752,1.156184494061184,2.6680690902048276,2.8255501613264875,130,254446.0,70,71.5,0,0,0,0,0,0,5.0,24.0,-1003.0
1777582277.447784,response,right,x,1,1777582271.366484,6.0813000202178955,4,1.4584041589827752,1.156184494061184,2.6680690902048276,2.8255501613264875,130,254446.0,70,71.5,0,0,0,0,0,0,5.0,24.0,-1003.0
