timestamp,elapsed,target_x,target_y,target_z,pos_x,pos_y,pos_z,marker_id,publish_count,err_x_cm,err_y_cm,err_z_cm,err_3d_cm,cmd_lr,cmd_fb,cmd_ud,vel_x_pub,vel_y_pub,vel_z_pub,tello_height_cm,tello_baro_cm,tello_battery,tello_temp_c,tello_pitch,tello_roll,tello_yaw,tello_vgx,tello_vgy,tello_vgz
1778078473.1194391,8.106231689453125e-06,-0.020322823602849833,1.9255163064011604,3.16372888718475,-0.0883917933328656,1.8250855850243515,3.128061552617124,1,0,6.806896973001578,10.043072137680898,3.5667334567626163,12.64589782954576,30,-19,30,0.0,0.0,0.0,160,247944.99999999997,76,62.5,-1,0,4,0,0,0
1778078473.191496,0.07206487655639648,-0.020322823602849833,1.9255163064011604,3.16372888718475,-0.0883917933328656,1.8250855850243515,3.128061552617124,1,3,6.806896973001578,10.043072137680898,3.5667334567626163,12.64589782954576,4,-2,7,0.0,0.0,0.0,160,247944.99999999997,76,62.5,-1,0,4,0,0,0
1778078473.2616398,0.14220881462097168,-0.020322823602849833,1.9255163064011604,3.16372888718475,-0.06381623679691892,1.9584927919158162,3.085668216308067,1,7,4.349341319406909,-3.2976485514655707,7.806067087668289,9.525016496513866,-6,-19,-30,0.3503589506668729,1.901906430868605,-0.6043763364131197,160,247948.0,76,62.5,-1,0,4,0,0,0
1778078473.3319411,0.2125101089477539,-0.020322823602849833,1.9255163064011604,3.16372888718475,-0.06381623679691892,1.9584927919158162,3.085668216308067,1,10,4.349341319406909,-3.2976485514655707,7.806067087668289,9.525016496513866,2,-4,-2,0.0,0.0,0.0,160,247948.0,76,62.5,0,0,4,0,0,0
1778078473.4008791,0.2814481258392334,-0.020322823602849833,1.9255163064011604,3.16372888718475,-0.06875280396744027,1.9590724527586372,3.085161093871148,1,14,4.8429980364590435,-3.3556146357476724,7.8567793313601975,9.820578446633322,4,-5,-2,-0.07160877833623168,0.008408435127072261,-0.007356208660852291,160,247948.0,76,62.5,0,0,4,0,0,0
1778078473.471355,0.35192394256591797,-0.020322823602849833,1.9255163064011604,3.16372888718475,-0.08926027784657943,1.819303126444785,3.1064516670204423,1,17,6.89374542437296,10.621317995637547,5.72772201643077,13.897586892623584,11,3,30,-0.29098596982096875,-1.9832239313507767,0.30209757244619395,160,247940.0,76,62.5,0,0,4,0,0,0
1778078473.542088,0.4226570129394531,-0.020322823602849833,1.9255163064011604,3.16372888718475,-0.09077825418719729,1.8179494833518723,3.1061803583336323,1,21,7.045543058434746,10.75668230492881,5.754852885111772,14.087733065568283,4,-3,8,-0.02146063125213648,-0.01913734390100934,-0.003835669586761411,160,247946.99999999997,75,62.5,0,0,4,0,0,0
1778078473.612237,0.49280595779418945,-0.020322823602849833,1.9255163064011604,3.16372888718475,-0.005162917141129968,1.8826732827392119,3.0886329917561066,1,24,-1.5159906461719865,4.284302366194859,7.509589542864337,8.777665379049331,-30,-10,-19,1.2204793275701955,0.9226624794053404,-0.25014441220552275,160,247946.99999999997,75,62.5,0,0,4,0,0,0
1778078473.684466,0.5650348663330078,-0.020322823602849833,1.9255163064011604,3.16372888718475,-0.05122523653830618,2.0616897978622117,3.0431288642176884,1,28,3.0902412935456347,-13.617349146105129,12.060002296706163,18.45062178940923,18,-23,-30,-0.63772692027349,2.4784607540731436,-0.6299988253866904,160,247946.99999999997,75,62.5,0,0,4,0,0,0
1778078473.756096,0.636664867401123,-0.020322823602849833,1.9255163064011604,3.16372888718475,-0.06374870550830182,1.9511751638228132,3.064400427998695,1,31,4.342588190545199,-2.5658857421652748,9.932845918605482,11.140164714997137,7,1,30,-0.17483552677999656,-1.5428540051857138,0.2969644487479346,160,247941.0,75,62.5,0,0,4,0,0,0
1778078473.825964,0.7065329551696777,-0.020322823602849833,1.9255163064011604,3.16372888718475,-0.006940771516536537,1.8796902262327522,3.077627127278695,1,35,-1.3382052086313294,4.582608016840828,8.610175990605518,9.845111477561925,-20,0,29,0.8130741201898566,-1.023141463766152,0.18930959329836622,160,247941.0,75,62.5,0,0,4,0,0,0
1778078473.896333,0.7769019603729248,-0.020322823602849833,1.9255163064011604,3.16372888718475,-0.0007649629132105711,1.8792913677560628,3.077745836095665,1,38,-1.9557860689639261,4.622493864509769,8.59830510890851,9.956073494147482,-3,-5,3,0.08776319326226587,-0.005668098838933244,0.00168694749381781,160,247942.99999999997,75,63.0,0,-2,4,0,0,0
1778078473.966275,0.846843957901001,-0.020322823602849833,1.9255163064011604,3.16372888718475,-0.06398996758909364,1.9502509302277045,3.064462083556553,1,42,4.3667143986243815,-2.473462382654401,9.926680362819695,11.123182720028923,25,-11,-26,-0.9039633826658044,1.0145486971995197,-0.1899252667723634,160,247942.99999999997,75,63.0,0,-1,4,0,0,0
1778078474.036361,0.9169299602508545,-0.020322823602849833,1.9255163064011604,3.16372888718475,-0.06196886863193993,1.9457784570504035,3.0544710309768464,1,45,4.16460450290901,-2.0262150649243083,10.925785620790363,11.866855926758598,2,-10,0,0.028837412455982953,-0.06381407167404628,-0.14255417978947624,160,247942.99999999997,75,63.0,0,-1,4,0,0,0
1778078474.106632,0.9872009754180908,-0.020322823602849833,1.9255163064011604,3.16372888718475,-0.0008638658057051518,2.00016392702826,3.04533401185203,1,49,-1.9458957797144683,-7.464762062709962,11.839487533271997,14.130911084883646,-22,-11,-24,0.8695619763114625,0.7739388686562424,-0.13002543229340535,160,247942.99999999997,75,63.0,0,-1,4,0,0,0
1778078474.1769128,1.0574817657470703,-0.020322823602849833,1.9255163064011604,3.16372888718475,-0.00017880236028839432,1.8790168608737008,3.0776669867987465,1,53,-2.0144021242561436,4.649944552745966,8.606190038600348,9.987307306893255,-1,5,30,0.00974752051321596,-1.7237578801757676,0.46005423096934583,160,247942.99999999997,75,63.0,0,-1,4,0,0,0
1778078474.2483919,1.1289608478546143,-0.020322823602849833,1.9255163064011604,3.16372888718475,-0.1387425372701332,1.8965107516654829,3.057362229563239,1,56,11.841971366728336,2.9005554735677563,10.636665762151098,16.17974556170075,30,-14,-4,-1.9385214642427635,0.24474140232329286,-0.2840657243605613,160,247956.0,75,63.0,0,0,4,0,0,0
1778078474.31851,1.1990790367126465,-0.020322823602849833,1.9255163064011604,3.16372888718475,-0.005028145443519631,1.8792376921520009,3.0773945478543174,1,60,-1.5294678159330202,4.627861424915958,8.633433933043255,9.91426016626671,-30,1,9,1.906985819290685,-0.24634206608580048,0.285693606998859,160,247956.0,75,63.0,0,0,4,0,0,0
1778078474.388993,1.269562005996704,-0.020322823602849833,1.9255163064011604,3.16372888718475,-0.005028145443519631,1.8792376921520009,3.0773945478543174,1,63,-1.5294678159330202,4.627861424915958,8.633433933043255,9.91426016626671,0,-6,3,0.0,0.0,0.0,160,247956.0,75,63.0,0,0,4,0,0,0
1778078474.462823,1.3433918952941895,-0.020322823602849833,1.9255163064011604,3.16372888718475,-0.057970155258895685,1.9456457176709492,3.0539536019146274,1,67,3.764733165604585,-2.0129411269788733,10.97752852701226,11.778424357708209,20,-15,-24,-0.7170809860225439,0.8994734537846608,-0.31749940522379244,160,247953.00000000003,75,63.0,0,-1,4,0,0,0
1778078474.5336,1.4141690731048584,-0.020322823602849833,1.9255163064011604,3.16372888718475,-0.057970155258895685,1.9456457176709492,3.0539536019146274,1,70,3.764733165604585,-2.0129411269788733,10.97752852701226,11.778424357708209,2,-7,-1,0.0,0.0,0.0,160,247946.0,75,63.0,0,0,4,0,0,0
1778078474.605143,1.4857120513916016,-0.020322823602849833,1.9255163064011604,3.16372888718475,-0.1379926414456183,1.9010983423364785,3.067471979751863,1,74,11.766981784276846,2.4417964064681996,9.625690743288695,15.39734237742273,30,-2,17,-1.1185232723467804,-0.6226659331391758,0.18895464182458532,160,247954.0,75,63.0,0,1,4,0,0,0
1778078474.675393,1.555962085723877,-0.020322823602849833,1.9255163064011604,3.16372888718475,-0.08102673123917456,1.812772249596176,3.0960663881497097,1,77,6.070390763632473,11.274405680498445,6.766249903504029,14.482541393979107,-16,4,30,0.8109022400900314,-1.2573103142203343,0.4070376430365581,160,247948.0,75,63.0,0,1,4,0,0,0
1778078474.74611,1.6266789436340332,-0.020322823602849833,1.9255163064011604,3.16372888718475,-0.1086385138013782,2.011431559762145,3.0391766226487915,1,81,8.831569019852838,-8.59152533609846,12.455226453595847,17.519805505872487,15,-28,-30,-0.3904554497780943,2.8092213941173694,-0.8044724720828943,160,247948.0,75,63.0,0,1,4,0,0,0
1778078474.81902,1.6995890140533447,-0.020322823602849833,1.9255163064011604,3.16372888718475,-0.1086385138013782,2.011431559762145,3.0391766226487915,1,85,8.831569019852838,-8.59152533609846,12.455226453595847,17.519805505872487,5,-8,-5,0.0,0.0,0.0,160,247960.0,75,63.0,0,0,4,0,0,0
1778078474.892838,1.773406982421875,-0.020322823602849833,1.9255163064011604,3.16372888718475,-0.22226244958915622,1.8595635689260803,3.0759801452223403,1,88,20.193962598630637,6.5952737475080125,8.774874196240967,22.98460742321515,30,6,30,-1.5392449602584517,-2.0573309479052035,0.4985713287286663,160,247954.0,75,62.5,0,0,4,0,0,0
1778078474.964349,1.8449180126190186,-0.020322823602849833,1.9255163064011604,3.16372888718475,-0.08102673123917456,1.812772249596176,3.0960663881497097,1,92,6.070390763632473,11.274405680498445,6.766249903504029,14.482541393979107,-30,1,24,1.9750200488039285,-0.654323105133694,0.28088314308988527,160,247954.0,75,62.5,0,0,4,0,0,0
1778078475.0356932,1.916262149810791,-0.020322823602849833,1.9255163064011604,3.16372888718475,-0.13773239676190516,1.9017109024248697,3.078831774847532,1,95,11.740957315905533,2.3805403976290718,8.489711233721797,14.683059902848647,27,-12,-29,-0.794818856247518,1.2466147370964393,-0.24157014129768198,160,247944.99999999997,75,62.5,0,0,4,0,0,0
1778078475.107506,1.9880750179290771,-0.020322823602849833,1.9255163064011604,3.16372888718475,-0.13832123491072873,1.901161289637802,3.078727259401927,1,99,11.79984113078789,2.4355016763358384,8.500162778282316,14.745191975168193,8,-6,2,-0.008199618874066854,-0.007653402537305355,-0.001455386037959647,160,247965.0,75,62.5,0,-1,4,0,0,0
1778078475.1798668,2.0604357719421387,-0.020322823602849833,1.9255163064011604,3.16372888718475,-0.17909243312988665,1.9782347111903025,3.060290510914554,1,103,15.876960952703682,-5.271840478914203,10.343837627019603,19.66888832605804,24,-14,-30,-0.5634435237062136,1.0651273968011474,-0.25478933627536454,160,247958.0,75,62.5,0,0,4,0,0,0
1778078475.2506628,2.1312317848205566,-0.020322823602849833,1.9255163064011604,3.16372888718475,-0.25189724248231493,1.9463563095468934,3.055871378771065,1,106,23.157441887946508,-2.0840003145732977,10.785750841368502,25.630891387480897,30,-9,9,-1.0283744294676613,-0.45028526815705916,-0.062420635906123956,160,247958.0,75,62.5,0,0,4,0,0,0
1778078475.3235352,2.20410418510437,-0.020322823602849833,1.9255163064011604,3.16372888718475,,,,,110,,,,,0,0,0,,,,160,247952.0,75,62.5,0,0,4,0,0,0
1778078475.393934,2.274502992630005,-0.020322823602849833,1.9255163064011604,3.16372888718475,-0.251310813848244,1.9427708996529462,3.0682508929981855,1,113,23.098799024539414,-1.72545932517858,9.547799418656444,25.05378614097688,15,-5,0,0.004093136667423709,-0.025025334460192443,0.08640615526593051,160,247952.0,75,62.5,0,0,4,0,0,0
1778078475.463933,2.3445019721984863,-0.020322823602849833,1.9255163064011604,3.16372888718475,-0.31909324614260426,2.236597383997325,2.9438357597571367,1,117,29.877042253975443,-31.108107759616477,21.989312742761324,48.41365403611579,30,-30,-30,-0.9683345773354783,4.197582395567959,-1.7773849562954116,160,247952.0,75,62.5,0,0,4,0,0,0
1778078475.5354729,2.416041851043701,-0.020322823602849833,1.9255163064011604,3.16372888718475,-0.31170526134499354,2.2318494937205084,2.9465718090267514,1,120,29.138243774214374,-30.6333187319348,21.715707815799856,47.5290377844854,16,-13,-19,0.10327085978990137,-0.0663670438566076,0.03824509230067966,160,247956.0,75,62.5,0,0,4,0,0,0
1778078475.605866,2.4864349365234375,-0.020322823602849833,1.9255163064011604,3.16372888718475,,,,,124,,,,,0,0,0,,,,160,247959.0,74,62.5,0,0,4,0,0,0
1778078475.676419,2.556988000869751,-0.020322823602849833,1.9255163064011604,3.16372888718475,-0.06323923501419959,1.9596519137137598,3.10727957531278,1,128,4.291641141134976,-3.4135607312599348,5.644931187196978,7.869931934805488,-30,22,30,1.762843657932061,-1.9312168536897545,1.1402068554860703,160,247954.0,74,62.5,0,0,4,0,0,0
1778078475.749129,2.6296980381011963,-0.020322823602849833,1.9255163064011604,3.16372888718475,-0.14284607812190492,1.9106222201513186,3.121961512679296,1,131,12.25232545190551,1.4894086249841898,4.176737450545387,13.030078770382673,30,0,17,-1.0948535599604579,-0.6743180918251147,0.20192449248487426,160,247954.0,74,62.5,0,0,4,0,0,0
1778078475.819641,2.7002100944519043,-0.020322823602849833,1.9255163064011604,3.16372888718475,-0.0024797405332254697,1.8887300294803708,3.1320078806787754,1,135,-1.7843083069624364,3.678627692078962,3.1721006505974536,5.174773460620874,-30,0,10,1.9906714518512272,-0.31047443237312283,0.142477308412499,160,247966.0,74,62.5,0,1,4,0,0,0
1778078475.88933,2.7698988914489746,-0.020322823602849833,1.9255163064011604,3.16372888718475,-0.06819471986411707,1.961959282838039,3.118200076221766,1,138,4.787189626126724,-3.644297643687855,4.552881096298389,7.544986156999586,28,-9,-29,-0.9429776687586418,1.0508038094092325,-0.19813521042112162,160,247954.0,74,64.0,0,0,4,0,1,0
1778078475.95947,2.840039014816284,-0.020322823602849833,1.9255163064011604,3.16372888718475,-0.05149471577853533,2.0718159426571314,3.0860267563959196,1,142,3.1171892175685496,-14.629963625597098,7.770213078883037,16.856123979007297,-2,-18,-30,0.2380948775656868,1.5662456030166276,-0.45870064495554624,160,247954.0,74,64.0,0,0,4,0,1,0
1778078476.029866,2.9104349613189697,-0.020322823602849833,1.9255163064011604,3.16372888718475,-0.08656849165490756,1.821647627475024,3.1625829964643875,1,145,6.624566805205773,10.38686789261365,0.11458907203625301,12.320107167986514,18,25,30,-0.49823573115867104,-3.5537318213707625,1.0875092085813107,160,247958.0,74,64.0,-1,-1,4,0,1,0
1778078476.099412,2.979980945587158,-0.020322823602849833,1.9255163064011604,3.16372888718475,0.00426455755505527,2.0199217701979335,3.120959751325075,1,149,-2.4587381157905104,-9.440546379677306,4.27691358596749,10.651821388415817,-30,-19,-30,1.3060861840661506,2.8509790293327337,-0.5984996197451411,170,247948.0,74,64.0,-1,-1,4,0,0,0
1778078476.170329,3.0508980751037598,-0.020322823602849833,1.9255163064011604,3.16372888718475,-0.06219714250115156,1.9650870159744502,3.1419101843768957,1,152,4.187431889830173,-3.9570709573289786,2.181870280785425,6.16064560865806,27,3,16,-0.9371741426822454,-0.7732229800791156,0.2954213346567587,170,247948.0,74,64.0,-1,-1,4,0,0,0
1778078476.2412648,3.1218338012695312,-0.020322823602849833,1.9255163064011604,3.16372888718475,-0.11671159854730717,2.031795642879514,3.114541655721378,1,156,9.638877494445735,-10.627933647835341,4.918723146337189,15.167556506109886,26,-14,-30,-0.7685049409201705,0.9404094454347385,-0.38582150539432614,170,247963.0,74,64.0,0,0,4,0,0,0
1778078476.312264,3.1928329467773438,-0.020322823602849833,1.9255163064011604,3.16372888718475,-0.11671159854730717,2.031795642879514,3.114541655721378,1,159,9.638877494445735,-10.627933647835341,4.918723146337189,15.167556506109886,7,-5,-7,0.0,0.0,0.0,170,247963.0,74,64.0,0,0,4,0,0,0
1778078476.3839328,3.2645018100738525,-0.020322823602849833,1.9255163064011604,3.16372888718475,0.0012018796040677133,2.02253515809363,3.1330719986624005,1,163,-2.1524703206917546,-9.701885169246971,3.065688852234949,10.399911175458703,-30,2,-4,1.6452539181979577,-0.1292121063448597,0.25855499987991404,170,247964.0,74,64.0,-1,0,4,0,0,0
1778078476.454907,3.3354759216308594,-0.020322823602849833,1.9255163064011604,3.16372888718475,-0.06659388905580044,1.9668352465072414,3.1543875453437535,1,166,4.627106545295061,-4.131894010608095,0.9341341840996442,6.273377859679341,28,4,16,-0.9552182785044683,-0.7847919525086307,0.30032847490077097,170,247967.99999999997,74,64.0,-1,0,4,0,0,0
1778078476.524759,3.4053280353546143,-0.020322823602849833,1.9255163064011604,3.16372888718475,-0.00041374768179148856,2.0193834395929113,3.134483955003151,1,170,-1.9909075921058346,-9.386713319175088,2.924493218159885,10.031289077668275,-22,-11,-26,0.9474321941886035,0.7522777806478842,-0.28493898437082965,170,247966.0,74,64.0,0,0,4,0,0,0
1778078476.595398,3.4759669303894043,-0.020322823602849833,1.9255163064011604,3.16372888718475,-0.004462447986353277,2.021297696971342,3.145956082579216,1,173,-1.5860375616496554,-9.578139057018165,1.7772804605534098,9.869903179768551,2,0,-8,-0.05731545351279606,0.02709919765149185,0.16240525238134976,170,247964.0,74,64.0,0,0,4,0,1,0
1778078476.6671941,3.5477631092071533,-0.020322823602849833,1.9255163064011604,3.16372888718475,0.00036176660106457416,2.0174003615010645,3.1356783426948827,1,177,-2.0684590203914404,-9.188405509990405,2.8050544489867324,9.827189272464484,0,-7,-5,0.0671931942180917,-0.05428332725298356,-0.14315162803333517,170,247964.0,74,64.0,0,0,4,0,1,0
1778078476.7377741,3.6183431148529053,-0.020322823602849833,1.9255163064011604,3.16372888718475,-4.6581215544109654e-05,2.020607774548088,3.1470032015123066,1,181,-2.027624238730572,-9.509146814692748,1.672568567244337,9.86572951225619,0,0,-8,-0.0057856019261066935,0.0454436496239708,0.16045420673759286,170,247957.00000000003,74,64.0,0,0,4,0,1,0
1778078476.809344,3.689913034439087,-0.020322823602849833,1.9255163064011604,3.16372888718475,0.06932550996546495,1.9605229874027557,3.157347250885551,1,184,-8.964833356831479,-3.500668100159521,0.6381636299198856,9.645214724503822,-27,0,17,0.9692911712367367,-0.8395257042727367,0.1445306831844155,170,247964.0,74,64.0,0,0,4,0,1,0
1778078476.8796318,3.7602007389068604,-0.020322823602849833,1.9255163064011604,3.16372888718475,0.0011193905624302593,2.0176476603984876,3.148885208904458,1,188,-2.1442214165280093,-9.21313539973272,1.4843678280291872,9.575118653353265,24,-6,-27,-0.9703847909033203,0.8127263997065569,-0.12039149727777523,170,247964.0,74,64.0,0,0,4,0,1,0
1778078476.9490712,3.8296401500701904,-0.020322823602849833,1.9255163064011604,3.16372888718475,0.0067221194706031115,2.014689076302165,3.150009472469542,1,191,-2.7044943073452945,-8.917276990100476,1.371941471520799,9.41882910864812,-1,-2,-6,0.08068514427627477,-0.04260669908855478,0.016190568817461254,170,247971.0,74,63.5,0,-1,4,0,1,0
1778078477.021276,3.9018449783325195,-0.020322823602849833,1.9255163064011604,3.16372888718475,0.0018641932441506646,2.0149846242300993,3.1505881312259607,1,195,-2.21870168470005,-8.946831782893883,1.3140755958789274,9.311027375578677,2,-2,-7,-0.06727979753380202,0.004093187880183133,0.00801412828400306,170,247961.0,74,63.5,0,-1,4,0,0,0
1778078477.090709,3.971277952194214,-0.020322823602849833,1.9255163064011604,3.16372888718475,0.060725341535003544,2.0722924107971505,3.1387147042265946,1,198,-8.104816513785337,-14.67761043959901,2.5014182958155384,16.952209072253506,-24,-8,-30,0.847740562115346,0.825368457949164,-0.17100559487797762,170,247961.0,74,63.5,0,-1,4,0,0,0
1778078477.159638,4.0402069091796875,-0.020322823602849833,1.9255163064011604,3.16372888718475,0.06082054156902801,2.0716277923649336,3.139182224941187,1,202,-8.114336517187784,-14.61114859637731,2.4546662243563055,16.892409736108743,-3,-3,-11,0.0013811326645277724,-0.009642078761717727,0.006782646003055813,170,247961.0,74,63.5,0,-1,4,0,0,0
1778078477.230067,4.110635995864868,-0.020322823602849833,1.9255163064011604,3.16372888718475,0.060917267463355435,2.070945940967031,3.1396609755707545,1,205,-8.124009106620527,-14.542963456587055,2.4067911613995463,16.83121961590041,-3,-3,-11,0.001373379932637634,-0.009681389181581238,0.006797626550342996,170,247953.00000000003,74,63.5,0,-1,4,0,0,0
1778078477.299648,4.180217027664185,-0.020322823602849833,1.9255163064011604,3.16372888718475,0.06258203705299274,2.0701085484606594,3.13941993312501,1,209,-8.290486065584258,-14.459224205949894,2.4308954059740095,16.843710289492623,-3,-3,-11,0.023925623788373644,-0.012034781386783497,-0.0034641976342035304,170,247958.0,74,63.5,0,-1,4,0,0,0
1778078477.3719711,4.252540111541748,-0.020322823602849833,1.9255163064011604,3.16372888718475,0.06258203705299274,2.0701085484606594,3.13941993312501,1,212,-8.290486065584258,-14.459224205949894,2.4308954059740095,16.843710289492623,-3,-3,-11,0.0,0.0,0.0,170,247963.0,74,63.5,0,-1,4,0,0,0
1778078477.443202,4.323770999908447,-0.020322823602849833,1.9255163064011604,3.16372888718475,0.061115225954391,2.069533122040841,3.14065089944874,1,216,-8.143804955724084,-14.401681563968038,2.307798773601011,16.704967111797835,-2,-3,-11,-0.020592345992521476,-0.00807832715571709,0.01728135577072867,170,247963.0,74,63.5,0,-1,4,0,0,0
1778078477.5141509,4.394719839096069,-0.020322823602849833,1.9255163064011604,3.16372888718475,0.06029939271710746,2.0694531632221502,3.140688035729949,1,219,-8.06222163199573,-14.393685682098978,2.3040851454800837,16.65792344549893,-3,-3,-11,-0.011498894789893539,-0.0011269926274502914,0.000523423379924025,170,247955.00000000003,73,63.5,0,-1,4,0,0,0
1778078477.583528,4.464097023010254,-0.020322823602849833,1.9255163064011604,3.16372888718475,0.059481247033612544,2.0693926183994122,3.14072455482541,1,223,-7.980407063646237,-14.38763119982518,2.300433235933985,16.612730706198406,-3,-3,-11,-0.011792719700282301,-0.000872690693425592,0.0005263848055025846,170,247954.0,73,63.5,0,0,4,0,0,0
1778078477.652189,4.532757997512817,-0.020322823602849833,1.9255163064011604,3.16372888718475,0.06532967838878663,1.9508245861228612,3.1747406843629786,1,226,-8.565250199163646,-2.53082797217008,-1.1011797178228644,8.998955382150523,-5,10,30,0.08517839132847922,-1.726862065905054,0.4954215955134528,170,247954.0,73,63.5,0,0,4,0,0,0
1778078477.721209,4.601778030395508,-0.020322823602849833,1.9255163064011604,3.16372888718475,0.0021120582832820423,2.0130503354575104,3.16456449626148,1,230,-2.2434881886131874,-8.753402905635,-0.08356090767298596,9.036718658125706,22,-6,-30,-0.9159314689541241,0.9015607025341598,-0.14743818101035527,170,247956.0,73,63.5,0,0,4,0,0,0
1778078477.790373,4.670942068099976,-0.020322823602849833,1.9255163064011604,3.16372888718475,0.059424238175357656,2.069274059266167,3.1400486413434625,1,233,-7.9747061778207495,-14.37577528650067,2.3680245841287473,16.609226175279026,-24,-12,-30,0.8286413256693577,0.8129040130493254,-0.35445956788658806,170,247948.99999999997,73,63.5,0,0,4,0,0,0
1778078477.859613,4.740181922912598,-0.020322823602849833,1.9255163064011604,3.16372888718475,0.05701707346080631,2.0700461488292157,3.140325490299008,1,237,-7.733989706365614,-14.452984242805522,2.340339688574211,16.558397874156476,-2,-3,-12,-0.03476559448406774,0.011150941392612223,0.003998404622519415,170,247948.99999999997,73,63.5,0,0,4,0,0,0
1778078477.9294112,4.809980154037476,-0.020322823602849833,1.9255163064011604,3.16372888718475,0.12073192445174259,2.022279202369153,3.1583595366470685,1,240,-14.105474805459242,-9.67628959679927,0.5369350537681505,17.113833559449393,-30,3,8,0.9128433480920497,-0.6843575501877887,0.25837397391626443,170,247951.00000000003,73,63.5,0,0,4,0,0,0
1778078478.000389,4.880958080291748,-0.020322823602849833,1.9255163064011604,3.16372888718475,0.12185956607233435,2.0201813857134416,3.1470194279360504,1,244,-14.218238967518419,-9.466507931228119,1.6709459248699599,17.16290045514754,-7,-7,-8,0.015887215647186925,-0.0295559023265383,-0.15976951299468944,170,247951.00000000003,73,63.5,0,0,4,0,0,0
1778078478.071459,4.952028036117554,-0.020322823602849833,1.9255163064011604,3.16372888718475,0.05544372021216288,2.070802683352138,3.139896369922022,1,247,-7.576654381501272,-14.528637695097757,2.3832517262727837,16.557985797883752,20,-6,-30,-0.9345136786486606,0.7122742240444122,-0.10022600874393452,170,247952.0,73,63.5,0,-1,4,0,0,0
1778078478.142256,5.022825002670288,-0.020322823602849833,1.9255163064011604,3.16372888718475,0.06772526434831293,1.95439511282987,3.173505747477145,1,251,-8.804808795116276,-2.8878806428709547,-0.9776860292395106,9.317745569492429,-8,9,30,0.17347557012915127,-1.6442451730691001,0.47472906243925583,170,247952.0,73,63.5,0,-1,4,0,0,0
1778078478.213105,5.093673944473267,-0.020322823602849833,1.9255163064011604,3.16372888718475,0.11386908290766871,2.0208383252128277,3.1467791080313985,1,254,-13.419190651051855,-9.532201881166724,1.6949779153351496,16.547220327477056,-23,-12,-30,0.6512986275458511,0.9378151697413835,-0.377234137385846,170,247948.99999999997,73,63.5,0,-2,4,0,0,0
1778078478.287253,5.167821884155273,-0.020322823602849833,1.9255163064011604,3.16372888718475,0.14437877320873013,1.8987210420712084,3.1771732778344917,1,258,-16.470159681157998,2.679526432995205,-1.3444390649741678,16.740774720047792,-19,8,30,0.4114705065563012,-1.6469410163699123,0.4099125334222712,170,247950.0,73,63.5,0,-1,4,0,0,0
1778078478.359215,5.239784002304077,-0.020322823602849833,1.9255163064011604,3.16372888718475,0.052517309855973214,2.072502958699504,3.1390552661993443,1,262,-7.284013345882305,-14.69866522983434,2.467362098540571,16.589017019915527,28,-17,-30,-1.276525284633857,2.41490830312899,-0.5296955205838539,170,247950.0,73,63.5,0,-1,4,0,0,0
1778078478.432471,5.313040018081665,-0.020322823602849833,1.9255163064011604,3.16372888718475,0.051894545325411316,2.073292336008884,3.1386175470260085,1,265,-7.221736892826115,-14.777602960772374,2.51113401587415,16.638414199109075,-3,-4,-13,-0.008501206678406715,0.010775597075562476,-0.005975197650180015,170,247951.00000000003,73,63.5,0,-1,4,0,0,0
1778078478.505208,5.385776996612549,-0.020322823602849833,1.9255163064011604,3.16372888718475,0.06037109470426087,1.945013067483543,3.2024444312241105,0,269,-8.06939183071107,-1.949676108238263,-3.8715544039360505,9.159981165221808,-6,22,30,0.11653700153698922,-1.7636045807274536,0.8775025507967918,170,247952.0,73,63.5,0,-1,4,0,0,0
1778078478.576055,5.4566240310668945,-0.020322823602849833,1.9255163064011604,3.16372888718475,,,,,272,,,,,0,0,0,,,,170,247952.0,73,63.5,0,-1,4,0,0,0
1778078478.645963,5.526531934738159,-0.020322823602849833,1.9255163064011604,3.16372888718475,0.288761524415843,2.1697710261030734,3.0767315683213483,1,276,-30.908434801869284,-24.425471970191293,8.699731886340167,40.34377718759373,-30,-30,-30,1.6226104231438436,1.5968033634383418,-0.8931328774453046,160,247953.00000000003,73,63.5,0,-1,4,0,0,0
1778078478.717612,5.5981810092926025,-0.020322823602849833,1.9255163064011604,3.16372888718475,0.22639865995819206,2.0556473727585414,3.124415233662279,1,280,-24.67214835610419,-13.013106635738092,3.931365352247118,28.16933585215588,7,11,27,-0.8703931606299232,-1.592814060114815,0.6655168351783458,160,247948.99999999997,73,63.5,0,0,4,0,-1,0
1778078478.787144,5.667712926864624,-0.020322823602849833,1.9255163064011604,3.16372888718475,0.4157418762425583,2.1912536813517423,3.0642892297435873,1,283,-43.606469984540816,-26.573737495058182,9.943965744116268,52.02470762713691,-30,-30,-30,2.7231122468072835,1.9502742528672425,-0.864725237246804,160,247951.00000000003,73,63.5,-1,0,4,0,-1,0
1778078478.856164,5.7367329597473145,-0.020322823602849833,1.9255163064011604,3.16372888718475,0.38717678269121897,2.412623442925268,2.9932882567601076,1,286,-40.74996062940688,-48.71071365241075,17.04406304246424,65.75555490466841,-14,-30,-30,-0.4138667044666564,3.20732622584773,-1.0287009440310786,160,247951.00000000003,73,63.5,-1,0,4,0,-1,0
1778078478.926641,5.8072099685668945,-0.020322823602849833,1.9255163064011604,3.16372888718475,,,,,290,,,,,0,0,0,,,,160,247952.0,73,63.5,0,-1,4,0,-1,0
1778078478.9971159,5.877684831619263,-0.020322823602849833,1.9255163064011604,3.16372888718475,-0.003956392373906016,2.033707766815347,3.1549223192618236,1,293,-1.6366431228943816,-10.819146041418648,0.8806567922926334,10.977617144128931,30,25,30,-2.774941331892783,-2.6882628167872635,1.1467322878021595,160,247948.99999999997,73,63.5,0,-1,4,0,-1,0
1778078479.067401,5.947969913482666,-0.020322823602849833,1.9255163064011604,3.16372888718475,-0.09836874934328355,1.8360405797309935,3.1965902195984017,1,297,7.8045925740433715,8.94757266701669,-3.2861332413651745,12.31947212985858,30,14,30,-1.3432773280802994,-2.812363332926223,0.5928413147125337,160,247948.99999999997,73,63.5,0,-1,4,0,-1,0
1778078479.137296,6.017864942550659,-0.020322823602849833,1.9255163064011604,3.16372888718475,-0.10287138917452356,1.841169465120035,3.206978700094842,1,300,8.254856557167372,8.434684128112547,-4.3249812910092,12.569487510953758,6,3,0,-0.06442002945388131,0.07337983054634845,0.14862974713601518,160,247946.99999999997,73,63.5,1,-1,4,0,-1,0
1778078479.207417,6.087985992431641,-0.020322823602849833,1.9255163064011604,3.16372888718475,-0.15079860903479678,1.9320495008287373,3.177312705345335,1,304,13.047578543194692,-0.6533194427576827,-1.3583818160585182,13.134356980580291,24,-12,-30,-0.683492616576927,1.2960449945195585,-0.42306831971084,160,247952.0,73,63.5,0,0,4,0,-1,0
1778078479.2772841,6.157853126525879,-0.020322823602849833,1.9255163064011604,3.16372888718475,-0.19754158805620012,1.7840067629383318,3.2052725848190984,1,307,17.721876445335027,14.150954346282862,-4.15436976343484,23.055871308316323,27,9,30,-0.6690267123073262,-2.1189181409777342,0.40018643724602093,160,247952.0,73,63.5,0,0,4,0,-1,0
1778078479.347886,6.228455066680908,-0.020322823602849833,1.9255163064011604,3.16372888718475,-0.07044064437202786,1.986709960677435,3.1850603073439543,1,311,5.011782076917804,-6.1193654276274545,-2.1331420159204306,8.192367648210238,-30,-8,-30,1.8002471802486049,2.871071209856316,-0.28628501470018425,160,247957.00000000003,73,63.5,-1,1,4,0,-1,0
1778078479.419136,6.2997050285339355,-0.020322823602849833,1.9255163064011604,3.16372888718475,-0.01347208669105355,1.7331983775850746,3.2348442416108596,1,315,-0.6850736911796282,19.23179288160859,-7.111535442610961,20.51597230830041,-20,19,30,0.7995591323752235,-3.5580592115304968,0.6987222585409711,160,247957.00000000003,73,63.5,-1,1,4,0,-1,0
1778078479.4886458,6.369214773178101,-0.020322823602849833,1.9255163064011604,3.16372888718475,0.08537174791044286,1.8409637401875332,3.2200676769200016,1,318,-10.569457151329269,8.455256621362729,-5.633878973525164,14.66101569793896,-30,-4,-30,1.422014065905417,1.5503633793237497,-0.21258263523340948,160,247960.0,73,63.5,-1,2,4,0,0,0
1778078479.558631,6.439199924468994,-0.020322823602849833,1.9255163064011604,3.16372888718475,-0.14220671714982394,1.9346281536507268,3.189497686349352,1,322,12.188389354697412,-0.9111847249566374,-2.576879916460184,12.491092937311423,30,-11,-30,-3.2518107178812263,1.3383469455381636,-0.4368068083983345,160,247946.99999999997,72,63.5,-1,2,4,0,0,0
1778078479.6288981,6.509467124938965,-0.020322823602849833,1.9255163064011604,3.16372888718475,-0.1461895882654282,1.9324836303782753,3.1899545494415165,1,325,12.586676466257835,-0.6967323977114859,-2.622566225676648,12.875857800874064,9,0,-3,-0.05668179590143714,-0.030519549065683865,0.006501797269693179,160,247959.0,72,63.5,0,0,4,0,0,0
1778078479.698635,6.579204082489014,-0.020322823602849833,1.9255163064011604,3.16372888718475,-0.1461729310076898,1.9378556109089284,3.2004296888676182,1,329,12.585010740483996,-1.233930450776799,-3.6700801682868267,13.167177683053572,7,3,-6,0.0002388583947964013,0.07703204612558223,0.15020929782581907,160,247959.0,72,63.5,0,0,4,0,0,0
1778078479.768325,6.6488940715789795,-0.020322823602849833,1.9255163064011604,3.16372888718475,-0.1461729310076898,1.9378556109089284,3.2004296888676182,1,332,12.585010740483996,-1.233930450776799,-3.6700801682868267,13.167177683053572,7,0,-4,0.0,0.0,0.0,160,247946.0,72,63.5,0,-2,4,0,0,0
1778078479.8383229,6.718891859054565,-0.020322823602849833,1.9255163064011604,3.16372888718475,-0.0874712448323847,1.8450837711480275,3.2192169769531698,1,336,6.714842122953487,8.043253525313299,-5.548808976841979,11.85631954149927,-16,7,30,0.8386220235286618,-1.325353887696211,0.26839831319103075,160,247948.99999999997,72,63.5,0,-2,4,0,0,0
1778078479.9070761,6.787645101547241,-0.020322823602849833,1.9255163064011604,3.16372888718475,-0.20035721208598142,1.7937339721341163,3.2281509026375295,1,339,18.00343884831316,13.178233426704411,-6.442201545277948,23.222652892459177,30,4,24,-1.6419002676946088,-0.7468709424051,0.12994188143652152,160,247948.99999999997,72,63.5,0,-2,4,0,0,0
1778078479.97606,6.856628894805908,-0.020322823602849833,1.9255163064011604,3.16372888718475,-0.08447332923433445,1.8470337683131353,3.219608673770885,1,342,6.415050563148463,7.848253808802519,-5.5879786586134905,11.574690797781791,-30,-2,-17,1.6798711317181378,0.7726422926492584,-0.12382950346922747,160,247952.0,72,63.0,0,0,4,0,0,0
1778078480.04525,6.925818920135498,-0.020322823602849833,1.9255163064011604,3.16372888718475,-0.1413191211066867,1.9400612035964784,3.2014088159617953,1,346,12.099629750383688,-1.454489719531793,-3.767992877704529,12.755953542053442,28,-6,-30,-0.8215894068771434,1.3445209022572644,-0.26304164108039796,160,247950.0,72,63.0,0,0,4,0,0,0
1778078480.115414,6.995982885360718,-0.020322823602849833,1.9255163064011604,3.16372888718475,-0.2022100165939664,1.9106343093011544,3.2109754432462903,0,349,18.188719299111654,1.488199710000604,-4.724655606154027,18.851170221381093,30,3,8,-0.8678371481974493,-0.4194018140346887,0.13634673088653135,160,247950.0,72,63.0,0,0,4,0,0,0
1778078480.184736,7.06530499458313,-0.020322823602849833,1.9255163064011604,3.16372888718475,,,,,353,,,,,0,0,0,,,,160,247950.0,72,63.0,0,0,4,0,0,0
1778078480.2543879,7.1349568367004395,-0.020322823602849833,1.9255163064011604,3.16372888718475,-0.2116404483759053,1.9157306046268858,3.2223096179808124,0,356,19.131762477305543,0.9785701774274624,-5.858073079606241,20.032447561049402,14,3,-3,-0.06785754949779194,0.036670867285578765,0.0815561090784255,160,247946.0,72,63.0,0,0,4,0,0,0
1778078480.3269691,7.20753812789917,-0.020322823602849833,1.9255163064011604,3.16372888718475,-0.34274170811619564,1.9587443115083922,3.1806610326988087,1,360,32.24188845133458,-3.3228005107231784,-1.693214551405875,32.45685366235392,30,-15,-20,-1.8062679455691946,0.5926280198533967,-0.5738198452266187,160,247952.0,72,63.0,0,0,4,0,0,0
1778078480.396529,7.277097940444946,-0.020322823602849833,1.9255163064011604,3.16372888718475,-0.469835278305092,1.5351585140468023,3.230403369824916,1,363,44.951245470224215,39.03577923543582,-6.6674482640165955,59.907106391440514,30,19,30,-1.8271120283030922,-6.089518961581932,0.7151016557638428,160,247952.0,72,63.0,0,0,4,0,0,0
1778078480.464562,7.345130920410156,-0.020322823602849833,1.9255163064011604,3.16372888718475,-0.13827457939567522,1.9385870217835093,3.2031927926987933,1,367,11.795175579282539,-1.307071538234883,-3.946390551404333,12.506342444391178,-30,-9,-30,4.873528971962819,5.929896175987122,-0.3999615648180824,160,247948.0,72,63.0,0,1,4,0,0,0
1778078480.5341802,7.4147491455078125,-0.020322823602849833,1.9255163064011604,3.16372888718475,-0.14851486601787453,1.6465058384743931,3.261803591648891,1,370,12.819204241502469,27.90104679267673,-9.807470446414124,32.23331950125177,12,24,30,-0.1470920381528666,-4.195470121500545,0.8418887276698338,160,247954.0,72,63.0,0,0,4,0,0,0
1778078480.602386,7.482954978942871,-0.020322823602849833,1.9255163064011604,3.16372888718475,-0.19158162356558084,1.7923139759508644,3.2306815568563545,1,374,17.1258799962731,13.320233045029607,-6.695266967160451,22.705747593554275,27,-9,-30,-0.6314233750799604,2.1377663776413027,-0.4562957920918775,160,247954.0,72,63.0,0,0,4,0,0,0
1778078480.67206,7.552628993988037,-0.020322823602849833,1.9255163064011604,3.16372888718475,-0.22605936936535045,1.9007479623864638,3.2110654531460447,1,377,20.57365457625006,2.476834401469663,-4.733656596129476,21.255998589697892,26,-6,-30,-0.49484367704975085,1.5563045471874608,-0.2815411699410987,160,247950.0,72,63.0,0,1,4,0,0,0
1778078480.74212,7.6226890087127686,-0.020322823602849833,1.9255163064011604,3.16372888718475,-0.19403910995086157,1.7992021155636546,3.2415155598649497,1,381,17.371628634801173,12.631419083750583,-7.7786672680199676,22.84368389645916,0,13,30,0.4570404322679312,-1.4494122963260403,0.43462889407809263,160,247954.0,72,63.0,0,0,4,0,0,0
1778078480.812973,7.693542003631592,-0.020322823602849833,1.9255163064011604,3.16372888718475,-0.22466206070271377,1.8976664432566124,3.2116453491698898,1,384,20.43392370998639,2.784986314454807,-4.791646198513977,21.1721812822623,24,-9,-30,-0.43220404143730445,1.3896988801358223,-0.4215800719402533,160,247954.0,72,63.0,0,0,4,0,0,0
1778078480.884168,7.764736890792847,-0.020322823602849833,1.9255163064011604,3.16372888718475,-0.18142154700837843,2.019677345027658,3.183890959209905,1,388,16.109872340552858,-9.416103862649772,-2.0162072025155187,18.7684866269125,-3,-10,-30,0.607354199415985,1.7137593250859957,-0.3898368417541205,160,247950.0,72,63.0,-1,0,4,0,0,0
1778078480.9527402,7.833309173583984,-0.020322823602849833,1.9255163064011604,3.16372888718475,-0.3123873071402658,1.6522907123783326,3.250045684314313,1,391,29.2064483537416,27.322559402282785,-8.631679712956286,40.91509223255042,30,27,30,-1.9098935430047173,-5.357654983841471,0.964744389594064,160,247946.99999999997,72,63.5,0,1,4,0,0,0
1778078481.0221398,7.9027087688446045,-0.020322823602849833,1.9255163064011604,3.16372888718475,-0.08488612730515659,1.8575487666145176,3.231256600018024,1,395,6.456330370230676,6.796753978664283,-6.752771283327386,11.553353907025556,-30,-4,-30,3.2781341012258287,2.9576260994803816,-0.27073766389745246,160,247946.99999999997,72,63.5,0,1,4,0,0,0
1778078481.093699,7.974267959594727,-0.020322823602849833,1.9255163064011604,3.16372888718475,-0.19712925035378212,1.8019292983888813,3.2287528380893775,1,398,17.680642675093228,12.358700801227918,-6.502395090462754,22.530507158319217,30,1,25,-1.5685353882853135,-0.7772512187827035,-0.03498868422631021,160,247946.99999999997,72,63.5,0,1,4,0,1,0
1778078481.1656802,8.046249151229858,-0.020322823602849833,1.9255163064011604,3.16372888718475,-0.06383936967216727,1.9997095766702717,3.196988878599025,1,402,4.351654606931745,-7.419327026911127,-3.3259991414274825,9.222016137432233,-30,-10,-30,1.8517320657492435,2.7476660748258563,-0.4412813787713079,160,247948.0,72,63.5,0,0,4,0,1,0
1778078481.2430809,8.123649835586548,-0.020322823602849833,1.9255163064011604,3.16372888718475,-0.06613450837391076,1.999893370108199,3.196911458654588,1,406,4.581168477106093,-7.437706370703845,-3.3182571469838162,9.344378586398792,5,0,-7,-0.02965269261918515,0.0023745712257555456,-0.0010002488360423894,160,247942.99999999997,72,63.5,-1,0,4,0,1,0
1778078481.3130481,8.193617105484009,-0.020322823602849833,1.9255163064011604,3.16372888718475,-0.1490860788673698,1.9494977146845724,3.200275998439217,1,409,12.876325526451996,-2.3981408283412,-3.654711125446708,13.598078978524144,30,1,13,-1.1855767791858531,-0.7202747155560414,0.04808733840208068,160,247953.00000000003,72,63.5,-1,0,4,0,1,0
1778078481.3838358,8.264404773712158,-0.020322823602849833,1.9255163064011604,3.16372888718475,-0.1515546108790233,1.9506135451948292,3.2001947828672814,1,413,13.123178727617347,-2.5097238793668764,-3.6465895682531446,13.849698529099664,11,0,-4,-0.03487234533135633,0.015763063513554817,-0.0011473124340510084,160,247953.00000000003,72,63.5,-1,0,4,0,1,0
1778078481.45252,8.333088874816895,-0.020322823602849833,1.9255163064011604,3.16372888718475,-0.10173105901983563,1.8609287422807026,3.2191532125885116,1,416,8.14082354169858,6.458756412045785,-5.542432540376163,11.777397878641823,-10,8,30,0.7254015275414579,-1.3057578314574771,0.27602355445142235,160,247954.0,72,63.5,0,0,4,0,1,0
1778078481.5238059,8.404374837875366,-0.020322823602849833,1.9255163064011604,3.16372888718475,-0.07709453694384996,1.9959703358928211,3.174760848332643,1,420,5.677171334100013,-7.045402949166069,-1.1031961147892844,9.115098394451431,-2,-16,-30,0.34560130801316075,1.8943644417253909,-0.6227364035112543,150,247944.99999999997,71,63.5,0,0,4,0,1,0
1778078481.5931368,8.473705768585205,-0.020322823602849833,1.9255163064011604,3.16372888718475,-0.020433450372511392,1.9244882295265493,3.201586896217607,1,423,0.011062676966155927,0.10280768746111502,-3.7858009032857076,3.787212732702197,-17,10,23,0.817255530702081,-1.0310276471757749,0.386927560474207,150,247944.0,71,63.5,0,0,4,0,1,0
1778078481.6625888,8.543157815933228,-0.020322823602849833,1.9255163064011604,3.16372888718475,-0.11125570904406784,1.862266365248567,3.2074301579320332,1,427,9.093288544121801,6.3249941152593525,-4.370127074728325,11.907621834522448,30,2,24,-1.307697355794976,-0.8958967612025918,0.08413375757154769,150,247944.0,71,63.5,0,0,4,0,1,0
1778078481.733585,8.614153861999512,-0.020322823602849833,1.9255163064011604,3.16372888718475,-0.1112474639915992,1.8566099133134415,3.2089897581474687,1,430,9.092464038874937,6.890639308771895,-4.526087096271869,12.273519331669506,8,1,4,0.00011613396696693,-0.07967277402806888,0.02196742356580462,150,247944.99999999997,71,63.5,0,0,4,0,1,0
1778078481.803508,8.684077024459839,-0.020322823602849833,1.9255163064011604,3.16372888718475,-0.08636426710451642,1.9945601685949779,3.1762504407683907,1,434,6.604144350166659,-6.904386219381742,-1.252155358364071,9.636034698241106,-2,-12,-30,0.3558648666842114,1.9728835256815835,-0.4682184876528367,150,247946.0,71,63.5,0,0,4,0,1,0
1778078481.874489,8.75505805015564,-0.020322823602849833,1.9255163064011604,3.16372888718475,0.08736998315236799,1.6127639190471692,3.2494256728553252,1,437,-10.769280675521783,31.275238735399125,-8.569678567057526,34.16953840728701,-30,29,30,2.4476153810660204,-5.378849429198874,1.0309125765600704,150,247946.0,71,63.5,0,0,4,0,1,0
1778078481.943946,8.824514865875244,-0.020322823602849833,1.9255163064011604,3.16372888718475,0.04355089702336268,1.8359158304935925,3.205545183603798,1,441,-6.3873720626212505,8.960047590756792,-4.181629641904783,11.77144855814431,14,-14,-30,-0.6308824508440168,3.2128151734925807,-0.6317664983184936,150,247942.0,71,63.5,0,0,4,0,0,0
1778078482.014455,8.895024061203003,-0.020322823602849833,1.9255163064011604,3.16372888718475,0.040005599859852754,1.8328239036751426,3.206876949372078,1,444,-6.032842346270259,9.269240272601786,-4.314806218732814,11.871459670629802,0,1,5,-0.05028134482360451,-0.04385139844636236,0.018887831042315267,150,247948.0,71,63.5,0,0,4,0,0,0
1778078482.086263,8.966831922531128,-0.020322823602849833,1.9255163064011604,3.16372888718475,0.05575918954946773,1.5834039934790918,3.2426897854977557,1,448,-7.6082013152317565,34.21123129220687,-7.896089831300568,35.92549663408896,-7,15,30,0.21938530682078347,-3.4734346014892448,0.4987314127353173,150,247948.0,71,63.5,0,0,4,0,0,0
1778078482.156338,9.036906957626343,-0.020322823602849833,1.9255163064011604,3.16372888718475,0.14056778499752767,1.7487215463830594,3.2131653734131316,1,451,-16.08906086003775,17.6794760018101,-4.943648622838159,24.41027268923204,-30,-9,-30,1.2102540559962016,2.3591504831833694,-0.42132568388310654,150,247944.99999999997,71,63.5,-1,-1,4,0,0,0
1778078482.2249,9.105468988418579,-0.020322823602849833,1.9255163064011604,3.16372888718475,0.28635227450807066,1.5678635713248579,3.221313117872043,1,455,-30.667509811092046,35.765273507630255,-5.7584230687293125,47.463779699129525,-30,4,30,2.1263152188755035,-2.6378736593473415,0.11883756015923244,150,247950.0,71,63.5,0,-1,4,0,0,0
1778078482.2944498,9.175018787384033,-0.020322823602849833,1.9255163064011604,3.16372888718475,0.095934635837711,1.9055250291007162,3.185979652284502,1,458,-11.625745944056083,1.9991277300444255,-2.22507650997521,12.004392775647275,30,-12,-30,-2.737860374908366,4.854959508129955,-0.5080311677836972,150,247950.0,71,63.5,0,-1,4,0,0,0
