timestamp,elapsed,target_x,target_y,target_z,pos_x,pos_y,pos_z,marker_id,publish_count,err_x_cm,err_y_cm,err_z_cm,err_3d_cm,cmd_lr,cmd_fb,cmd_ud,vel_x_pub,vel_y_pub,vel_z_pub,tello_height_cm,tello_baro_cm,tello_battery,tello_temp_c,tello_pitch,tello_roll,tello_yaw,tello_vgx,tello_vgy,tello_vgz
1778109248.6877902,7.152557373046875e-06,0.4049289545003039,1.135869944163343,4.051329164537485,0.635080009034479,1.1306074039215608,4.165282412762194,2,0,-23.01510545341751,0.5262540241782299,-11.395324822470876,25.68706776063615,-30,30,3,0.0,0.0,0.0,120,249827.0,90,64.5,0,0,0,0,2,0
1778109248.75905,0.07126688957214355,0.4049289545003039,1.135869944163343,4.051329164537485,0.7696685146347435,1.18802640214321,4.152302511232563,2,3,-36.47395601344396,-5.215645797986701,-10.097334669507774,38.20351548992245,-30,1,-23,1.888703372177298,0.8057705603059926,-0.1821491640776135,120,249832.00000000003,90,64.5,0,0,0,0,2,0
1778109248.8294988,0.14171576499938965,0.4049289545003039,1.135869944163343,4.051329164537485,0.8153226440534114,1.3723679449978206,4.1163864350434975,2,7,-41.03936895531074,-23.649800083447747,-6.505727050601262,47.810744950210655,-30,-8,-30,0.6480462483154292,2.6166711922177313,-0.5098175942660197,120,249832.00000000003,90,64.5,0,0,0,0,2,0
1778109248.9005492,0.21276617050170898,0.4049289545003039,1.135869944163343,4.051329164537485,0.778404946618911,1.1973104044630316,4.169422594781958,2,10,-37.34759921186071,-6.144046029968853,-11.809343024447294,39.649124217026745,-10,25,30,-0.519598687347326,-2.46384998505145,0.7464582272754099,120,249828.00000000003,90,64.5,0,0,0,0,2,0
1778109248.9710479,0.2832648754119873,0.4049289545003039,1.135869944163343,4.051329164537485,0.5128420112753778,0.9594369807326781,4.203101493309864,2,14,-10.791305677507385,17.643296343066496,-15.177232877237934,25.653198277886887,30,21,30,-3.7669193452774428,-3.3741531001610334,0.47772364855168,120,249830.00000000003,90,64.5,0,-1,0,0,2,0
1778109249.042041,0.35425806045532227,0.4049289545003039,1.135869944163343,4.051329164537485,0.646142287036052,1.14394970619023,4.179432639259453,2,17,-24.12133325357481,-0.8079762026886872,-12.810347472196781,27.323918932549624,-30,0,-30,1.8776488993881093,2.599020248843933,-0.33339614268558054,120,249838.0,90,64.5,0,-1,0,0,2,0
1778109249.112222,0.4244389533996582,0.4049289545003039,1.135869944163343,4.051329164537485,0.5190996191023352,0.7839385771667161,4.221705261053691,2,21,-11.417066460203124,35.193136699662695,-17.037609651620578,40.733112082909095,30,25,30,-1.81021731989761,-5.12975988078489,0.6023380441706057,120,249838.0,90,64.5,0,-1,0,0,2,0
1778109249.181644,0.49386096000671387,0.4049289545003039,1.135869944163343,4.051329164537485,0.7572583226015079,0.7871962242617293,4.262198659565281,2,24,-35.2329368101204,34.86737199016138,-21.08694950277963,53.86792092794194,-30,27,23,3.4305937719029815,0.046925279954124884,0.5832934034994457,120,249836.0,90,64.5,-1,1,0,0,2,0
1778109249.251772,0.5639889240264893,0.4049289545003039,1.135869944163343,4.051329164537485,,,,,28,,,,,0,0,0,,,,120,249831.0,90,64.5,0,0,0,0,2,0
1778109249.321792,0.6340088844299316,0.4049289545003039,1.135869944163343,4.051329164537485,0.7858632292259873,1.2151093529338743,4.18221783276588,2,31,-38.09342747256834,-7.923940877053126,-13.088866822839496,41.051388409369125,-29,-5,-30,0.20410510353402334,3.053296225636106,-0.5706886286654932,120,249831.0,90,64.5,0,0,0,0,2,0
1778109249.391486,0.7037029266357422,0.4049289545003039,1.135869944163343,4.051329164537485,0.995589714913374,1.1848746526278662,4.199940920312126,2,35,-59.066076041307,-4.9004708464523095,-14.861175577464092,61.103768238780546,-30,16,7,3.009245540214933,-0.4338204436000906,0.25429845916970434,120,249834.0,90,64.5,-1,0,0,0,2,0
1778109249.4631171,0.7753341197967529,0.4049289545003039,1.135869944163343,4.051329164537485,0.6553730371324967,1.1484973574502326,4.177469628714968,2,38,-25.04440826321928,-1.2627413286889544,-12.614046417748348,28.07010986702929,30,0,12,-4.74956039076645,-0.5078415362405818,-0.31370818501720404,120,249829.0,90,64.5,0,0,0,0,2,0
1778109249.533341,0.8455579280853271,0.4049289545003039,1.135869944163343,4.051329164537485,0.8718972527388447,1.073613110884671,4.194079167069779,2,42,-46.696829823854074,6.225683327867215,-14.275000253229386,49.22528497354352,-30,15,30,3.083344821126392,-1.0663655018229161,0.2365228938675039,130,249830.00000000003,90,64.5,0,-1,0,0,2,0
1778109249.605535,0.9177520275115967,0.4049289545003039,1.135869944163343,4.051329164537485,0.9980872980860932,1.18441938312688,4.2003740261257745,2,46,-59.315834358578925,-4.854943896353703,-14.904486158828956,61.35211808527753,-30,12,-30,1.747927411659509,1.5348383472166383,0.08719353944465384,130,249830.00000000003,90,64.5,0,-1,0,0,2,0
1778109249.677629,0.9898459911346436,0.4049289545003039,1.135869944163343,4.051329164537485,0.9074684496786188,1.2873422847496507,4.15697825239321,2,49,-50.25394951783149,-15.147234058630765,-10.564908785572502,53.53984907912205,-1,-7,-30,-1.2569547276008761,1.4276216266998032,-0.6019335260780675,130,249834.0,90,64.5,0,0,0,0,2,0
1778109249.747587,1.0598039627075195,0.4049289545003039,1.135869944163343,4.051329164537485,0.9999429204569136,1.1820466358683257,4.201812908326767,2,53,-59.501396595660964,-4.617669170498262,-15.048374378928209,61.5482951579545,-30,26,30,1.3218575195817832,-1.5051272430281575,0.6408798729513236,130,249819.0,89,64.5,0,-1,0,0,2,0
1778109249.817461,1.1296780109405518,0.4049289545003039,1.135869944163343,4.051329164537485,0.9090313980784004,1.2849946390649796,4.158776319782821,2,56,-50.41024435780965,-14.912469490163648,-10.744715524533621,53.65653170129705,-1,-7,-30,-1.3010770762174864,1.4733367509109954,-0.6159166333173863,130,249819.0,89,64.5,0,-1,0,0,2,0
1778109249.889042,1.201258897781372,0.4049289545003039,1.135869944163343,4.051329164537485,1.1292962498727641,1.0679383756824796,4.2184280126497775,2,60,-72.43672953724602,6.793156848086346,-16.70988481122926,74.64882461512293,-30,30,30,3.077146170096815,-3.0323215171276647,0.8333466585795205,130,249826.00000000003,89,64.5,0,-1,0,0,2,0
1778109249.9605398,1.272756814956665,0.4049289545003039,1.135869944163343,4.051329164537485,,,,,63,,,,,0,0,0,,,,130,249831.0,89,64.5,0,-1,0,0,1,0
1778109250.030679,1.3428959846496582,0.4049289545003039,1.135869944163343,4.051329164537485,1.0072662612966474,0.9012835043630656,4.246701844442857,2,67,-60.233730679634355,23.458643980027748,-19.537267990537188,67.52862451955086,-19,18,30,-0.8615680488373582,-1.1766330062576966,0.19962166984818205,130,249831.0,89,64.5,0,-1,0,0,1,0
1778109250.102294,1.41451096534729,0.4049289545003039,1.135869944163343,4.051329164537485,1.0111417217345346,1.173136279957594,4.205949694215052,2,70,-60.62127672342308,-3.726633579425087,-15.462052967756712,62.672977202226875,-30,-3,-30,0.05411522002986978,3.796032239990787,-0.56904504938521,130,249831.0,89,64.5,0,0,0,0,1,0
1778109250.1722949,1.4845118522644043,0.4049289545003039,1.135869944163343,4.051329164537485,1.01089277855339,1.3568692575302372,4.1281487733482765,2,74,-60.596382405308624,-22.099931336689416,-7.681960881079153,64.9564550193067,-30,-21,-30,-0.003556286100193426,2.624723566577027,-1.1114276446082332,130,249831.0,89,64.5,0,0,0,0,1,0
1778109250.2435808,1.555797815322876,0.4049289545003039,1.135869944163343,4.051329164537485,1.153325101755523,1.0572266871342682,4.222976045360567,2,77,-74.83961472552193,7.864325702907493,-17.1646880823082,77.1844677897626,-30,30,30,1.9980416493118582,-4.203388122149517,1.3302376504966236,130,249831.0,89,64.5,0,0,0,0,1,0
1778109250.3138828,1.6260998249053955,0.4049289545003039,1.135869944163343,4.051329164537485,1.1140057037404942,1.2725145571000147,4.166287775373522,2,81,-70.90767492401903,-13.664461293667163,-11.495861083603742,73.12161573454186,-30,-11,-30,-0.5592926610280784,3.062328818823374,-0.8063534787082389,130,249839.0,89,64.5,0,-1,0,0,1,0
1778109250.386397,1.6986138820648193,0.4049289545003039,1.135869944163343,4.051329164537485,1.1577479494102978,1.0522909828594094,4.2255448594143346,2,85,-75.2818994909994,8.357896130393371,-17.421569487684962,77.72213264002484,-30,30,30,0.6032243592940224,-3.0369776960133223,0.8171806455475817,130,249827.0,89,64.5,1,-1,0,0,1,0
1778109250.456206,1.768423080444336,0.4049289545003039,1.135869944163343,4.051329164537485,1.145689395290615,1.0469028405214302,4.227900826838691,2,88,-74.07604407903112,8.896710364191286,-17.65716623012059,76.66933729321639,-30,13,8,-0.17273589153862745,-0.07718384486649708,0.03374866749719868,130,249831.0,89,64.5,0,-1,0,0,1,0
1778109250.527987,1.8402040004730225,0.4049289545003039,1.135869944163343,4.051329164537485,1.117181446116087,1.2653880940421216,4.171147101643054,2,92,-71.2252491615783,-12.951814987877853,-11.981793710556943,73.37812351192603,-30,-10,-30,-0.39715218421741083,3.043778951751746,-0.7906519611751344,130,249831.0,89,64.5,0,-1,0,0,1,0
1778109250.5991611,1.9113781452178955,0.4049289545003039,1.135869944163343,4.051329164537485,1.1168626702605762,1.2629929023903133,4.1725883461013575,2,95,-71.19337157602723,-12.712295822697017,-12.125918156387261,73.32896094028229,-30,9,-7,-0.004478815399235681,-0.03365255262840209,0.020249550780966706,130,249838.0,89,64.5,0,-1,0,0,0,0
1778109250.670984,1.983201026916504,0.4049289545003039,1.135869944163343,4.051329164537485,1.117659768164221,1.2608891126280155,4.1740075296853565,2,99,-71.27308136639172,-12.501916846467243,-12.267836514787156,73.39379990877855,-30,10,-8,0.011098105294490707,-0.029291358304529145,0.019759490992777143,130,249831.0,89,64.5,0,-1,0,0,0,0
1778109250.742688,2.0549049377441406,0.4049289545003039,1.135869944163343,4.051329164537485,1.1024340191132935,1.428077182640398,4.1169006179182395,2,102,-69.75050646129897,-29.220723847705486,-6.557145338075454,75.90770717638767,-30,-13,-30,-0.2123419612010774,2.331645067648715,-0.7964267375093632,130,249831.0,89,64.5,0,-1,0,0,0,0
1778109250.814278,2.126494884490967,0.4049289545003039,1.135869944163343,4.051329164537485,1.3301421579166774,0.9500621954032785,4.226104933307983,2,106,-92.52132034163736,18.580774876006455,-17.477576877049827,95.97346303143333,-30,30,30,3.1807278696359558,-6.677124498047088,1.5254141168164108,130,249831.0,89,64.5,0,-1,0,0,0,0
1778109250.884013,2.196229934692383,0.4049289545003039,1.135869944163343,4.051329164537485,1.3313154743757991,0.9486659785601498,4.2266680202372315,2,109,-92.63865198754952,18.72039656031933,-17.53388556997466,96.1239316332145,-30,13,13,0.016825347593968462,-0.02002173711922542,0.008074661560032855,130,249828.00000000003,89,65.0,0,-1,0,0,0,0
1778109250.955509,2.267725944519043,0.4049289545003039,1.135869944163343,4.051329164537485,1.2352670371248227,1.1691616473102209,4.185142676403261,2,113,-83.03380826245188,-3.3291703146877794,-13.38135118657764,84.17100004828471,-26,-3,-30,-1.3434097578849908,3.08402761615167,-0.5808064524810143,130,249828.00000000003,89,65.0,0,-1,0,0,0,0
1778109251.026056,2.338273048400879,0.4049289545003039,1.135869944163343,4.051329164537485,1.0180176081613934,1.1361361438632591,4.204343142065281,2,117,-61.308865366108954,-0.026619969991603654,-15.30139775277961,63.18948056671494,30,18,11,-3.079494649806105,-0.4681340782220966,0.27216518617376356,130,249833.0,89,65.0,0,-1,0,0,0,0
1778109251.097305,2.40952205657959,0.4049289545003039,1.135869944163343,4.051329164537485,1.1934459182303676,1.3485144599338603,4.132458145612853,2,120,-78.85169637300638,-21.264451577051723,-8.112898107536815,82.07061616362361,-30,-17,-30,2.4621859946310356,2.9807897892122437,-1.0089262754664852,130,249831.0,89,65.0,-1,-1,0,0,0,0
1778109251.1693351,2.4815521240234375,0.4049289545003039,1.135869944163343,4.051329164537485,1.1904875268521078,1.3495692198434301,4.133196214808976,2,124,-78.5558572351804,-21.369927568008706,-8.186705027149088,81.821260375391,-30,7,-15,-0.04107161749593091,0.014643328085067834,0.010246682008150447,130,249819.0,89,65.0,0,-1,0,0,0,0
1778109251.2416499,2.5538668632507324,0.4049289545003039,1.135869944163343,4.051329164537485,1.2365238554915159,1.1665901283725604,4.186663102981836,2,127,-83.1594900991212,-3.0720184209217294,-13.533393844435082,84.30949436257409,-30,29,30,0.636610587707573,-2.530315305372836,0.7393636310407805,130,249819.0,89,65.0,0,-1,0,0,0,0
1778109251.311222,2.623439073562622,0.4049289545003039,1.135869944163343,4.051329164537485,1.1181163860693666,1.2426848573753786,4.16202811775307,2,131,-71.31874315690627,-10.681491321203552,-11.069895321558487,72.95889229392107,-12,0,-30,-1.7019362888045815,1.0937517819498384,-0.35409231815876224,130,249831.0,89,65.0,0,0,0,0,0,0
1778109251.382445,2.694662094116211,0.4049289545003039,1.135869944163343,4.051329164537485,1.1954998350094677,1.3467619558860555,4.133931025561212,2,134,-79.05708805091638,-21.089201172271245,-8.260186102372735,82.23751121976335,-30,-1,-30,1.0864949048584234,1.4612845355578306,-0.3944945324344536,130,249830.00000000003,89,65.0,0,-2,0,0,0,0
1778109251.453102,2.7653191089630127,0.4049289545003039,1.135869944163343,4.051329164537485,1.2001328309850328,1.3543043448726015,4.153262163252528,2,138,-79.52038764847289,-21.843440070925844,-10.19329987150428,83.09350930226704,-30,15,-18,0.06557021954027274,0.1067464993093665,0.27359120298570694,130,249830.00000000003,89,65.0,0,-2,0,0,0,0
1778109251.5238469,2.836063861846924,0.4049289545003039,1.135869944163343,4.051329164537485,1.3872143844831124,1.1106467831212634,4.195744325859562,2,141,-98.22854299828086,2.5223161042079667,-14.441516132207699,99.31649473421558,-30,26,30,2.644458364354906,-3.4441785689911013,0.6004991306810479,120,249831.0,89,65.0,-1,-1,0,0,0,0
1778109251.595205,2.9074220657348633,0.4049289545003039,1.135869944163343,4.051329164537485,1.3078902212836068,1.2815567366612175,4.13487038923204,2,145,-90.2961266783303,-14.568679249787442,-8.354122469455483,91.84458759462596,-30,-13,-30,-1.1116334055167068,2.3950988705986793,-0.853075516350135,130,249823.99999999997,89,65.0,0,-1,0,0,0,0
1778109251.665817,2.978034019470215,0.4049289545003039,1.135869944163343,4.051329164537485,1.2467029723169212,1.1731022033314198,4.205910603673123,2,149,-84.17740178166173,-3.723225916807671,-15.458143913563838,85.66593018926105,-30,30,30,-0.8665281971379935,-1.5359231347184836,1.006064988760077,130,249823.99999999997,89,65.0,0,-1,0,0,0,0
1778109251.736969,3.0491859912872314,0.4049289545003039,1.135869944163343,4.051329164537485,1.2466113956724918,1.1684710419833262,4.186086010778874,2,152,-84.16824411721879,-3.2601097819983105,-13.475684624138928,85.30249533076784,-30,4,-1,-0.0012870570145953357,-0.065088306477348,-0.2786232396374414,120,249827.0,89,65.0,0,-1,0,0,0,0
1778109251.809108,3.1213250160217285,0.4049289545003039,1.135869944163343,4.051329164537485,1.523864150158537,0.9329409054192511,4.213376027738589,2,156,-111.89351956582331,20.292903874409195,-16.20468632011045,114.86754775486622,-30,22,30,3.843311654218445,-3.2649476123489087,0.3782975589170263,120,249838.0,88,65.0,0,-1,0,0,0,0
1778109251.8812952,3.193512201309204,0.4049289545003039,1.135869944163343,4.051329164537485,1.5344576635951177,0.7497637842940625,4.228958871506513,2,159,-112.95287090948139,38.61061598692805,-17.76297069690278,120.68410765947195,-30,19,30,0.14675060946611843,-2.537529623792793,0.21586717512071915,130,249831.0,88,64.5,-1,-1,0,0,0,0
1778109251.9519439,3.2641608715057373,0.4049289545003039,1.135869944163343,4.051329164537485,1.2462695514634117,1.1770843153731643,4.203547114497041,2,163,-84.13405969631079,-4.121437120982119,-15.221794995955573,85.59923649089104,30,3,-30,-4.079172492985546,6.048529008265335,-0.3596919367170063,130,249831.0,88,64.5,-1,-1,0,0,0,0
1778109252.0214138,3.3336308002471924,0.4049289545003039,1.135869944163343,4.051329164537485,1.3891200057232294,1.1182729889409961,4.19199616733689,2,166,-98.41910512229255,1.7596955222346944,-14.06670027994048,99.43484720242456,-30,7,22,2.0562919359175034,-0.8465724306562216,-0.16627262139766788,130,249831.0,88,64.5,-1,-1,0,0,0,0
1778109252.092021,3.404237985610962,0.4049289545003039,1.135869944163343,4.051329164537485,1.2028689394095802,1.3626840374470175,4.1478119734596435,2,170,-79.79399849092763,-22.68140932836744,-9.648280892215855,83.51417752972372,0,-5,-30,-2.6378486177303375,3.4615605656394757,-0.6257747515300103,130,249828.00000000003,88,64.5,0,-1,0,0,0,0
1778109252.1634219,3.4756388664245605,0.4049289545003039,1.135869944163343,4.051329164537485,1.2469721358007322,1.1838767078246186,4.2001720281469845,2,173,-84.20431813004284,-4.800676366127554,-14.884286360949961,85.64435571473766,-30,30,30,0.6176842062535501,-2.504273442917306,0.7333250527263642,130,249828.00000000003,88,64.5,0,-1,0,0,0,0
1778109252.2352269,3.5474438667297363,0.4049289545003039,1.135869944163343,4.051329164537485,1.2433785372602029,1.1877062148847877,4.199484842487526,2,177,-83.8449582759899,-5.183627072144459,-14.815567795004103,85.3015126888962,-30,12,-5,-0.05004663359454493,0.0533320387701887,-0.009570164425012124,130,249835.0,88,64.5,0,1,0,0,0,0
1778109252.3068511,3.619068145751953,0.4049289545003039,1.135869944163343,4.051329164537485,1.0243296909583357,1.156236680417504,4.218395060891696,2,181,-61.94007364580318,-2.0366736254160855,-16.706589635421132,64.18590888933761,19,20,8,-3.0583043807522508,-0.43936965086269625,0.2640196685024168,130,249834.0,88,64.5,0,0,0,0,0,0
1778109252.377671,3.6898880004882812,0.4049289545003039,1.135869944163343,4.051329164537485,1.3265914252731619,0.97034508609414,4.242232741146741,2,184,-92.1662470772858,16.552485806920302,-19.090357660925594,95.56695894670737,-30,23,30,4.268036632384907,-2.6248513925291626,0.33659600607478685,130,249834.0,88,64.5,0,0,0,0,0,0
1778109252.4476538,3.759870767593384,0.4049289545003039,1.135869944163343,4.051329164537485,1.133113234894318,1.2746613091435863,4.19027473815209,2,188,-72.81842803940141,-13.879136498024325,-13.894557361460524,75.42024009727886,5,-6,-30,-2.764654762625656,4.348445133534284,-0.7424399626356353,130,249835.0,88,64.5,-1,-1,0,0,0,0
1778109252.517268,3.8294849395751953,0.4049289545003039,1.135869944163343,4.051329164537485,1.1994561184997183,1.3745842992335287,4.1412105784807025,2,191,-79.45271639994145,-23.871435507018557,-8.988141394321758,83.44678700956432,-30,-7,-30,0.9530082986943244,1.4353828716952886,-0.7048013109199507,130,249832.00000000003,88,64.5,0,0,0,0,0,0
1778109252.5868108,3.8990278244018555,0.4049289545003039,1.135869944163343,4.051329164537485,1.1073885385311137,1.4483323552797622,4.129551315652007,2,195,-70.24595840308099,-31.246241111641915,-7.822215111452202,77.27877654844231,-30,4,-30,-1.3238964733500573,1.060468748601026,-0.16765572578355037,130,249832.00000000003,88,64.5,0,0,0,0,0,0
1778109252.658668,3.9708850383758545,0.4049289545003039,1.135869944163343,4.051329164537485,1.167741155783332,1.0647793369948015,4.245949736356499,2,198,-76.2812201283028,7.109060716854154,-19.462057181901393,79.04514506464079,-30,30,30,0.8398964267395104,-5.337710677507569,1.6198571342692158,130,249837.0,88,64.5,-1,0,0,0,0,0
1778109252.7308679,4.0430848598480225,0.4049289545003039,1.135869944163343,4.051329164537485,1.1300575159539095,1.2823021272892527,4.187725925770512,2,202,-72.51285614536056,-14.643218312590967,-13.639676123302724,75.22352633090627,-30,-7,-30,-0.5219353602411467,3.012788478684857,-0.8064259633721,130,249828.00000000003,88,64.5,-1,-1,0,0,0,0
1778109252.801916,4.114132881164551,0.4049289545003039,1.135869944163343,4.051329164537485,1.2509314146253614,1.204007980212235,4.1915295770876035,2,205,-84.60024601250575,-6.81380360488919,-14.020041255011861,86.02436341952628,-30,14,21,1.701298592580682,-1.1019891282855998,0.05353634410373799,130,249831.0,88,64.5,0,-1,0,0,0,0
1778109252.873626,4.185842990875244,0.4049289545003039,1.135869944163343,4.051329164537485,1.0396306991468252,0.9070250128795315,4.293219732789688,2,209,-63.47017446465213,22.884493128381155,-24.189056825220323,71.67477619365157,12,30,30,-2.9465959030185003,-4.141437916227558,1.4180727949286718,130,249833.0,88,64.5,-1,-1,0,0,0,0
1778109252.944182,4.256398916244507,0.4049289545003039,1.135869944163343,4.051329164537485,1.33612256083214,0.9989847465636664,4.233922624849252,2,212,-93.11936063318362,13.688519759967665,-18.259346031176715,95.87489043247028,-30,-5,-24,4.202224832763373,1.3033594726857152,-0.8404270460644903,130,249833.0,88,64.5,-1,-1,0,0,0,0
1778109253.014242,4.326458930969238,0.4049289545003039,1.135869944163343,4.051329164537485,1.1271442089015185,1.286857540960408,4.1843138353515315,2,216,-72.22152544012145,-15.098759679706486,-13.298467081404652,74.97179808087068,6,-4,-30,-2.982847673551109,4.1089456736171845,-0.7080899096672405,130,249836.0,88,64.5,0,-1,0,0,0,0
1778109253.08642,4.398637056350708,0.4049289545003039,1.135869944163343,4.051329164537485,1.1259198007592381,1.2898272257771861,4.183392867473546,2,220,-72.09908462589343,-15.395728161384303,-13.206370293606096,74.89802845097343,-30,12,-12,-0.01696370106329543,0.041143834106012675,-0.012759653608598815,130,249840.0,88,64.5,0,-1,0,0,0,0
1778109253.1569111,4.469128131866455,0.4049289545003039,1.135869944163343,4.051329164537485,1.0236261164574787,1.3714708643420073,4.147114243790578,2,223,-61.86971619571749,-23.560092017866417,-9.57850792530932,66.89310526582074,-25,-2,-30,-1.4511579452197174,1.158212411535453,-0.5146555562890146,130,249837.0,88,64.5,0,0,0,0,0,0
1778109253.229033,4.541249990463257,0.4049289545003039,1.135869944163343,4.051329164537485,1.0202727679122354,1.378813063998225,4.1655865326041495,2,227,-61.53438134119315,-24.294311983488193,-11.425736806666453,67.13598992619124,-30,18,-20,-0.046495592466497766,0.10180269614603818,0.2561260784589719,130,249837.0,88,64.5,0,0,0,0,0,0
1778109253.300842,4.613059043884277,0.4049289545003039,1.135869944163343,4.051329164537485,1.0950754191754606,1.458308604960508,4.12282666100719,2,230,-69.01464646751567,-32.2438660797165,-7.149749646970527,76.51017740678178,-30,-5,-30,1.0416883066909826,1.107040647036471,-0.5954663034792527,130,249840.0,88,64.5,0,0,0,0,0,0
1778109253.3734798,4.685696840286255,0.4049289545003039,1.135869944163343,4.051329164537485,1.1202704658854423,1.2933266930818166,4.1805303258745825,2,234,-71.53415113851385,-15.74567489184735,-12.920116133709758,74.37735178006838,-30,30,30,0.346858632254651,-2.2712956621877907,0.7944027452052682,140,249840.0,88,64.5,0,-1,0,0,0,0
1778109253.444423,4.7566399574279785,0.4049289545003039,1.135869944163343,4.051329164537485,1.1088001778584764,1.2934345618950431,4.1800173714524185,2,237,-70.38712233581725,-15.756461773170006,-12.868820691493355,73.26813512241512,-30,12,-12,-0.16168288748930554,0.001520497231761923,-0.007230503011860935,140,249840.0,88,64.5,0,-1,0,0,0,0
1778109253.513937,4.826153993606567,0.4049289545003039,1.135869944163343,4.051329164537485,0.9341130694463494,1.4618474895096387,4.1205030637583,2,241,-52.91841149460454,-32.597754534629566,-6.917389922081529,62.536566576254984,4,-11,-30,-2.5129760551284552,2.42271830083244,-0.8561480668626368,130,249832.00000000003,88,64.5,0,-1,0,0,0,0
1778109253.583981,4.896198034286499,0.4049289545003039,1.135869944163343,4.051329164537485,1.0153594497017149,1.3760213272684827,4.142286902268126,2,244,-61.0430495201411,-24.01513831051396,-9.095773773064142,66.22472244805768,-30,18,11,1.1599328003737426,-1.22531712060047,0.31100202527389925,130,249832.00000000003,88,64.5,-1,-1,0,0,0,0
1778109253.653961,4.966177940368652,0.4049289545003039,1.135869944163343,4.051329164537485,1.1511162636772696,1.0892674980136152,4.2558841462189045,2,248,-74.61873091769658,4.660244614972786,-20.45549816814196,77.51193642882268,-30,30,30,1.9399399281299723,-4.0976595326983025,1.6232837440138894,130,249832.00000000003,88,64.5,-1,-1,0,0,0,0
1778109253.7250361,5.037253141403198,0.4049289545003039,1.135869944163343,4.051329164537485,1.101715445274547,1.2944633468022737,4.177708322990017,2,252,-69.67864907742431,-15.859340263893063,-12.6379158452532,72.56961986790674,-30,-14,-30,-0.695049998925947,2.887024528976339,-1.0999029491438297,130,249828.00000000003,87,64.5,0,-1,0,0,0,0
1778109253.796173,5.1083900928497314,0.4049289545003039,1.135869944163343,4.051329164537485,1.1368946169463747,1.0849026397616561,4.235686497701382,2,255,-73.19656624460708,5.096730440168695,-18.43573331638968,75.65441318319729,-30,30,30,0.4945274004083308,-2.9458769708190853,0.8150219194442343,130,249831.0,87,64.5,0,0,0,0,0,0
1778109253.867459,5.179676055908203,0.4049289545003039,1.135869944163343,4.051329164537485,0.9868772683338436,0.9241016942286179,4.261929971727999,2,259,-58.19483138335397,21.176824993472522,-21.06008071905139,65.41118647780456,-10,27,30,-2.1044444400573044,-2.255716814839728,0.36814364147807205,130,249840.0,87,64.5,-1,-1,0,0,0,0
1778109253.938143,5.250360012054443,0.4049289545003039,1.135869944163343,4.051329164537485,1.0064240095889985,1.3837752615747554,4.158953355400269,2,262,-60.14950550886946,-24.79053174114123,-10.762419086278374,65.94211963198285,-30,-24,-30,0.2765371708215371,6.503223537673875,-1.4568598298980127,130,249840.0,87,64.5,-1,-1,0,0,0,0
1778109254.009326,5.321542978286743,0.4049289545003039,1.135869944163343,4.051329164537485,0.9116048279650234,1.2971015216728463,4.175795660256079,2,266,-50.66758734647194,-16.123157750950323,-12.446649571859414,54.608421593551505,-25,19,17,-1.332048756082184,-1.2176191087493655,0.23660583068211724,130,249837.0,87,64.5,0,-1,0,0,0,0
1778109254.0789728,5.391189813613892,0.4049289545003039,1.135869944163343,4.051329164537485,1.0008389024590942,1.3779223403674703,4.1386535925850225,2,269,-59.59099479587904,-24.205239620412723,-8.73244280475376,64.90944340527328,-30,-2,-30,1.2812365999821282,1.1604377760308646,-0.5332915343043377,130,249832.00000000003,87,64.5,-1,0,0,0,-1,0
1778109254.150419,5.4626359939575195,0.4049289545003039,1.135869944163343,4.051329164537485,,,,,273,,,,,0,0,0,,,,130,249832.00000000003,87,64.5,-1,0,0,0,-1,0
1778109254.221445,5.5336620807647705,0.4049289545003039,1.135869944163343,4.051329164537485,0.643329733870144,1.1557455057138426,4.17540249989216,2,276,-23.84007793698401,-1.987556155049952,-12.40733353546748,26.94887049527836,18,19,30,-2.5093246267383815,-1.5594391743506208,0.2579372676664147,130,249839.0,87,64.5,0,-1,0,0,-1,0
1778109254.292224,5.604440927505493,0.4049289545003039,1.135869944163343,4.051329164537485,0.9972332202545409,1.3780466303005015,4.138846857871387,2,280,-59.2304265754237,-24.217668613715837,-8.751769333390236,64.5858527222122,-30,-1,-30,5.0001307266395205,3.140784779963895,-0.5164769377308902,130,249828.00000000003,87,64.5,0,-1,0,0,-1,0
1778109254.364011,5.676228046417236,0.4049289545003039,1.135869944163343,4.051329164537485,0.8917602647795202,1.298440662603669,4.175400668026308,2,283,-48.683131027921625,-16.257071844032602,-12.40715034888229,52.804138203398345,-22,26,13,-1.4692462530038528,-1.108917155384128,0.5091973422120574,130,249828.00000000003,87,64.5,0,-1,0,0,-1,0
1778109254.436479,5.7486960887908936,0.4049289545003039,1.135869944163343,4.051329164537485,0.9893105485202426,1.187521605860122,4.20100884516931,2,287,-58.43815940199386,-5.165166169677882,-14.967968063182546,60.54533412075352,-30,24,30,1.3461145153850986,-1.5305927014232033,0.3533720010120125,130,249834.0,87,64.5,0,0,0,0,-1,0
1778109254.508049,5.820266008377075,0.4049289545003039,1.135869944163343,4.051329164537485,0.6952228446856303,1.004523085232794,4.230737462561859,2,291,-29.02938901853264,13.13468589305491,-17.940829802437364,36.5663612395128,30,27,30,-4.109096468670523,-2.5569194668015296,0.4153786613767277,130,249835.0,87,64.5,0,0,0,0,-1,0
1778109254.5791948,5.891411781311035,0.4049289545003039,1.135869944163343,4.051329164537485,0.7710667288781156,1.2165384441248164,4.184046642057373,2,294,-36.61377743778117,-8.06684999614733,-13.271747751988805,39.77162374754311,-30,-1,-30,1.0660350020075855,2.9800134308586763,-0.6562697765308653,130,249835.0,87,64.5,0,0,0,0,-1,0
1778109254.649748,5.961965084075928,0.4049289545003039,1.135869944163343,4.051329164537485,0.8904118254531744,1.2947112272255827,4.178584487100068,2,298,-48.54828709528705,-15.884128306223966,-12.725532256258276,52.6420068304778,-30,12,-30,1.6915593161209905,1.1079960829227862,-0.0774188414043072,130,249833.0,87,64.5,0,-1,0,0,-1,0
1778109254.7210062,6.0332231521606445,0.4049289545003039,1.135869944163343,4.051329164537485,0.8819297335030734,1.2950972429935157,4.1787889693984095,2,301,-47.700077900276945,-15.922729883017261,-12.745980486092456,51.87765200133744,-30,14,-14,-0.11903342566089425,0.0054171517458771554,0.0028696020512189307,130,249838.0,87,64.5,-1,-1,0,0,-1,0
1778109254.790606,6.10282301902771,0.4049289545003039,1.135869944163343,4.051329164537485,0.4963398374595236,0.7988644779829522,4.262875203138942,2,305,-9.141088295921968,33.700546618039084,-21.154603860145738,40.82650612124628,30,30,30,-5.540095310527245,-7.129794744555469,1.208137853210784,130,249828.00000000003,87,64.5,0,-1,0,0,-1,0
1778109254.8613288,6.173545837402344,0.4049289545003039,1.135869944163343,4.051329164537485,0.7596296951401558,1.2129378295701656,4.18741155001124,2,308,-35.47007406398519,-7.706788540682252,-13.608238547375517,38.76473784353072,-30,-11,-30,3.722841704157347,5.85487627760787,-1.067034019034072,130,249828.00000000003,87,64.5,0,-1,0,0,-1,0
1778109254.9315772,6.243794202804565,0.4049289545003039,1.135869944163343,4.051329164537485,0.8057844469849056,1.394492613907476,4.153997145242805,2,312,-40.08554924846017,-25.862266974413295,-10.26679807053199,48.7966725733183,-30,1,-30,0.6570224314897742,2.584469877665916,-0.47566095776199374,130,249835.0,87,64.5,0,-1,0,0,-1,0
1778109255.003598,6.315814971923828,0.4049289545003039,1.135869944163343,4.051329164537485,0.7987079371279876,1.391707284545259,4.155867304131241,2,315,-39.37789826276837,-25.583734038191587,-10.45381395937559,48.108508033684586,-30,13,-20,-0.0982565160502473,-0.03867397413660954,0.02596693858321778,130,249837.0,87,64.5,0,-1,0,0,-1,0
1778109255.075878,6.388094902038574,0.4049289545003039,1.135869944163343,4.051329164537485,0.7482552929061848,1.2155655198679645,4.210799194129834,2,319,-34.33263384058808,-7.969557570462138,-15.94700295923488,38.68527494645282,-30,30,30,-0.6980173354028993,-2.436938779515493,0.7599881448610591,130,249837.0,87,64.5,0,-1,0,0,-1,0
1778109255.146678,6.458894968032837,0.4049289545003039,1.135869944163343,4.051329164537485,0.6891797744253445,1.320903404057069,4.1624669097624105,2,323,-28.425081992504058,-18.503345989372598,-11.113774522492559,35.69138668110016,-26,-3,-30,-0.8343992007807938,1.4878218361779592,-0.6826587473991879,130,249834.0,87,64.5,0,-1,0,0,-1,0
1778109255.21745,6.529666900634766,0.4049289545003039,1.135869944163343,4.051329164537485,0.632974952517104,1.4245451959820081,4.130796217886511,2,326,-22.80459980168001,-28.867525181866505,-7.946705334902582,37.636868997304354,-23,0,-30,-0.7941682506308833,1.4644476717612562,-0.4475035612498826,130,249835.0,87,64.5,0,-1,0,0,-1,0
1778109255.287905,6.600121974945068,0.4049289545003039,1.135869944163343,4.051329164537485,0.5579144636049278,1.2711303898445387,4.17479699678596,2,330,-15.298550910462389,-13.526044568119566,-12.346783224847524,23.862996409087913,-12,30,30,-1.0653666843297902,-2.1774841292735014,0.6245224965012227,130,249835.0,87,64.5,0,-1,0,0,-1,0
1778109255.357537,6.6697540283203125,0.4049289545003039,1.135869944163343,4.051329164537485,0.6331088694019722,0.9803637010127909,4.263495383104535,2,333,-22.81799149016683,15.550624315055217,-21.216621856704965,34.82280424152718,-30,30,30,1.079882067987066,-4.175759219174806,1.2738154631256187,130,249842.0,87,64.5,-1,-1,0,0,-2,0
1778109255.427972,6.740189075469971,0.4049289545003039,1.135869944163343,4.051329164537485,0.5924581423235815,1.1337923147876234,4.234626651281956,2,337,-18.75291878232776,0.20776293757196473,-18.3297486744471,26.223935912887008,-26,8,-30,-0.577137784716993,2.1782992982006837,-0.4098631716855285,130,249836.0,87,64.5,0,-1,0,0,-2,0
1778109255.4986172,6.810834169387817,0.4049289545003039,1.135869944163343,4.051329164537485,0.5756929934887345,1.1298779113518698,4.235111599870787,2,340,-17.076403898843058,0.5992032811473313,-18.378243533330174,25.09427125977067,-30,18,-1,-0.23731511850409961,-0.0554094165449866,0.006864575612210165,130,249836.0,87,64.5,0,0,0,0,-2,0
1778109255.569448,6.881664991378784,0.4049289545003039,1.135869944163343,4.051329164537485,0.30644202046878444,1.0736656665079773,4.174546726835129,2,344,9.848693403151948,6.220427765536574,-12.321756229764436,16.956301481198242,30,-6,20,-3.8013249804483165,-0.7936127700319684,-0.8550638173220882,130,249836.0,87,64.5,0,0,0,0,-2,0
1778109255.64159,6.95380711555481,0.4049289545003039,1.135869944163343,4.051329164537485,0.5416284414194579,1.2437517142889094,4.190881504251595,2,347,-13.669948691915396,-10.788177012556632,-13.95523397141103,22.315931880400587,-30,21,-30,3.2600429171841836,2.357652338679762,0.22642495772108676,130,249840.0,87,64.5,-1,-1,0,0,-2,0
1778109255.7143,7.026516914367676,0.4049289545003039,1.135869944163343,4.051329164537485,0.41931342875569555,1.0796035195455942,4.21691665956854,2,351,-1.4384474255391633,5.626642461774889,-16.558749503105474,17.547661425252205,11,26,30,-1.6822356086910026,-2.2575800981898566,0.35806941763037103,130,249840.0,86,64.5,0,-1,0,0,-2,0
1778109255.78469,7.096906900405884,0.4049289545003039,1.135869944163343,4.051329164537485,0.5267062603743435,1.2256650809189242,4.200253146262214,2,354,-12.177730587403962,-8.979513675558115,-14.892398172472898,21.229986138394047,-30,10,-30,1.5256833771831502,2.075033248252772,-0.23673130574682497,130,249840.0,86,64.5,0,-1,0,0,-2,0
1778109255.854316,7.16653299331665,0.4049289545003039,1.135869944163343,4.051329164537485,0.2779400746046825,1.0533006863779129,4.184504294248724,2,358,12.698887989562142,8.256925778543023,-13.317512971123868,20.169152962379613,30,10,30,-3.5728873382064092,-2.475571834282229,-0.22619181049946555,130,249842.0,86,64.5,0,0,0,0,-2,0
1778109255.9244459,7.236662864685059,0.4049289545003039,1.135869944163343,4.051329164537485,0.39124601466990405,1.1863412901537744,4.1802975561373685,2,361,1.3682939830399865,-5.047134599043135,-12.89683915998836,13.916689850804717,-30,14,-30,1.6156587464705248,1.8970604277451038,-0.05998496830624606,130,249835.0,86,65.0,0,0,0,0,-1,0
1778109255.9959638,7.308180809020996,0.4049289545003039,1.135869944163343,4.051329164537485,0.38207882276420047,1.182404870968619,4.181839936088069,2,365,2.285013173610345,-4.653492680527593,-13.051077155058444,14.043037215594964,-25,16,-5,-0.12818030482871565,-0.055041000153263346,0.02156633506488796,130,249835.0,86,65.0,0,0,0,0,-1,0
1778109256.0678442,7.380061149597168,0.4049289545003039,1.135869944163343,4.051329164537485,0.3597901100202391,1.2899938310072339,4.1577135141590595,2,369,4.5138844480064835,-15.412388684389079,-10.638434962157461,19.26377886637753,-19,6,-30,-0.3100807893410292,1.4967786626525845,-0.3356470174684684,130,249834.0,86,65.0,0,0,0,0,-1,0
1778109256.140089,7.452306032180786,0.4049289545003039,1.135869944163343,4.051329164537485,0.2486399784089297,1.1552742655456685,4.172684602786,2,372,15.628897609137422,-1.9404321382325396,-12.135543824851514,19.88213120580585,18,20,30,-1.5385190983272932,-1.8647627436536747,0.20722697707498633,130,249831.0,86,65.0,0,1,0,0,-1,0
1778109256.212497,7.52471399307251,0.4049289545003039,1.135869944163343,4.051329164537485,0.4924586456257283,1.1840732404153314,4.203287813732034,2,376,-8.752969112542436,-4.820329625198827,-15.195864919454927,18.186928180179642,-30,28,-17,3.367290891969691,0.39773216252737553,0.4226498104510513,130,249831.0,86,65.0,0,1,0,0,-1,0
1778109256.2819881,7.594205141067505,0.4049289545003039,1.135869944163343,4.051329164537485,0.34227645418089037,1.2723563965209164,4.169639721856029,2,379,6.265250031941355,-13.648645235757328,-11.831055731854434,19.118387862593124,27,3,-30,-2.16117010263889,1.2704230488744168,-0.4842068788161094,130,249831.0,86,65.0,0,-1,0,0,-1,0
1778109256.3525498,7.664766788482666,0.4049289545003039,1.135869944163343,4.051329164537485,0.13222046387729924,1.1349003451024724,4.120212992869205,2,383,27.270849062300467,0.0969599060870685,-6.888382833172013,28.127538602915497,30,-5,30,-2.976914485395897,-1.948027809068835,-0.7004758363422819,130,249830.00000000003,86,65.0,0,-1,0,0,-1,0
1778109256.423077,7.7352941036224365,0.4049289545003039,1.135869944163343,4.051329164537485,0.2321308696993264,1.1295448750802919,4.165940084105202,2,386,17.279808480097753,0.6325069083051194,-11.461091956771696,20.744842128574728,-30,30,-1,1.4166200091982155,-0.07593469298479713,0.6483600169009017,130,249832.00000000003,86,65.0,-1,0,0,0,-1,0
1778109256.492527,7.804744005203247,0.4049289545003039,1.135869944163343,4.051329164537485,0.22597363706955942,1.1254642324340502,4.168209824344611,2,390,17.89553174307445,1.0405711729292833,-11.688065980712636,21.39961988220372,-16,16,-1,-0.08865718294218945,-0.058756636846972105,0.03268169122987706,130,249838.0,86,65.0,0,0,0,0,-1,0
1778109256.564506,7.876723051071167,0.4049289545003039,1.135869944163343,4.051329164537485,0.4226792796518427,1.3692052755216597,4.144645403616706,2,393,-1.7750325151538793,-23.333533135831665,-9.331623907922104,25.192929837351414,-30,5,-30,2.7328181446477373,3.3862777722126145,-0.3273788981746931,130,249838.0,86,65.0,0,0,0,0,-1,0
1778109256.6352892,7.9475061893463135,0.4049289545003039,1.135869944163343,4.051329164537485,0.3094050679720369,1.2166751577165864,4.104296888966896,0,397,9.552388652826703,-8.080521355324333,-5.296772442941133,13.586712356593319,16,-2,30,-1.600299371292201,-2.1548934043043126,-0.5700300330421625,130,249827.0,86,65.0,0,0,0,0,-1,0
1778109256.706802,8.01901888847351,0.4049289545003039,1.135869944163343,4.051329164537485,0.3194830983345461,1.2239560024663625,4.099985846505684,0,401,8.544585616575784,-8.808605830301941,-4.86566819681995,13.201371407326143,-27,10,-13,0.1409264436318331,0.10181191366900984,-0.060283593177540756,130,249832.00000000003,86,65.0,-1,-1,0,0,-1,0
1778109256.777643,8.089859962463379,0.4049289545003039,1.135869944163343,4.051329164537485,0.3159939580693375,1.2310794043179247,4.095984373696786,0,404,8.893499643096641,-9.520946015458165,-4.46552091593011,13.772567878999112,-22,9,-13,-0.04925306843467115,0.10055468459697607,-0.05648520813604121,130,249833.0,86,65.0,0,-1,0,0,0,0
1778109256.848212,8.160429000854492,0.4049289545003039,1.135869944163343,4.051329164537485,0.26235363167797054,1.3837881178830633,4.027179468352869,0,408,14.257532282233337,-24.791817371972023,2.4149696184616154,28.70093227827682,-1,-17,-30,-0.7601113408131951,2.163961944879911,-0.9750013166196384,130,249833.0,86,65.0,0,-1,0,0,0,0
1778109256.919155,8.231371879577637,0.4049289545003039,1.135869944163343,4.051329164537485,0.24844447592548213,1.1136987229777666,4.122723158365701,0,411,15.648447857482179,2.217122118557646,-7.139399382821576,17.342450068671646,-14,30,30,-0.19606133840112502,-3.807138923123263,1.346769284422364,130,249831.0,86,65.0,0,0,0,0,0,0
1778109256.990842,8.303059101104736,0.4049289545003039,1.135869944163343,4.051329164537485,0.23979900840646076,1.1171787847187507,4.120701391097228,0,415,16.512994609384315,1.8691159444592431,-6.9372226559742955,18.008265978765152,-16,12,-4,-0.1205998410156427,0.0485450777258605,-0.0282026172224924,130,249823.99999999997,86,65.0,0,-1,0,0,0,0
1778109257.058761,8.370977878570557,0.4049289545003039,1.135869944163343,4.051329164537485,0.23063674894303,1.1169278065995418,4.119998177935941,0,418,17.429220555727394,1.8942137563801253,-6.8669013398456435,18.828704388412493,-15,12,-3,-0.13490024121888267,-0.0036952685041353314,-0.01035373703009315,130,249823.99999999997,86,65.0,0,-1,0,0,0,0
1778109257.1252108,8.437427759170532,0.4049289545003039,1.135869944163343,4.051329164537485,0.33022722362211393,0.8998133380133355,4.155882571066498,0,422,7.470173087818999,23.605660615000758,-10.455340652901324,26.87647386099568,-30,28,30,1.498730679120596,-3.267341741262453,0.540021935427977,130,249832.00000000003,86,65.0,0,0,0,0,0,0
1778109257.19693,8.509146928787231,0.4049289545003039,1.135869944163343,4.051329164537485,0.23070331505207162,1.1224966829573886,4.096410646190883,0,425,17.42256394482323,1.33732612059545,-4.508148165339776,18.04598502285031,16,-9,-30,-1.3876890809241744,3.1049347912723615,-0.8292333164684038,130,249823.0,86,65.0,-1,0,0,0,-1,0
1778109257.268547,8.580764055252075,0.4049289545003039,1.135869944163343,4.051329164537485,0.11094642544052002,1.2112184161403268,4.087471425129536,0,429,29.39825290597839,-7.534847197698369,-3.6142260592050945,30.562948585232526,30,7,-30,-1.672182277102939,1.2388340270324996,-0.12481959976061037,130,249823.0,86,65.0,-1,0,0,0,-1,0
1778109257.339803,8.65201997756958,0.4049289545003039,1.135869944163343,4.051329164537485,0.14163138238845213,0.9917899435656952,4.140916167925877,0,432,26.32975721118518,14.408000059764792,-8.958700338839165,31.322593958407356,-23,30,30,0.43063026833341506,-3.0794418967295627,0.7500393098302701,130,249830.00000000003,86,65.0,0,0,0,0,-1,0
1778109257.4111528,8.723369836807251,0.4049289545003039,1.135869944163343,4.051329164537485,0.309564246213968,0.9114806287302011,4.111940085109946,0,436,9.536470828633592,22.4389315433142,-6.061092057246142,25.123430530031776,-30,2,30,2.353653750964257,-1.1255707536573922,-0.4061126836902237,130,249829.0,86,65.0,-1,0,0,0,-1,0
1778109257.481164,8.793380975723267,0.4049289545003039,1.135869944163343,4.051329164537485,0.10211201801260826,1.216218994042597,4.062322752088171,0,439,30.281693648769565,-8.034904987925383,-1.0993587550686357,31.34883184546539,30,-7,-30,-2.96313174465304,4.352712583035618,-0.7087062686024194,130,249829.0,86,65.0,-1,0,0,0,-1,0
1778109257.55151,8.86372709274292,0.4049289545003039,1.135869944163343,4.051329164537485,0.48211732933434265,0.8922005664690654,4.098168313311475,0,443,-7.718837483403873,24.366937769427764,-4.683914877398987,25.985903234890362,-30,24,30,5.401937269907426,-4.6060598836323425,0.5095599123586163,130,249830.00000000003,86,65.0,0,1,0,0,-1,0
1778109257.6211278,8.933344841003418,0.4049289545003039,1.135869944163343,4.051329164537485,0.10420611527611803,1.2208765345400374,4.059214445266123,0,446,30.072283922418585,-8.500659037669433,-0.7885280728638477,31.260602056053894,30,-4,-30,-5.42837456684384,4.721151951670731,-0.5595393275230979,120,249828.00000000003,86,65.0,-1,0,0,0,-1,0
1778109257.6921961,9.00441312789917,0.4049289545003039,1.135869944163343,4.051329164537485,0.13972371454637122,1.0093876864734095,4.112142258202872,0,450,26.52052399539327,12.64822576899336,-6.081309366538701,30.004968450328505,-24,30,30,0.49976720731080726,-2.9758540314452055,0.7447458669488802,120,249828.00000000003,86,65.0,-1,0,0,0,-1,0
1778109257.762985,9.075201988220215,0.4049289545003039,1.135869944163343,4.051329164537485,0.13570981683923014,1.0146922023945395,4.110148188422307,0,453,26.921913766107373,12.117774176880358,-5.881902388482185,30.10359891340606,-10,11,2,-0.056702391999773255,0.07493433143396756,-0.028169259563179255,120,249831.0,85,65.0,0,0,0,0,-1,0
1778109257.8335419,9.145758867263794,0.4049289545003039,1.135869944163343,4.051329164537485,0.007190771263800091,1.3069066837558991,4.0211018199123,0,457,39.77381832365038,-17.103673959255605,3.022734462518528,43.40079734956678,30,-24,-30,-1.8214956120161,4.141544882971295,-1.2620508406417479,120,249834.0,85,65.0,-1,-1,0,0,-1,0
1778109257.904874,9.217091083526611,0.4049289545003039,1.135869944163343,4.051329164537485,0.17867984219779748,1.3196634316633524,4.009207906086515,0,461,22.624911230250643,-18.379348750000936,4.212125845096981,29.452148865334372,-30,2,-21,2.4040900440014474,0.1788357151339888,-0.16673972082911925,120,249823.99999999997,85,65.5,0,0,0,0,-1,0
1778109257.977338,9.289555072784424,0.4049289545003039,1.135869944163343,4.051329164537485,0.010880759744698008,1.122122082829868,4.075799595730909,0,464,39.40481947556059,1.3747861333475164,-2.447043119342407,39.50465611598062,30,30,30,-2.3156202711405194,-2.7260622946201813,0.9189625126416082,120,249823.99999999997,85,65.5,0,0,0,0,-1,0
1778109258.050055,9.362272024154663,0.4049289545003039,1.135869944163343,4.051329164537485,0.0045599556888220975,1.1290984405157674,4.072670004103272,0,468,40.03689988114818,0.6771503647575727,-2.134083956578703,40.09945384968854,0,9,-6,-0.0869233918195148,0.09593853364917934,-0.04303799277423893,120,249827.0,85,65.5,0,0,0,0,-1,0
1778109258.120882,9.433099031448364,0.4049289545003039,1.135869944163343,4.051329164537485,0.004541528187337576,1.130852363006749,4.071656341704475,0,471,40.038742631296635,0.5017581156594009,-2.0327177166990396,40.09344851740273,-2,9,-4,-0.0002601761981571107,0.024763470291899507,-0.014311806153170343,120,249821.0,85,65.5,1,0,0,0,-1,0
1778109258.190808,9.50302505493164,0.4049289545003039,1.135869944163343,4.051329164537485,-0.15754946107832485,1.3313703803058954,4.004095846034631,0,475,56.24784155786288,-19.55004361425523,4.723331850285373,59.73553171275575,30,-17,-30,-2.318035277730735,2.8675735771976587,-0.9661709947799622,120,249821.0,85,65.5,1,0,0,0,-1,0
1778109258.2623858,9.574602842330933,0.4049289545003039,1.135869944163343,4.051329164537485,0.011492165878031075,1.1329689224763118,4.070466960096706,0,478,39.343678862227286,0.29010216870313243,-1.9137795559220905,39.391265248415436,-30,30,30,2.3616492364225827,-2.771829991374476,0.92725853192175,120,249827.0,85,65.5,-1,0,0,0,0,0
1778109258.3329542,9.645171165466309,0.4049289545003039,1.135869944163343,4.051329164537485,0.1041721757132694,1.238765994842085,4.047296846447264,0,482,30.075677878703456,-10.289605067874197,0.40323180902213096,31.789699089613322,-30,0,-30,1.3133372838893167,1.4992147703838112,-0.3283358966174302,120,249814.0,85,65.5,0,0,0,0,0,0
1778109258.403994,9.716211080551147,0.4049289545003039,1.135869944163343,4.051329164537485,0.008173175674020178,1.3177580167389626,4.012938683915487,0,485,39.675577882628374,-18.188807257561955,3.8390480621997902,43.81463773440479,30,-5,-30,-1.351338890602602,1.1119385742866104,-0.4836458840180851,120,249814.0,85,65.5,0,0,0,0,0,0
1778109258.4771972,9.789414167404175,0.4049289545003039,1.135869944163343,4.051329164537485,,,,,489,,,,,0,0,0,,,,120,249826.00000000003,85,65.5,0,0,0,0,0,0
1778109258.546803,9.859019994735718,0.4049289545003039,1.135869944163343,4.051329164537485,-0.12284523006979355,1.0343747992988481,4.080827520648855,0,493,52.77741845700975,10.149514486449496,-2.949835611136997,53.82536644956255,29,22,30,-0.9174385681168461,-1.9843524408697764,0.47538234655034495,120,249823.99999999997,85,65.5,0,0,0,0,0,0
1778109258.617114,9.929331064224243,0.4049289545003039,1.135869944163343,4.051329164537485,0.005585069375882949,1.138750822580926,4.067120463872452,0,496,39.9343885124421,-0.28808784175828883,-1.5791299334966702,39.966636483623454,-30,5,-30,1.826601421084002,1.4844891997996386,-0.1949487737295794,120,249836.0,85,65.5,0,-1,0,0,0,0
1778109258.688283,10.000499963760376,0.4049289545003039,1.135869944163343,4.051329164537485,0.010487058835999536,1.1371715270446527,4.067256891291322,0,500,39.44418956643044,-0.13015828813096597,-1.5927726753837135,39.476549450628504,-2,10,-3,0.06887825288949173,-0.022190810123056803,0.0019169527667231663,120,249836.0,85,65.5,0,-1,0,0,0,0
1778109258.759299,10.071516036987305,0.4049289545003039,1.135869944163343,4.051329164537485,-0.09040254734179594,1.240120938725778,4.02526355202498,0,503,49.53315018420999,-10.425099456243503,2.606561251250472,50.685400535071146,30,-7,-30,-1.4206587550315155,1.4496635339461124,-0.5913216171802966,120,249830.00000000003,85,65.5,0,0,0,0,0,0
1778109258.831771,10.143987894058228,0.4049289545003039,1.135869944163343,4.051329164537485,-0.09040260345319094,1.2405231181813114,4.024984493105133,0,507,49.53315579534949,-10.465317401796836,2.6344671432352307,50.69513594513286,5,7,-11,-7.742508232913013e-07,0.005549457013910275,-0.0038505832626103582,120,249826.00000000003,85,65.5,0,0,0,0,0,0
1778109258.903518,10.215734958648682,0.4049289545003039,1.135869944163343,4.051329164537485,0.003925313141414392,1.1349412425576666,4.0479038443523665,0,510,40.10036413588895,0.09287016056764852,0.342532018511843,40.10193457778962,-30,16,30,1.3147285834346958,-1.4715846038625593,0.31944653593930145,120,249826.00000000003,85,65.5,0,0,0,0,0,0
1778109258.975359,10.287575960159302,0.4049289545003039,1.135869944163343,4.051329164537485,0.0095022552988028,1.1417913361063587,4.065313495786336,0,514,39.54266992015011,-0.5921391943015664,-1.3984331248851234,39.57182063595443,-2,15,-7,0.07762895895269471,0.09535075242067043,0.2423358676506762,120,249819.0,85,65.0,0,0,0,0,0,0
1778109259.0465229,10.358739852905273,0.4049289545003039,1.135869944163343,4.051329164537485,-0.08305548631878071,1.240726386754565,4.024717787544265,0,518,48.798444081908464,-10.485644259122196,2.6611376993219693,49.983182513709174,30,-6,-30,-1.300627861210176,1.3902422539105217,-0.5704537325829312,120,249826.00000000003,85,65.0,0,1,0,0,0,0
1778109259.1170602,10.429277181625366,0.4049289545003039,1.135869944163343,4.051329164537485,-0.09109986341716206,1.2422102241618176,4.023750827434858,0,521,49.6028817917466,-10.63402799984745,2.7578337102626804,50.804862762544566,9,6,-12,-0.11404425492639736,0.021036200748978422,-0.013708487788702858,120,249826.00000000003,85,65.0,0,1,0,0,0,0
1778109259.197262,10.50947904586792,0.4049289545003039,1.135869944163343,4.051329164537485,0.003328420294045249,1.14303194525159,4.064467853135812,0,525,40.16005342062587,-0.7162001088246939,-1.3138688598327342,40.18792212498977,-28,22,25,1.1773826531716116,-1.236608149285454,0.507681786271377,120,249825.0,85,65.0,0,0,0,0,0,0
1778109259.267966,10.580183029174805,0.4049289545003039,1.135869944163343,4.051329164537485,0.0087230041601928,1.1432017018652585,4.06448237561454,0,529,39.62059503401111,-0.7331757701915409,-1.315321107705536,39.64920134347574,0,9,-5,0.07629816049730619,0.0024009483727621935,0.00020539831065789988,120,249836.0,85,65.0,0,0,0,0,0,0
1778109259.3387752,10.650992155075073,0.4049289545003039,1.135869944163343,4.051329164537485,-0.15778492070832323,1.3401841441940894,3.9971388780628154,0,532,56.27138752086272,-20.431420003074628,5.41902864746695,60.11054689775504,30,-18,-30,-2.3515037468904065,2.7818793103910324,-0.9510567556867617,120,249825.0,85,65.0,0,1,0,0,0,0
1778109259.409813,10.7220299243927,0.4049289545003039,1.135869944163343,4.051329164537485,,,,,536,,,,,0,0,0,,,,120,249825.0,85,65.0,0,1,0,0,0,0
1778109259.479279,10.79149603843689,0.4049289545003039,1.135869944163343,4.051329164537485,-0.11914498536432962,1.0462003874877916,4.096883667179366,0,539,52.407393986463354,8.966955667555144,-4.55545026418811,53.363783275792834,2,29,30,0.2750097322540942,-2.0923532479828335,0.7099077031180295,120,249829.0,85,65.0,0,0,0,0,0,0
1778109259.548974,10.861191034317017,0.4049289545003039,1.135869944163343,4.051329164537485,-0.019702276426203414,0.8930331625078589,4.140564411778841,0,543,42.46312309265073,24.283678165548416,-8.923524724135579,49.72366782058419,-30,30,30,1.4268271011761635,-2.1976789444593012,0.6267414761685918,120,249825.0,85,65.0,0,0,0,0,0,0
1778109259.618885,10.93110203742981,0.4049289545003039,1.135869944163343,4.051329164537485,-0.19829161023115552,1.1810242935610433,4.066302378264737,0,546,60.32205647314595,-4.515434939770024,-1.4973213727252244,60.50935151807466,30,-16,-30,-2.5545239783903506,4.119396350078763,-1.0622367039175609,120,249825.0,85,65.0,0,0,0,0,0,0
1778109259.6911218,11.003338813781738,0.4049289545003039,1.135869944163343,4.051329164537485,-0.2020497068225478,1.179776467546307,4.06640312403786,0,550,60.69786613228517,-4.390652338296386,-1.5073959500375267,60.87512647640897,16,10,-7,-0.052024699622299025,-0.017274109916770523,0.001394660423829023,120,249821.99999999997,85,65.0,0,1,0,0,0,0
1778109259.760768,11.07298493385315,0.4049289545003039,1.135869944163343,4.051329164537485,-0.20188650842402092,1.179678335445174,4.066426714346008,0,553,60.681546292432486,-4.3808391281831005,-1.509754980852307,60.85820546162903,15,10,-7,0.0023432518331178705,-0.0014090103085747467,0.00033871676015282233,120,249829.0,84,65.0,-1,0,0,0,0,0
1778109259.83263,11.14484691619873,0.4049289545003039,1.135869944163343,4.051329164537485,,,,,557,,,,,0,0,0,,,,120,249830.00000000003,84,65.0,-1,-1,0,0,0,0
1778109259.9043531,11.216570138931274,0.4049289545003039,1.135869944163343,4.051329164537485,-0.12650779900851,1.052560103551634,4.114288359130208,0,560,53.143675350881395,8.330984061170899,-6.295919459272348,54.15989408284516,-1,21,23,0.5249754623012671,-0.8853156690090369,0.3333327048435024,120,249830.00000000003,84,65.0,-1,-1,0,0,0,0
1778109259.975478,11.287694931030273,0.4049289545003039,1.135869944163343,4.051329164537485,-0.12347162686731653,1.0532716656003314,4.115512430714247,0,564,52.840058136762046,8.259827856301172,-6.418326617676229,53.86549374769801,10,13,1,0.04268795804657553,0.010004416571184347,0.01721019560008018,120,249826.00000000003,84,65.5,0,0,0,0,0,0
1778109260.046347,11.358563899993896,0.4049289545003039,1.135869944163343,4.051329164537485,-0.28639215068232604,0.9805856233207951,4.129025972158446,0,568,69.132110518263,15.528432084254796,-7.769680762096076,71.27937181856706,30,18,30,-2.2988978984389687,-1.0256399005444243,0.19068347743474237,120,249826.00000000003,84,65.5,0,0,0,0,0,0
1778109260.116588,11.428805112838745,0.4049289545003039,1.135869944163343,4.051329164537485,-0.28620678063545596,0.9805314424444277,4.129061896976925,0,571,69.11357351357599,15.533850171891538,-7.77327324394399,71.26296599149002,22,13,6,0.002639049631439787,-0.0007713545107359486,0.000511449290582302,120,249832.00000000003,84,65.5,0,0,0,0,0,0
1778109260.187978,11.500195026397705,0.4049289545003039,1.135869944163343,4.051329164537485,-0.12288617391303877,1.0532851801864387,4.1155660774712235,0,575,52.78151284133427,8.25847639769044,-6.423691293373857,53.80849691325442,-30,8,-23,2.2877266350453405,1.0191038777757402,-0.1890437854999687,120,249825.0,84,65.5,0,0,0,0,0,0
1778109260.259466,11.571682929992676,0.4049289545003039,1.135869944163343,4.051329164537485,-0.08383863950554296,1.2549870676802617,4.060232989292717,0,578,48.87675940058469,-11.911712351691861,-0.8903824755232215,50.31519930999788,-2,-9,-30,0.546211770717569,2.821482759329553,-0.7740202942865306,120,249828.00000000003,84,65.5,0,1,0,0,0,0
1778109260.3309681,11.643185138702393,0.4049289545003039,1.135869944163343,4.051329164537485,-0.09187299741290843,1.2561186336483043,4.059479573424227,0,582,49.68019519132124,-12.024868948496126,-0.81504088867419,51.12126327788169,14,9,-13,-0.11236517098350329,0.015825608585555106,-0.010536959376304262,120,249833.0,84,65.5,0,0,0,0,0,0
1778109260.4013739,11.713590860366821,0.4049289545003039,1.135869944163343,4.051329164537485,-0.20406900582907148,1.1864796148913888,4.085303546640689,0,585,60.89979603293754,-5.0609670728045675,-3.3974382103203915,61.20409407023645,30,20,16,-1.5935637866325312,-0.9891102187522851,0.36678799117414823,120,249833.0,84,65.5,0,0,0,0,0,0
1778109260.473784,11.786000967025757,0.4049289545003039,1.135869944163343,4.051329164537485,-0.1219843947812411,1.053090029015754,4.115865419486983,0,589,52.6913349281545,8.277991514758899,-6.453625494949833,53.72663401012985,-14,23,30,1.1336071003798331,-1.842140441857423,0.42206639730895934,120,249835.0,84,65.5,0,0,0,0,0,0
1778109260.5453498,11.857566833496094,0.4049289545003039,1.135869944163343,4.051329164537485,-0.11953920947566732,1.0533129165616062,4.114870261310174,0,593,52.44681639759712,8.255702760173689,-6.3541096772689265,53.47148668307591,13,12,1,0.03416692099420432,0.0031144392829293077,-0.013905486314785876,120,249839.0,84,65.5,0,0,0,0,0,0
1778109260.615159,11.92737603187561,0.4049289545003039,1.135869944163343,4.051329164537485,-0.12443082252697465,1.0521246624781488,4.114791960083289,0,596,52.935977702727854,8.374528168519424,-6.346279554580381,53.96874763762738,16,13,2,-0.0700711820914224,-0.01702145435043427,-0.0011216462687305808,130,249838.0,84,65.5,-1,0,0,0,0,0
1778109260.6847382,11.996955156326294,0.4049289545003039,1.135869944163343,4.051329164537485,0.004371097886148426,1.1488988830905384,4.083609779845392,0,600,40.05578566141555,-1.3028938927195366,-3.2280615307906935,40.20676409132573,-30,0,-30,1.851157533671116,1.3908513706719807,-0.4481542486209097,130,249838.0,84,65.5,-1,0,0,0,0,0
1778109260.756018,12.068234920501709,0.4049289545003039,1.135869944163343,4.051329164537485,-0.19967466232494266,1.178856006337427,4.067315267835122,0,603,60.460361682524656,-4.298606217408385,-1.5986103297636944,60.634057304294465,30,4,-17,-2.862604310936653,0.4202752856079304,-0.22859940964689804,130,249842.99999999997,84,65.5,0,0,0,0,0,0
1778109260.8261151,12.13833212852478,0.4049289545003039,1.135869944163343,4.051329164537485,0.004729433866822443,1.148326288211993,4.083947102532807,0,607,40.01995206334815,-1.2456344048649814,-3.261793799532242,40.171973650966336,-30,17,5,2.9160090958899394,-0.4355340103615212,0.23726814757317288,130,249830.00000000003,84,65.5,0,0,0,0,0,0
1778109260.897912,12.210129022598267,0.4049289545003039,1.135869944163343,4.051329164537485,-0.15544053009685957,1.3396013698238587,3.9979744400504016,0,610,56.03694845971635,-20.373142566051563,5.335472448708334,59.86377700199424,30,-24,-30,-2.2308759456884464,2.664113595444531,-1.1974426413823709,130,249830.00000000003,84,65.5,0,0,0,0,0,0
1778109260.966748,12.27896499633789,0.4049289545003039,1.135869944163343,4.051329164537485,-0.19896540199983395,1.1775679692507453,4.068219713294292,0,614,60.38943565001379,-4.169802508740217,-1.6890548756807178,60.556784074636205,30,30,30,-0.6322983396386558,-2.3539058397868238,1.0204732994639873,130,249825.0,84,65.5,0,1,0,0,0,0
1778109261.0383239,12.35054087638855,0.4049289545003039,1.135869944163343,4.051329164537485,-0.08533872845174839,1.2468478354601618,4.042632738359281,0,617,49.02676829520523,-11.097789129681868,0.869642617820432,50.2746577444477,-25,0,-30,1.5874994965854998,0.9679219614258655,-0.35748040983780893,130,249821.99999999997,84,65.5,0,0,0,0,0,0
1778109261.109853,12.422070026397705,0.4049289545003039,1.135869944163343,4.051329164537485,-0.19211891747338605,1.168919876358855,4.050430935183502,0,621,59.704787197369,-3.3049932195512,0.08982293539832042,59.79625960395951,30,12,20,-1.492820605417099,-1.089457362366705,0.1090212427132574,130,249821.99999999997,84,65.5,0,0,0,0,0,0
1778109261.17925,12.491466999053955,0.4049289545003039,1.135869944163343,4.051329164537485,-0.19658073645117138,1.1720978593466103,4.049473409021376,0,624,60.15096909514753,-3.622791518326718,0.185575551610917,60.26025339936773,23,9,-8,-0.06429414435535169,0.04579425969338685,-0.013797808830494127,120,249826.00000000003,84,65.5,0,1,0,0,0,0
1778109261.2495492,12.561766147613525,0.4049289545003039,1.135869944163343,4.051329164537485,-0.08018219915464458,1.2387316380957087,4.026468036038979,0,628,48.51111536549485,-10.286169393236566,2.4861128498505636,49.65193200564203,-26,0,-30,1.6557602713764399,0.9478603953877783,-0.3272496673683338,120,249832.00000000003,84,65.5,0,0,0,0,1,0
1778109261.320485,12.632702112197876,0.4049289545003039,1.135869944163343,4.051329164537485,-0.08835014816601042,1.2394569892087963,4.02601960950188,0,631,49.327910266631434,-10.358704504545324,2.530955503560506,50.46732830303517,18,7,-12,-0.1151453858310935,0.010225435254708613,-0.006321568187970353,120,249828.00000000003,84,65.5,0,1,0,0,1,0
1778109261.392359,12.704576015472412,0.4049289545003039,1.135869944163343,4.051329164537485,0.009332619068455943,1.1321684777941146,4.048524294298318,0,635,39.559633543184795,0.3701466369228523,0.2804870239167201,39.56235947936476,-23,17,30,1.3590853256062683,-1.4927325013207193,0.3131134357692653,120,249828.00000000003,84,65.5,0,1,0,0,1,0
