timestamp,phase,command,axis,repeat,t_send,t_since_cmd,marker_id,pos_x,pos_y,pos_z,marker_dist,tello_height_cm,tello_baro_cm,tello_battery,tello_temp_c,tello_pitch,tello_roll,tello_yaw,tello_vgx,tello_vgy,tello_vgz,tello_agx,tello_agy,tello_agz
1776461037.6783218,init_hover,none,-,0,,,0,-0.15934725434756758,0.0021848475311796456,3.100468598412531,3.1615945397428167,80,253183.0,76,55.5,0,-1,-1,0,0,0,-17.0,22.0,-992.0
1776461037.907188,init_hover,none,-,0,,,0,-0.39462900430987624,0.09811873434161111,3.0757208895723545,3.141285699584364,80,253173.99999999997,76,55.5,0,-1,-1,0,0,0,-5.0,14.0,-998.0
1776461037.957494,init_hover,none,-,0,,,0,-0.39462900430987624,0.09811873434161111,3.0757208895723545,3.141285699584364,80,253173.99999999997,76,55.5,0,-1,-1,0,0,0,-5.0,14.0,-998.0
1776461038.0088341,init_hover,none,-,0,,,0,-0.39462900430987624,0.09811873434161111,3.0757208895723545,3.141285699584364,80,253178.00000000003,76,55.5,0,-1,-1,0,0,0,-3.0,15.0,-1011.0
1776461038.0597749,init_hover,none,-,0,,,0,-0.4012775616897025,0.38812307277983116,3.106057318354295,3.139029719309164,80,253178.00000000003,76,55.5,0,-1,-1,0,0,0,-3.0,15.0,-1011.0
1776461038.1101189,init_hover,none,-,0,,,0,-0.6397017867858543,0.31526323288310537,3.0177844099784217,3.097953541884385,80,253178.00000000003,76,55.5,0,-1,-1,0,0,0,-3.0,15.0,-1011.0
1776461038.16088,init_hover,none,-,0,,,,,,,,80,253169.99999999997,76,55.5,0,-1,-1,0,0,0,0.0,19.0,-1005.0
1776461038.226336,init_hover,none,-,0,,,0,-0.16006296933754857,0.004328306267913584,3.1003636037241904,3.1611231225886245,80,253178.00000000003,76,55.5,0,-1,-1,0,0,0,-18.0,26.0,-1008.0
1776461038.2762969,init_hover,none,-,0,,,,,,,,80,253178.00000000003,76,55.5,0,-1,-1,0,0,0,-18.0,26.0,-1008.0
1776461038.326915,init_hover,none,-,0,,,,,,,,80,253181.0,76,56.0,0,-1,-1,0,0,0,5.0,24.0,-1008.0
1776461038.378759,init_hover,none,-,0,,,0,-0.6376267379699223,0.3163214851137542,3.0193955209009244,3.0989983330777697,80,253181.0,76,56.0,0,-1,-1,0,0,0,5.0,24.0,-1008.0
1776461038.430204,init_hover,none,-,0,,,,,,,,80,253171.0,76,56.0,0,-1,-1,0,0,0,5.0,19.0,-984.0
1776461038.481045,init_hover,none,-,0,,,,,,,,80,253171.0,76,56.0,0,-1,-1,0,0,0,5.0,19.0,-984.0
1776461038.5323782,init_hover,none,-,0,,,,,,,,80,253181.0,76,56.0,0,-1,-1,0,0,0,-5.0,19.0,-1004.0
1776461038.5834198,init_hover,none,-,0,,,0,-0.2535948201169304,-0.1544931674654254,2.981346975183762,3.0857738185063917,80,253181.0,76,56.0,0,-1,-1,0,0,0,-5.0,19.0,-1004.0
1776461038.634392,init_hover,none,-,0,,,,,,,,80,253167.99999999997,76,56.0,0,-1,-1,0,0,0,-6.0,23.0,-993.0
1776461038.6864262,init_hover,none,-,0,,,,,,,,80,253167.99999999997,76,56.0,0,-1,-1,0,0,0,-6.0,23.0,-993.0
1776461038.738821,init_hover,none,-,0,,,,,,,,80,253171.99999999997,76,56.0,0,-1,-1,0,0,0,23.0,16.0,-996.0
1776461038.791038,init_hover,none,-,0,,,,,,,,80,253171.99999999997,76,56.0,0,-1,-1,0,0,0,23.0,16.0,-996.0
1776461038.843562,init_hover,none,-,0,,,,,,,,80,253173.99999999997,76,56.0,0,-1,-1,0,0,0,6.0,11.0,-999.0
1776461038.8950121,init_hover,none,-,0,,,,,,,,80,253173.99999999997,76,56.0,0,-1,-1,0,0,0,6.0,11.0,-999.0
1776461038.94659,init_hover,none,-,0,,,,,,,,80,253176.00000000003,76,56.0,0,-1,-1,0,0,0,-14.0,21.0,-994.0
1776461038.999764,init_hover,none,-,0,,,,,,,,80,253176.00000000003,76,56.0,0,-1,-1,0,0,0,-14.0,21.0,-994.0
1776461039.051832,init_hover,none,-,0,,,,,,,,80,253180.00000000003,76,56.0,0,-1,-1,0,0,0,1.0,14.0,-1000.0
1776461039.105202,init_hover,none,-,0,,,0,-0.3905620577325278,0.4123701832209327,3.1099446900949235,3.1399840197896585,80,253180.00000000003,76,56.0,0,-1,-1,0,0,0,1.0,14.0,-1000.0
1776461039.158274,init_hover,none,-,0,,,0,-0.3905620577325278,0.4123701832209327,3.1099446900949235,3.1399840197896585,80,253173.99999999997,76,56.0,0,-1,-1,0,0,0,18.0,1.0,-984.0
1776461039.210607,init_hover,none,-,0,,,0,-0.3905620577325278,0.4123701832209327,3.1099446900949235,3.1399840197896585,80,253173.99999999997,76,56.0,0,-1,-1,0,0,0,18.0,1.0,-984.0
1776461039.263072,init_hover,none,-,0,,,0,-0.3905620577325278,0.4123701832209327,3.1099446900949235,3.1399840197896585,80,253173.0,76,56.0,0,-1,-1,0,0,0,-4.0,20.0,-1005.0
1776461039.317394,init_hover,none,-,0,,,0,-0.3905620577325278,0.4123701832209327,3.1099446900949235,3.1399840197896585,80,253173.0,76,56.0,0,-1,-1,0,0,0,-4.0,20.0,-1005.0
1776461039.371588,init_hover,none,-,0,,,0,-0.3905620577325278,0.4123701832209327,3.1099446900949235,3.1399840197896585,80,253177.0,76,57.0,0,-1,-1,0,0,0,0.0,27.0,-1011.0
1776461039.4243178,init_hover,none,-,0,,,0,-0.3905620577325278,0.4123701832209327,3.1099446900949235,3.1399840197896585,80,253177.0,76,57.0,0,-1,-1,0,0,0,-13.0,19.0,-1007.0
1776461039.477056,init_hover,none,-,0,,,0,-0.3905620577325278,0.4123701832209327,3.1099446900949235,3.1399840197896585,80,253171.99999999997,75,57.0,0,-1,-1,0,0,0,9.0,10.0,-980.0
1776461039.531195,init_hover,none,-,0,,,0,-0.3905620577325278,0.4123701832209327,3.1099446900949235,3.1399840197896585,80,253171.99999999997,75,57.0,0,-1,-1,0,0,0,9.0,10.0,-980.0
1776461039.58514,init_hover,none,-,0,,,0,-0.3905620577325278,0.4123701832209327,3.1099446900949235,3.1399840197896585,80,253173.99999999997,75,57.0,0,-1,-1,0,0,0,0.0,21.0,-996.0
1776461039.638307,init_hover,none,-,0,,,0,-0.3905620577325278,0.4123701832209327,3.1099446900949235,3.1399840197896585,80,253173.99999999997,75,57.0,0,-1,-1,0,0,0,0.0,21.0,-996.0
1776461039.6904929,init_hover,none,-,0,,,0,-0.3905620577325278,0.4123701832209327,3.1099446900949235,3.1399840197896585,80,253178.00000000003,75,57.0,0,-1,-1,0,0,0,-8.0,16.0,-1003.0
1776461039.742259,init_hover,none,-,0,,,0,-0.3905620577325278,0.4123701832209327,3.1099446900949235,3.1399840197896585,80,253178.00000000003,75,57.0,0,-1,-1,0,0,0,-8.0,16.0,-1003.0
1776461039.7938938,init_hover,none,-,0,,,0,-0.3905620577325278,0.4123701832209327,3.1099446900949235,3.1399840197896585,80,253178.00000000003,75,57.0,0,-1,-1,0,0,0,-8.0,16.0,-1003.0
1776461039.847306,init_hover,none,-,0,,,0,-0.3905620577325278,0.4123701832209327,3.1099446900949235,3.1399840197896585,80,253178.00000000003,75,57.0,0,-1,-1,0,0,0,-8.0,16.0,-1003.0
1776461039.8988779,init_hover,none,-,0,,,0,-0.375411763112472,0.1190069643517202,3.011948993181225,3.0731295172430912,80,253176.00000000003,75,57.0,0,-1,-1,0,0,0,2.0,10.0,-1005.0
1776461039.94968,init_hover,none,-,0,,,0,-0.3768279108199851,0.12058056677037804,3.011410064078314,3.0725287372721715,80,253176.00000000003,75,57.0,0,-1,-1,0,0,0,2.0,10.0,-1005.0
1776461039.999517,init_hover,none,-,0,,,0,-0.14790003948336564,0.029832270089065305,3.0341690653909765,3.0908166524862843,80,253182.00000000003,75,57.0,0,-1,-1,0,0,0,-1.0,14.0,-1025.0
1776461040.051323,init_hover,none,-,0,,,0,-0.14790003948336564,0.029832270089065305,3.0341690653909765,3.0908166524862843,80,253182.00000000003,75,57.0,0,-1,-1,0,0,0,-1.0,14.0,-1025.0
1776461040.103125,init_hover,none,-,0,,,0,-0.3782411108057699,0.1221365782124188,3.010870484892883,3.0719311295315888,80,253171.99999999997,75,57.0,0,-1,-1,0,0,0,-7.0,20.0,-990.0
1776461040.1557848,init_hover,none,-,0,,,0,0.07396915320176817,0.2727329509720446,3.07362572445638,3.0918845791919303,80,253171.99999999997,75,57.0,0,-1,-1,0,0,0,-7.0,20.0,-990.0
1776461040.2079942,init_hover,none,-,0,,,,,,,,80,253166.0,75,57.0,0,-1,-1,0,0,0,-8.0,21.0,-998.0
1776461040.2591732,init_hover,none,-,0,,,,,,,,80,253166.0,75,57.0,0,-1,-1,0,0,0,-8.0,21.0,-998.0
1776461040.3107991,init_hover,none,-,0,,,,,,,,80,253178.00000000003,75,56.5,1,-1,-1,0,0,0,3.0,11.0,-982.0
1776461040.361957,init_hover,none,-,0,,,,,,,,80,253178.00000000003,75,56.5,1,-1,-1,0,0,0,3.0,11.0,-982.0
1776461040.412311,init_hover,none,-,0,,,,,,,,80,253171.99999999997,75,56.5,0,-1,-1,0,0,0,0.0,25.0,-992.0
1776461040.46342,init_hover,none,-,0,,,,,,,,80,253171.99999999997,75,56.5,0,-1,-1,0,0,0,0.0,25.0,-992.0
1776461040.514623,init_hover,none,-,0,,,,,,,,80,253176.00000000003,75,56.5,1,-1,-1,0,0,0,2.0,17.0,-991.0
1776461040.566058,init_hover,none,-,0,,,,,,,,80,253176.00000000003,75,56.5,1,-1,-1,0,0,0,2.0,17.0,-991.0
1776461040.618724,init_hover,none,-,0,,,,,,,,80,253165.0,75,56.5,0,-1,-1,0,0,0,7.0,14.0,-998.0
1776461040.671468,init_hover,none,-,0,,,0,0.3960097744645684,0.7858697775426362,3.0356337028652267,3.066992548678017,80,253165.0,75,56.5,0,-1,-1,0,0,0,7.0,14.0,-998.0
1776461040.7239099,init_hover,none,-,0,,,0,0.1428218594073913,1.1517095833124196,3.003144677861128,3.05674001249844,80,253173.99999999997,75,56.5,0,-1,-1,0,0,0,-4.0,16.0,-998.0
1776461040.775661,init_hover,none,-,0,,,0,0.1428218594073913,1.1517095833124196,3.003144677861128,3.05674001249844,80,253173.99999999997,75,56.5,0,-1,-1,0,0,0,-4.0,16.0,-998.0
1776461040.826358,init_hover,none,-,0,,,0,0.1428218594073913,1.1517095833124196,3.003144677861128,3.05674001249844,80,253173.99999999997,75,56.5,0,-1,-1,0,0,0,-4.0,16.0,-998.0
1776461040.878452,init_hover,none,-,0,,,0,0.1428218594073913,1.1517095833124196,3.003144677861128,3.05674001249844,80,253173.99999999997,75,56.5,0,-1,-1,0,0,0,-4.0,16.0,-998.0
1776461040.931332,init_hover,none,-,0,,,0,0.1428218594073913,1.1517095833124196,3.003144677861128,3.05674001249844,80,253185.0,75,56.5,0,-1,-1,0,0,0,-1.0,12.0,-1002.0
1776461040.983694,init_hover,none,-,0,,,,,,,,80,253181.0,75,56.5,0,-1,-1,0,0,0,7.0,11.0,-982.0
1776461041.0338812,init_hover,none,-,0,,,,,,,,80,253176.00000000003,75,56.5,0,-1,-1,0,0,0,-6.0,18.0,-1010.0
1776461041.084217,init_hover,none,-,0,,,,,,,,80,253176.00000000003,75,56.5,0,-1,-1,0,0,0,-6.0,18.0,-1010.0
1776461041.136814,init_hover,none,-,0,,,0,0.14086755588751781,1.150927420850668,3.0036350631739266,3.0569900693451277,80,253173.0,75,56.5,1,-1,-1,0,0,0,-7.0,17.0,-1006.0
1776461041.18886,init_hover,none,-,0,,,0,0.3952227661834122,0.7831699939995687,3.0361669310115604,3.0672564148730097,80,253173.0,75,56.5,1,-1,-1,0,0,0,-7.0,17.0,-1006.0
1776461041.240213,init_hover,none,-,0,,,0,0.6240957181081946,0.8621315256983904,2.950975895051593,3.0276174023977167,80,253179.0,75,56.5,1,-1,-1,0,0,0,-11.0,21.0,-1006.0
1776461041.2919838,init_hover,none,-,0,,,0,0.13920853615804335,1.1549865083525352,3.003857250679774,3.0578664822804242,80,253179.0,75,56.5,1,-1,-1,0,0,0,-11.0,21.0,-1006.0
1776461041.344047,init_hover,none,-,0,,,0,0.13920853615804335,1.1549865083525352,3.003857250679774,3.0578664822804242,80,253183.0,75,56.5,1,-1,-1,0,0,0,7.0,15.0,-996.0
1776461041.3951879,init_hover,none,-,0,,,0,0.13838204881958235,1.157040132356741,3.003966286646921,3.0583094597837563,80,253183.0,75,56.5,1,-1,-1,0,0,0,7.0,15.0,-996.0
1776461041.447476,init_hover,none,-,0,,,0,0.11002882519204685,1.4222011116192457,2.9090320041843034,3.0249939192814272,80,253183.0,75,56.5,1,-1,-1,0,0,0,7.0,15.0,-996.0
1776461041.500729,init_hover,none,-,0,,,0,0.14429796554128207,1.1568359175328795,3.0012774083203846,3.0559048125896133,80,253166.0,75,56.5,1,-1,-1,0,0,0,-6.0,22.0,-1003.0
1776461041.551894,init_hover,none,-,0,,,0,0.38366967134407187,0.7840828226550578,3.0409400916244014,3.070570882287941,80,253175.0,74,56.5,1,-1,-1,0,0,0,-10.0,20.0,-1013.0
1776461041.604809,init_hover,none,-,0,,,0,0.376283227800113,0.7818060757271381,3.009683213715262,3.0385581389228675,80,253175.0,74,56.5,1,-1,-1,0,0,0,-10.0,20.0,-1013.0
1776461041.6569338,init_hover,none,-,0,,,0,0.13388524730683163,1.1625109211036968,3.0047832995581487,3.0599128211618867,80,253171.99999999997,74,56.5,0,-1,-1,0,0,0,-16.0,22.0,-1007.0
1776461041.707788,init_hover,none,-,0,,,,,,,,80,253171.99999999997,74,56.5,0,-1,-1,0,0,0,-16.0,22.0,-1007.0
1776461041.759923,init_hover,none,-,0,,,,,,,,80,253175.0,74,56.5,0,-1,-1,0,0,0,20.0,0.0,-981.0
1776461041.810847,init_hover,none,-,0,,,0,0.3742892310833696,0.7841526379104983,3.044757017613272,3.073198646176267,80,253175.0,74,56.5,0,-1,-1,0,0,0,20.0,0.0,-981.0
1776461041.862817,init_hover,none,-,0,,,0,0.1310036549689815,1.1638402770503111,3.005391220436357,3.0606297070235957,80,253177.0,74,56.5,0,-1,-1,0,0,0,0.0,21.0,-992.0
1776461041.9141,init_hover,none,-,0,,,0,0.1310036549689815,1.1638402770503111,3.005391220436357,3.0606297070235957,80,253177.0,74,56.5,0,-1,-1,0,0,0,0.0,21.0,-992.0
1776461041.965843,init_hover,none,-,0,,,,,,,,80,253173.99999999997,74,56.5,0,-1,-1,0,0,0,-1.0,18.0,-1012.0
1776461042.017396,init_hover,none,-,0,,,,,,,,80,253166.0,74,56.5,0,-1,-1,0,0,0,2.0,12.0,-993.0
1776461042.069032,init_hover,none,-,0,,,0,0.3493527798931366,1.062714607798578,2.9544079582583334,3.0107604615627306,80,253166.0,74,56.5,0,-1,-1,0,0,0,2.0,12.0,-993.0
1776461042.121053,init_hover,none,-,0,,,0,0.3561308489614494,0.7785762724285528,3.017963852257935,3.0441459360865135,80,253173.0,74,56.5,0,-1,-1,0,0,0,2.0,11.0,-994.0
1776461042.169913,init_hover,none,-,0,,,0,0.3561308489614494,0.7785762724285528,3.017963852257935,3.0441459360865135,80,253173.0,74,56.5,0,-1,-1,0,0,0,2.0,11.0,-994.0
1776461042.222728,init_hover,none,-,0,,,,,,,,80,253171.0,74,56.5,0,-1,-1,0,0,0,15.0,2.0,-996.0
1776461042.2745972,init_hover,none,-,0,,,,,,,,80,253171.0,74,56.5,0,-1,-1,0,0,0,15.0,2.0,-996.0
1776461042.3242931,init_hover,none,-,0,,,0,0.11407832893086679,1.154324174984408,2.9440502314547135,2.997952788392832,80,253185.0,74,57.5,1,-1,-1,0,0,0,-3.0,16.0,-987.0
1776461042.375116,init_hover,none,-,0,,,0,0.595040370774487,0.8582817424871354,2.933362547942419,3.004230074249452,80,253185.0,74,57.5,1,-1,-1,0,0,0,-3.0,16.0,-987.0
1776461042.425819,init_hover,none,-,0,,,0,0.5418278262847525,1.0489071428028796,2.8988728602119935,2.983045235303945,80,253169.99999999997,74,57.5,1,-1,-1,0,0,0,-8.0,16.0,-1007.0
1776461042.47743,init_hover,none,-,0,,,,,,,,80,253169.99999999997,74,57.5,1,-1,-1,0,0,0,-8.0,16.0,-1007.0
1776461042.528406,init_hover,none,-,0,,,,,,,,80,253158.0,74,57.5,1,-1,-1,0,0,0,-15.0,25.0,-1001.0
1776461042.5795689,init_hover,none,-,0,,,,,,,,80,253158.0,74,57.5,1,-1,-1,0,0,0,-15.0,25.0,-1001.0
1776461042.630792,init_hover,none,-,0,,,0,0.5799849424849843,0.8488686192556716,2.9073208098597756,2.975034859392951,80,253171.0,74,57.5,1,-1,-1,0,0,0,0.0,12.0,-1011.0
1776461042.7039402,recenter,right,-,1,,,0,0.578194243958221,0.849430847039939,2.9084733175545394,2.975859769903177,80,253171.0,74,57.5,1,-1,-1,0,0,0,-4.0,20.0,-1011.0
1776461042.755239,recenter,right,-,1,,,0,0.10941158563229705,1.1601154819210278,2.9448318014644026,2.9996224074163536,80,253171.0,74,57.5,1,-1,-1,0,0,0,-4.0,20.0,-1011.0
1776461042.9082701,recenter,right,-,1,,,0,0.11557859416982225,1.1606924516118915,2.942185508390318,2.997363842196476,80,253176.00000000003,74,57.5,1,-1,-1,0,0,0,6.0,12.0,-1007.0
1776461042.95927,recenter,right,-,1,,,0,0.3361765758335421,1.063055244526472,2.926134179210822,2.981559337723875,80,253176.00000000003,74,57.5,1,-1,-1,0,0,0,6.0,12.0,-1007.0
1776461043.012488,recenter,right,-,1,,,0,0.3361765758335421,1.063055244526472,2.926134179210822,2.981559337723875,80,253178.00000000003,74,57.5,1,-1,-1,0,0,0,2.0,14.0,-999.0
1776461043.116304,recenter,right,-,1,,,0,0.3200286069141156,0.7668569639966578,2.9631777751891,2.9850765623434516,80,253166.0,74,57.5,1,-1,-1,0,0,0,18.0,1.0,-979.0
1776461043.1680691,recenter,right,-,1,,,0,0.3165461215061408,0.7680213740922681,2.9643174294060146,2.9859019494070327,80,253166.0,74,57.5,1,-1,-1,0,0,0,18.0,1.0,-979.0
1776461043.2197518,recenter,right,-,1,,,0,0.10471454766840621,1.1660335861976998,2.945603150803479,3.001322555011475,80,253176.00000000003,74,57.5,1,-1,-1,0,0,0,17.0,-1.0,-1021.0
1776461043.426767,recenter,right,-,1,,,0,0.560699459360935,0.8515836774745165,2.8844898815504965,2.9492304262750384,80,253173.0,74,58.0,1,-1,-1,0,0,0,2.0,11.0,-1033.0
1776461043.478039,recenter,right,-,1,,,0,0.7249965716956818,0.9065920174890715,2.8358816006470606,2.9431009406826405,80,253175.0,74,58.0,1,-1,-1,0,0,0,4.0,18.0,-999.0
1776461043.629627,recenter,right,-,1,,,0,0.31449467514109053,0.7606968985197373,2.9656012139587995,2.98655670532469,80,253179.0,73,58.0,1,-1,-1,0,0,0,-12.0,20.0,-1010.0
1776461043.680338,recenter,right,-,1,,,0,0.5252183159215292,1.0375004176581966,2.87556272474565,2.955693130008116,80,253179.0,73,58.0,1,-1,-1,0,0,0,-12.0,20.0,-1010.0
1776461043.78225,recenter,right,-,1,,,0,0.31354040925770404,0.7569555274282672,2.966234639594119,2.9868864328855604,80,253183.0,73,58.0,1,-1,-1,0,0,0,11.0,16.0,-1002.0
1776461043.8849869,recenter,right,-,1,,,0,0.5596713002079969,0.8453375835862614,2.886163998914357,2.9501466273434223,80,253182.00000000003,73,58.0,1,-1,-1,0,0,0,0.0,21.0,-1012.0
1776461043.9364312,recenter,right,-,1,,,0,0.31263534004798815,0.7531652300030403,2.9668613886806456,2.987217257444268,80,253173.99999999997,73,58.0,1,-1,-1,0,0,0,-5.0,11.0,-1009.0
1776461044.092061,recenter,right,-,1,,,0,0.31178483679755,0.7493213293098795,2.967481055233695,2.9875492392619454,80,253176.00000000003,73,58.0,1,-1,-1,0,0,0,3.0,9.0,-1008.0
1776461044.19451,recenter,right,-,1,,,0,0.3234820764215567,1.056879684011172,2.932257304973344,2.985215670935299,80,253166.0,73,58.0,1,-1,-1,0,0,0,16.0,4.0,-986.0
1776461044.2460291,recenter,right,-,1,,,0,0.1992163252434677,1.3046578326485068,2.8415898890405464,2.9344271847932895,80,253175.0,73,58.0,1,-1,-1,0,0,0,10.0,4.0,-984.0
1776461044.659561,recenter,right,-,1,,,0,0.524334328282401,1.0316225066172637,2.877064341199237,2.956133234384764,80,253171.0,73,58.0,0,-1,-1,0,0,0,-17.0,21.0,-1015.0
1776461044.815438,recenter,right,-,1,,,0,0.5213907815056402,1.0357922328256342,2.8782648502879846,2.9573927310442767,80,253173.99999999997,73,58.0,1,-1,-1,0,0,0,8.0,14.0,-990.0
1776461044.9686458,recenter,right,-,1,,,0,0.3199391882435924,0.7512694863782807,2.964490289790188,2.985539519072462,80,253181.0,73,58.0,1,-1,-1,0,0,0,-13.0,22.0,-1001.0
1776461045.019299,recenter,right,-,1,,,0,0.5764477756421887,0.8394111049895845,2.911181480425215,2.9773456848686397,80,253181.0,73,58.0,1,-1,-1,0,0,0,-13.0,22.0,-1001.0
1776461045.276288,recenter,right,-,1,,,0,0.3209243494499715,1.0437810435272872,2.899571969613232,2.9508391449943208,80,253178.00000000003,73,58.0,1,-1,-1,0,0,0,-15.0,20.0,-995.0
1776461045.3280902,recenter,right,-,1,,,0,0.3352616560664171,0.7549631052039814,2.9586562769286724,2.981620516935763,80,253178.00000000003,73,58.0,1,-1,-1,0,0,0,-15.0,20.0,-995.0
1776461045.38027,recenter,right,-,1,,,0,0.5749410724364571,0.8456831374596335,2.8757685265198134,2.942951249838898,80,253182.00000000003,73,58.5,1,-1,-1,0,0,0,2.0,8.0,-990.0
1776461045.430953,recenter,right,-,1,,,0,0.3306444181348533,1.038300075390159,2.896978950363652,2.948545357660425,80,253181.0,73,58.5,1,-1,-1,0,0,0,-8.0,28.0,-999.0
1776461045.535615,recenter,right,-,1,,,0,0.3456377628415465,0.7559316806642997,2.954686260120862,2.9789177645386435,80,253183.0,72,58.5,1,-1,-1,0,0,0,-13.0,12.0,-993.0
1776461045.587637,recenter,right,-,1,,,0,0.5786597102982959,0.84672813725527,2.873018444439166,2.9410808924821517,80,253183.0,72,58.5,1,-1,-1,0,0,0,-13.0,12.0,-993.0
1776461045.692799,recenter,right,-,1,,,0,0.3352194242229723,1.036798690022486,2.8950866282256786,2.9469801056187794,80,253176.00000000003,72,58.5,1,-1,-1,0,0,0,15.0,-3.0,-1000.0
1776461045.796681,recenter,right,-,1,,,0,0.3383651984798739,1.0337973924606048,2.8939738842961855,2.945803121092158,80,253177.0,72,58.5,1,-1,-1,0,0,0,7.0,3.0,-998.0
1776461045.8491251,recenter,right,-,1,,,0,0.35841953992044195,0.7562281938002688,2.9497089965424084,2.9755091966616565,80,253185.0,72,58.5,1,0,-1,0,0,0,6.0,6.0,-993.0
1776461045.9004219,recenter,right,-,1,,,0,0.5855693372864901,0.8469144844786667,2.868151122555762,2.9377115367635036,80,253185.0,72,58.5,1,0,-1,0,0,0,6.0,6.0,-993.0
1776461045.951853,recenter,right,-,1,,,0,0.2103062681234958,1.2875884198696426,2.8373713951448893,2.927060470085529,80,253182.00000000003,72,58.5,1,0,-1,0,0,0,12.0,-1.0,-1018.0
1776461046.109086,recenter,right,-,1,,,0,0.21183499440312994,1.284674268291266,2.837043311125649,2.926169453007932,80,253181.0,72,58.5,1,-1,-1,0,0,0,9.0,4.0,-995.0
1776461046.161579,recenter,right,-,1,,,0,0.21183499440312994,1.284674268291266,2.837043311125649,2.926169453007932,80,253173.99999999997,72,58.5,1,-1,-1,0,0,0,-7.0,17.0,-1006.0
1776461046.514158,recenter,right,-,1,,,0,0.5532197061013322,1.0266346741938115,2.8575247239022747,2.9416860362989246,80,253171.99999999997,72,58.5,1,-1,-1,0,0,0,-4.0,19.0,-1011.0
1776461046.5641751,recenter,right,-,1,,,0,0.36544499087635335,1.0314151762432004,2.915815881431834,2.9701264872155986,80,253169.99999999997,72,58.5,1,-1,-1,0,0,0,5.0,13.0,-992.0
1776461046.6146219,recenter,right,-,1,,,0,0.36544499087635335,1.0314151762432004,2.915815881431834,2.9701264872155986,80,253169.99999999997,72,58.5,1,-1,-1,0,0,0,5.0,13.0,-992.0
1776461046.715735,recenter,right,-,1,,,0,0.36397710201415484,1.0328563929753436,2.9169636601933053,2.971282716709834,80,253181.0,72,58.5,1,-1,-1,0,0,0,0.0,14.0,-1007.0
1776461046.767371,recenter,right,-,1,,,0,0.11986359507252455,1.1063709374789874,2.9129346767743676,2.959048367110894,80,253179.0,72,58.5,1,0,-1,0,0,0,1.0,10.0,-986.0
1776461046.8192158,recenter,right,-,1,,,0,0.39094606281269667,0.7500763604870809,2.9369784980786116,2.966682395569484,80,253179.0,72,58.5,1,0,-1,0,0,0,1.0,10.0,-986.0
1776461046.8701031,recenter,right,-,1,,,0,0.12574216722186976,1.1047755614343742,2.9110519954011798,2.9571664105978597,80,253179.0,72,58.5,1,0,-1,0,0,0,-2.0,10.0,-994.0
1776461046.921828,recenter,right,-,1,,,0,0.12574216722186976,1.1047755614343742,2.9110519954011798,2.9571664105978597,80,253179.0,72,58.5,1,0,-1,0,0,0,-2.0,10.0,-994.0
1776461046.975053,recenter,right,-,1,,,0,0.12574216722186976,1.1047755614343742,2.9110519954011798,2.9571664105978597,80,253178.00000000003,72,58.5,1,0,-1,0,0,0,1.0,6.0,-983.0
1776461047.0270789,recenter,right,-,1,,,0,0.5624160930291102,1.0176668931273993,2.85252508491816,2.937287329390875,80,253178.00000000003,72,58.5,1,0,-1,0,0,0,1.0,6.0,-983.0
1776461047.0813792,recenter,right,-,1,,,0,0.5624160930291102,1.0176668931273993,2.85252508491816,2.937287329390875,80,253178.00000000003,72,58.5,1,0,-1,0,0,0,1.0,6.0,-983.0
1776461047.131336,recenter,right,-,1,,,0,0.39317461661148895,0.74714275019618,2.936376396265757,2.9662339099655584,80,253179.0,72,58.5,1,0,-1,0,0,0,-2.0,11.0,-1017.0
1776461047.183234,recenter,right,-,1,,,0,0.39317461661148895,0.74714275019618,2.936376396265757,2.9662339099655584,80,253179.0,72,58.5,1,0,-1,0,0,0,-2.0,11.0,-1017.0
1776461047.234794,recenter,right,-,1,,,0,0.12485437438775002,1.1019707495433004,2.9114755935967924,2.9570683759951533,80,253179.0,72,58.5,1,-1,-1,0,0,0,10.0,8.0,-983.0
1776461047.3877351,recenter,right,-,1,,,0,0.392969025711573,0.7445569582183285,2.9367870007477204,2.9664860116135436,80,253175.0,72,59.0,1,-1,-1,0,0,0,26.0,-5.0,-987.0
1776461047.4392939,recenter,right,-,1,,,0,0.11722841396975682,1.1025568277059874,2.913901476184167,2.959244443945792,80,253175.0,72,59.0,1,-1,-1,0,0,0,26.0,-5.0,-987.0
1776461047.493849,recenter,right,-,1,,,0,0.11722841396975682,1.1025568277059874,2.913901476184167,2.959244443945792,80,253178.00000000003,72,59.0,1,-1,-1,0,0,0,7.0,15.0,-1002.0
1776461047.700424,recenter,right,-,1,,,0,0.558390136820961,1.0150517621157986,2.8560130299991147,2.9395370277747963,80,253177.0,71,59.0,1,-1,-1,0,0,0,3.0,-1.0,-998.0
1776461047.753,recenter,right,-,1,,,0,0.4006880285174338,1.2101016608068083,2.8409982182604794,2.9332653833016256,80,253173.99999999997,71,59.0,1,-1,-1,0,0,0,2.0,14.0,-992.0
1776461047.8049438,recenter,right,-,1,,,0,0.35096368361449864,1.0126067980740752,2.890675801722748,2.9409907289378943,80,253173.99999999997,71,59.0,1,-1,-1,0,0,0,2.0,14.0,-992.0
1776461047.857578,recenter,right,-,1,,,0,0.11283182915623748,1.0953289629733687,2.8846880344829886,2.929079524273853,80,253173.0,71,59.0,1,-1,-1,0,0,0,4.0,-6.0,-991.0
1776461047.960524,recenter,right,-,1,,,0,0.21878654873484354,1.2709903285868211,2.8374551929595744,2.9239096338665482,80,253169.99999999997,71,59.0,1,-1,-1,0,0,0,12.0,8.0,-987.0
1776461048.063672,recenter,right,-,1,,,0,0.21758081783979383,1.2702116491955304,2.838085671294414,2.924252954964035,80,253171.0,71,59.0,1,-1,-1,0,0,0,8.0,15.0,-1004.0
1776461048.1150131,recenter,right,-,1,,,0,0.10909924779785792,1.093363460641924,2.885809732561953,2.929711242207314,80,253171.0,71,59.0,1,-1,-1,0,0,0,8.0,15.0,-1004.0
1776461048.166938,recenter,right,-,1,,,0,0.38728717380846184,0.7315837291890941,2.940898287642163,2.969206690521976,80,253179.0,71,59.0,1,-1,-1,0,0,0,14.0,2.0,-1000.0
1776461048.2200499,recenter,right,-,1,,,0,0.38728717380846184,0.7315837291890941,2.940898287642163,2.969206690521976,80,253179.0,71,59.0,1,-1,-1,0,0,0,14.0,2.0,-1000.0
1776461048.27405,recenter,right,-,1,,,0,0.38728717380846184,0.7315837291890941,2.940898287642163,2.969206690521976,80,253173.0,71,59.0,1,-1,-1,0,0,0,8.0,10.0,-1010.0
1776461048.4820962,recenter,right,-,1,,,0,0.10345400951337994,1.090295525282991,2.8875466884546053,2.9307026993883354,80,253169.99999999997,71,59.5,1,-1,-1,0,0,0,2.0,13.0,-994.0
1776461048.585023,recenter,right,-,1,,,0,0.21269393820363458,1.2633927022358922,2.8396893795534464,2.9238954087102793,80,253177.0,71,59.5,1,-1,-1,0,0,0,7.0,12.0,-1024.0
1776461048.636558,recenter,right,-,1,,,0,0.10156003312666723,1.0892424322203809,2.8881394463560452,2.9310445338499047,80,253177.0,71,59.5,1,-1,-1,0,0,0,7.0,12.0,-1024.0
1776461048.688711,recenter,right,-,1,,,0,0.10156003312666723,1.0892424322203809,2.8881394463560452,2.9310445338499047,80,253173.0,71,59.5,1,-1,-1,0,0,0,12.0,0.0,-1006.0
1776461048.720404,pre_hover,right,x,1,,,0,0.09966030082570465,1.088170769572321,2.8887401535592363,2.9313925957829228,80,253173.0,71,59.5,1,-1,-1,0,0,0,12.0,0.0,-1006.0
1776461048.7718651,pre_hover,right,x,1,,,0,0.09966030082570465,1.088170769572321,2.8887401535592363,2.9313925957829228,80,253173.99999999997,71,59.5,1,-1,-1,0,0,0,5.0,9.0,-992.0
1776461048.824268,pre_hover,right,x,1,,,0,0.3426699826409379,0.9991943395163848,2.8967475127061726,2.9441339966235334,80,253173.99999999997,71,59.5,1,-1,-1,0,0,0,5.0,9.0,-992.0
1776461048.875088,pre_hover,right,x,1,,,,,,,,80,253175.0,71,59.5,1,-1,-1,0,0,0,14.0,20.0,-1001.0
1776461048.92574,pre_hover,right,x,1,,,0,0.3363484978671811,0.9978699857343167,2.8679213086328654,2.9148590823702234,80,253175.0,71,59.5,1,-1,-1,0,0,0,14.0,20.0,-1001.0
1776461048.977438,pre_hover,right,x,1,,,0,0.0946704266361098,1.0879671591792852,2.8900653548127204,2.9324993083043926,80,253166.0,71,59.5,1,-1,-1,0,0,0,0.0,12.0,-991.0
1776461049.028136,pre_hover,right,x,1,,,0,0.20676013541726998,1.2615785431215931,2.8425383874862264,2.925826448484164,80,253166.0,71,59.5,1,-1,-1,0,0,0,0.0,12.0,-991.0
1776461049.079224,pre_hover,right,x,1,,,0,0.09155453905765651,1.088864354857891,2.890785840888932,2.933259853636669,80,253180.00000000003,71,59.5,1,-1,-1,0,0,0,-5.0,15.0,-1008.0
1776461049.1298418,pre_hover,right,x,1,,,0,0.2012168435341793,1.252695743670247,2.815523373800857,2.8971834288401688,80,253180.00000000003,71,59.5,1,-1,-1,0,0,0,-5.0,15.0,-1008.0
1776461049.181785,pre_hover,right,x,1,,,0,0.08840775777364775,1.0897753965347723,2.8915093751160006,2.934028346330192,80,253173.0,71,59.5,1,-1,-1,0,0,0,6.0,9.0,-995.0
1776461049.233035,pre_hover,right,x,1,,,0,0.08840775777364775,1.0897753965347723,2.8915093751160006,2.934028346330192,80,253173.0,71,59.5,1,-1,-1,0,0,0,6.0,9.0,-995.0
1776461049.283432,pre_hover,right,x,1,,,0,0.08840775777364775,1.0897753965347723,2.8915093751160006,2.934028346330192,80,253173.0,71,59.5,1,-1,-1,0,0,0,6.0,9.0,-995.0
1776461049.335702,pre_hover,right,x,1,,,0,0.3278663988231189,0.9957641167802689,2.8722711434117127,2.9178874434912214,80,253173.0,71,60.0,1,-1,-1,0,0,0,1.0,12.0,-1004.0
1776461049.386692,pre_hover,right,x,1,,,0,0.5339867249965933,0.995058618994753,2.841363961872319,2.9179722923189986,80,253173.0,71,60.0,1,-1,-1,0,0,0,1.0,12.0,-1004.0
1776461049.436469,pre_hover,right,x,1,,,,,,,,80,253177.0,71,60.0,1,-1,-1,0,0,0,14.0,1.0,-997.0
1776461049.4866571,pre_hover,right,x,1,,,0,0.5320907460746211,0.9940195794450868,2.842983060521674,2.919062293521246,80,253177.0,71,60.0,1,-1,-1,0,0,0,14.0,1.0,-997.0
1776461049.537714,pre_hover,right,x,1,,,0,0.08081930418849567,1.093751853963822,2.8930484485121943,2.9359925031683987,80,253182.00000000003,70,60.0,1,-1,-1,0,0,0,5.0,10.0,-1005.0
1776461049.589538,pre_hover,right,x,1,,,0,0.08512016964390257,1.0951460315549446,2.8905530826022536,2.9338902772916047,80,253182.00000000003,70,60.0,1,-1,-1,0,0,0,5.0,10.0,-1005.0
1776461049.6416929,pre_hover,right,x,1,,,0,0.3200013819656384,0.9954937402907499,2.8759172508245148,2.9205677901153257,80,253173.99999999997,70,60.0,1,-1,-1,0,0,0,11.0,3.0,-1003.0
1776461049.693084,pre_hover,right,x,1,,,0,0.07756419895193935,1.0947399873724875,2.8937728702562926,2.936784855023556,80,253173.99999999997,70,60.0,1,-1,-1,0,0,0,11.0,3.0,-1003.0
1776461049.745014,pre_hover,right,x,1,,,0,0.32177214310675684,0.9939731814418089,2.8743637040617034,2.9190270438970263,80,253171.0,70,60.0,1,-1,-1,0,0,0,13.0,13.0,-968.0
1776461049.7947142,pre_hover,right,x,1,,,0,0.35007052746598044,1.1829792891418323,2.8050440825362544,2.886292869883492,80,253171.0,70,60.0,1,-1,-1,0,0,0,13.0,13.0,-968.0
1776461049.84506,pre_hover,right,x,1,,,0,0.35007052746598044,1.1829792891418323,2.8050440825362544,2.886292869883492,80,253163.0,70,60.0,1,-1,-1,0,0,0,4.0,11.0,-998.0
1776461049.896817,pre_hover,right,x,1,,,,,,,,80,253163.0,70,60.0,1,-1,-1,0,0,0,4.0,11.0,-998.0
1776461049.948722,pre_hover,right,x,1,,,,,,,,80,253171.0,70,60.0,1,-1,-1,0,0,0,10.0,5.0,-1036.0
1776461050.000593,pre_hover,right,x,1,,,,,,,,80,253171.0,70,60.0,1,-1,-1,0,0,0,10.0,5.0,-1036.0
1776461050.05286,pre_hover,right,x,1,,,0,0.18891005992328214,1.2567037953059188,2.820232228468414,2.9018367817644966,80,253171.99999999997,70,60.0,1,-1,-1,0,0,0,12.0,17.0,-1000.0
1776461050.103897,pre_hover,right,x,1,,,,,,,,80,253171.99999999997,70,60.0,1,-1,-1,0,0,0,12.0,17.0,-1000.0
1776461050.155553,pre_hover,right,x,1,,,,,,,,80,253182.00000000003,70,60.0,1,-1,-1,0,0,0,21.0,4.0,-1001.0
1776461050.207425,pre_hover,right,x,1,,,,,,,,80,253182.00000000003,70,60.0,1,-1,-1,0,0,0,21.0,4.0,-1001.0
1776461050.258253,pre_hover,right,x,1,,,0,0.5182629361013437,0.9857254697955327,2.8193083103832945,2.8923830932263583,80,253176.00000000003,70,60.0,1,-1,-1,0,0,0,8.0,9.0,-995.0
1776461050.309503,pre_hover,right,x,1,,,0,0.5182629361013437,0.9857254697955327,2.8193083103832945,2.8923830932263583,80,253176.00000000003,70,60.0,1,-1,-1,0,0,0,8.0,9.0,-995.0
1776461050.361492,pre_hover,right,x,1,,,0,0.579043002676975,0.797026813811583,2.845563760918212,2.9105572459171647,80,253164.0,70,59.5,1,-1,-1,0,0,0,14.0,3.0,-1007.0
1776461050.412707,pre_hover,right,x,1,,,,,,,,80,253164.0,70,59.5,1,-1,-1,0,0,0,14.0,3.0,-1007.0
1776461050.4636328,pre_hover,right,x,1,,,,,,,,80,253171.0,70,59.5,1,-1,-1,0,0,0,4.0,8.0,-995.0
1776461050.512832,pre_hover,right,x,1,,,,,,,,80,253171.0,70,59.5,1,-1,-1,0,0,0,4.0,8.0,-995.0
1776461050.562339,pre_hover,right,x,1,,,,,,,,80,253163.0,70,59.5,1,-1,-1,0,0,0,20.0,3.0,-996.0
1776461050.611618,pre_hover,right,x,1,,,,,,,,80,253163.0,70,59.5,1,-1,-1,0,0,0,20.0,3.0,-996.0
1776461050.662118,pre_hover,right,x,1,,,0,0.1888340784151415,1.2685923411719626,2.849171696936936,2.932652960455976,80,253171.99999999997,70,59.5,1,-1,-1,0,0,0,11.0,13.0,-1018.0
1776461050.714159,pre_hover,right,x,1,,,,,,,,80,253171.99999999997,70,59.5,1,-1,-1,0,0,0,11.0,13.0,-1018.0
1776461050.765179,pre_hover,right,x,1,,,0,0.5858181494827959,0.8015600608123588,2.87596669307313,2.941937079892112,80,253176.00000000003,70,59.5,1,-1,-1,0,0,0,16.0,2.0,-1000.0
1776461050.816587,pre_hover,right,x,1,,,,,,,,80,253176.00000000003,70,59.5,1,-1,-1,0,0,0,16.0,2.0,-1000.0
1776461050.8676999,pre_hover,right,x,1,,,,,,,,80,253176.00000000003,70,59.5,1,-1,-1,0,0,0,16.0,2.0,-1000.0
1776461050.918871,pre_hover,right,x,1,,,,,,,,80,253169.0,70,59.5,1,-1,-1,0,0,0,20.0,10.0,-980.0
1776461050.9693298,pre_hover,right,x,1,,,,,,,,80,253169.0,70,59.5,1,-1,-1,0,0,0,20.0,10.0,-980.0
1776461051.021644,pre_hover,right,x,1,,,0,0.35206309139281344,1.194135552366673,2.83630983689472,2.9191777893394693,80,253164.0,70,59.5,1,-1,-1,0,0,0,2.0,8.0,-990.0
1776461051.0731149,pre_hover,right,x,1,,,0,0.35206309139281344,1.194135552366673,2.83630983689472,2.9191777893394693,80,253164.0,70,59.5,1,-1,-1,0,0,0,2.0,8.0,-990.0
1776461051.126036,pre_hover,right,x,1,,,0,0.35206309139281344,1.194135552366673,2.83630983689472,2.9191777893394693,80,253164.0,70,59.5,1,-1,-1,0,0,0,2.0,8.0,-990.0
1776461051.178981,pre_hover,right,x,1,,,0,0.06620865480071841,1.1056032509901184,2.89550493435283,2.940062424208691,80,253167.99999999997,70,59.5,1,-1,-1,0,0,0,7.0,11.0,-1006.0
1776461051.229383,pre_hover,right,x,1,,,0,0.06620865480071841,1.1056032509901184,2.89550493435283,2.940062424208691,80,253167.99999999997,70,59.5,1,-1,-1,0,0,0,7.0,11.0,-1006.0
1776461051.281329,pre_hover,right,x,1,,,0,0.5179280893881493,0.9938731703785483,2.8527382396824406,2.9260042796051713,80,253167.99999999997,70,59.5,1,-1,-1,0,0,0,7.0,11.0,-1006.0
1776461051.332961,pre_hover,right,x,1,,,0,0.5179280893881493,0.9938731703785483,2.8527382396824406,2.9260042796051713,80,253167.99999999997,70,59.5,1,-1,-1,0,0,0,7.0,11.0,-1006.0
1776461051.386005,pre_hover,right,x,1,,,0,0.5179280893881493,0.9938731703785483,2.8527382396824406,2.9260042796051713,80,253167.99999999997,70,59.5,1,-1,-1,0,0,0,7.0,11.0,-1006.0
1776461051.4375832,pre_hover,right,x,1,,,,,,,,80,253164.0,70,59.5,1,-1,-1,0,0,0,8.0,13.0,-1007.0
1776461051.488844,pre_hover,right,x,1,,,,,,,,80,253164.0,70,59.5,1,-1,-1,0,0,0,8.0,13.0,-1007.0
1776461051.542222,pre_hover,right,x,1,,,0,0.30477949912825697,1.002709309652182,2.881384251432944,2.92531033149907,80,253159.0,70,60.5,1,-1,-1,0,0,0,7.0,10.0,-993.0
1776461051.593602,pre_hover,right,x,1,,,0,0.30477949912825697,1.002709309652182,2.881384251432944,2.92531033149907,80,253169.0,69,60.5,1,-1,-1,0,0,0,11.0,3.0,-1017.0
1776461051.644713,pre_hover,right,x,1,,,0,0.30477949912825697,1.002709309652182,2.881384251432944,2.92531033149907,80,253169.0,69,60.5,1,-1,-1,0,0,0,11.0,3.0,-1017.0
1776461051.6943512,pre_hover,right,x,1,,,,,,,,80,253173.0,69,60.5,1,-1,-1,0,0,0,1.0,23.0,-998.0
1776461051.742961,response,right,x,1,1776461051.7427142,0.0002467632293701172,,,,,,80,253173.0,69,60.5,1,-1,-1,0,0,0,1.0,23.0,-998.0
1776461051.7953432,response,right,x,1,1776461051.7427142,0.05262899398803711,,,,,,80,253176.00000000003,69,60.5,1,0,-1,0,0,0,-2.0,17.0,-1008.0
1776461051.8456562,response,right,x,1,1776461051.7427142,0.10294198989868164,0,0.5171352635336793,0.998094077031684,2.8521451479501048,2.925857091508928,80,253176.00000000003,69,60.5,1,0,-1,0,0,0,-2.0,17.0,-1008.0
1776461051.896661,response,right,x,1,1776461051.7427142,0.1539468765258789,0,0.5171352635336793,0.998094077031684,2.8521451479501048,2.925857091508928,80,253171.0,69,60.5,1,0,-1,0,0,0,25.0,0.0,-989.0
1776461051.9480221,response,right,x,1,1776461051.7427142,0.2053079605102539,0,0.2934121370877766,0.9994276200377877,2.884436204025062,2.9267055405233338,80,253171.0,69,60.5,1,0,-1,0,0,0,25.0,0.0,-989.0
1776461051.998752,response,right,x,1,1776461051.7427142,0.25603795051574707,,,,,,80,253161.0,69,60.5,0,3,-1,0,0,0,4.0,13.0,-981.0
1776461052.049561,response,right,x,1,1776461051.7427142,0.30684685707092285,,,,,,80,253161.0,69,60.5,0,3,-1,0,0,0,4.0,13.0,-981.0
1776461052.10031,response,right,x,1,1776461051.7427142,0.35759592056274414,0,0.046441566556188696,1.3615075102470748,2.7777318533415545,2.880597985893762,80,253165.0,69,60.5,0,5,-1,0,0,0,4.0,8.0,-972.0
1776461052.149072,response,right,x,1,1776461051.7427142,0.4063577651977539,,,,,,80,253165.0,69,60.5,0,5,-1,0,0,0,4.0,8.0,-972.0
1776461052.197749,response,right,x,1,1776461051.7427142,0.4550347328186035,0,0.0346889361885579,1.3570898110151641,2.782225243738382,2.883602887211061,80,253175.0,69,60.5,0,3,-1,0,1,0,-6.0,0.0,-1014.0
1776461052.250554,response,right,x,1,1776461051.7427142,0.5078399181365967,,,,,,80,253175.0,69,60.5,0,3,-1,0,1,0,-6.0,0.0,-1014.0
1776461052.303383,response,right,x,1,1776461051.7427142,0.5606689453125,,,,,,80,253173.0,69,60.5,1,0,-1,0,2,0,-22.0,13.0,-1013.0
1776461052.3530781,response,right,x,1,1776461051.7427142,0.6103639602661133,0,-0.0024483988109110406,1.0617953601420942,2.8549857472373263,2.892093457382347,80,253173.0,69,60.5,1,0,-1,0,2,0,-22.0,13.0,-1013.0
1776461052.407765,response,right,x,1,1776461051.7427142,0.665050745010376,0,-0.0024483988109110406,1.0617953601420942,2.8549857472373263,2.892093457382347,80,253173.0,69,60.5,1,0,-1,0,2,0,-22.0,13.0,-1013.0
1776461052.458791,response,right,x,1,1776461051.7427142,0.7160768508911133,0,0.24790209612941236,0.8801355769249923,2.864887097978046,2.889205682343423,80,253167.99999999997,69,61.0,1,0,-1,0,2,0,-9.0,-1.0,-1010.0
1776461052.508951,response,right,x,1,1776461051.7427142,0.7662367820739746,0,0.4893925718664562,0.8814716493644534,2.802809896684401,2.859103827381236,80,253162.0,69,61.0,1,0,-1,0,2,0,16.0,-9.0,-1006.0
1776461052.559721,response,right,x,1,1776461051.7427142,0.8170068264007568,,,,,,80,253162.0,69,61.0,1,0,-1,0,2,0,16.0,-9.0,-1006.0
1776461052.61134,response,right,x,1,1776461051.7427142,0.8686258792877197,0,0.4961152477801586,0.8489078891483326,2.812527050373793,2.8667741252921473,80,253158.0,69,61.0,1,0,-1,0,2,0,-15.0,9.0,-988.0
1776461052.6629682,response,right,x,1,1776461051.7427142,0.9202539920806885,0,0.4670559956788088,1.014528655542497,2.7790253584364177,2.8483253417048506,80,253158.0,69,61.0,1,0,-1,0,2,0,-15.0,9.0,-988.0
1776461052.7130508,response,right,x,1,1776461051.7427142,0.9703366756439209,,,,,,80,253177.0,69,61.0,1,0,-1,0,2,0,21.0,-13.0,-1010.0
1776461052.764597,response,right,x,1,1776461051.7427142,1.0218827724456787,0,0.2568866517632713,0.9959541467521655,2.8186682775751404,2.857912052039529,80,253169.99999999997,69,61.0,2,-1,-1,0,2,0,-6.0,0.0,-1003.0
1776461052.815657,response,right,x,1,1776461051.7427142,1.0729427337646484,0,0.680106620119725,0.8338448419693113,2.7304645455518837,2.8235908094768587,80,253169.99999999997,69,61.0,2,-1,-1,0,2,0,-6.0,0.0,-1003.0
1776461052.865653,response,right,x,1,1776461051.7427142,1.122938871383667,0,0.6866336745082817,0.8243205873904085,2.732892596650678,2.826745031608618,80,253163.0,69,61.0,4,-1,-1,0,2,0,-15.0,0.0,-1014.0
1776461052.9163451,response,right,x,1,1776461051.7427142,1.173630952835083,0,0.5791118112367984,0.7448989178004511,2.760947247113321,2.8247470484339536,80,253163.0,69,61.0,4,-1,-1,0,2,0,-15.0,0.0,-1014.0
1776461052.967157,response,right,x,1,1776461051.7427142,1.224442720413208,0,0.5060430293858366,1.0767129719307427,2.7281230320090057,2.8153134963934385,80,253176.00000000003,69,61.0,4,-2,-1,0,2,0,7.0,-9.0,-995.0
1776461053.018173,response,right,x,1,1776461051.7427142,1.275458812713623,,,,,,80,253176.00000000003,69,61.0,4,-2,-1,0,2,0,7.0,-9.0,-995.0
1776461053.068185,response,right,x,1,1776461051.7427142,1.3254709243774414,0,0.6829876010722777,0.9179136056109667,2.714448354672761,2.8170500517450323,80,253180.00000000003,69,61.0,3,-2,-1,-1,1,0,-9.0,2.0,-992.0
1776461053.1199942,response,right,x,1,1776461051.7427142,1.3772799968719482,0,0.6542019043336227,1.0460065541836414,2.7229697542118,2.835747919043718,80,253180.00000000003,69,61.0,3,-2,-1,-1,1,0,-9.0,2.0,-992.0
1776461053.171201,response,right,x,1,1776461051.7427142,1.4284868240356445,0,0.36166207262590244,1.2024669297899067,2.7477103605694917,2.8361378813180904,80,253171.99999999997,69,61.0,2,-4,-1,-1,1,0,2.0,-5.0,-1015.0
1776461053.222721,response,right,x,1,1776461051.7427142,1.4800069332122803,,,,,,80,253171.99999999997,69,61.0,2,-4,-1,-1,1,0,2.0,-5.0,-1015.0
1776461053.2734091,response,right,x,1,1776461051.7427142,1.5306949615478516,0,0.6321275982260212,1.1468578640955798,2.7011744838277605,2.8275399937126173,80,253177.0,69,61.0,2,-3,-1,-1,0,0,18.0,0.0,-984.0
1776461053.325352,response,right,x,1,1776461051.7427142,1.5826377868652344,2,-0.6944828720993131,1.346236712173595,2.7916457815201268,2.8974941742780453,80,253177.0,69,61.0,2,-3,-1,-1,0,0,18.0,0.0,-984.0
1776461053.377012,response,right,x,1,1776461051.7427142,1.6342978477478027,,,,,,80,253169.0,69,61.0,0,-2,-1,-1,0,0,-34.0,28.0,-1071.0
1776461053.428113,response,right,x,1,1776461051.7427142,1.685398817062378,,,,,,80,253169.0,69,61.0,0,-2,-1,-1,0,0,-34.0,28.0,-1071.0
1776461053.4797068,response,right,x,1,1776461051.7427142,1.736992597579956,,,,,,80,253169.0,69,61.0,0,-2,-1,-1,0,0,-34.0,28.0,-1071.0
1776461053.532112,response,right,x,1,1776461051.7427142,1.7893977165222168,2,-0.6078513518543252,1.1459403832439103,2.871068018050183,2.938335145228181,80,253166.0,68,61.0,-4,-1,-1,-1,0,0,37.0,2.0,-969.0
1776461053.581856,response,right,x,1,1776461051.7427142,1.839141845703125,,,,,,80,253171.99999999997,68,61.0,-1,-1,-1,0,0,0,15.0,-2.0,-1007.0
1776461053.6321971,response,right,x,1,1776461051.7427142,1.8894829750061035,2,-0.906729838582858,1.185844195718054,2.721327561885453,2.874425292877867,80,253171.99999999997,68,61.0,-1,-1,-1,0,0,0,15.0,-2.0,-1007.0
1776461053.681696,response,right,x,1,1776461051.7427142,1.9389817714691162,2,-0.834456182961377,1.2901122470023607,2.725878995542406,2.865466547611838,80,253169.0,68,61.0,0,0,-1,0,0,0,-32.0,11.0,-1001.0
1776461053.7314339,response,right,x,1,1776461051.7427142,1.9887197017669678,2,-0.6618056488118347,1.372502872766669,2.782028576395231,2.8838217883389317,80,253169.0,68,61.0,0,0,-1,0,0,0,-32.0,11.0,-1001.0
1776461053.78257,response,right,x,1,1776461051.7427142,2.039855718612671,2,-0.651731182370186,1.3715712554409683,2.7521977256106402,2.8526147746935617,80,253167.0,68,61.0,0,0,-1,0,0,0,-20.0,6.0,-987.0
1776461053.831892,response,right,x,1,1776461051.7427142,2.0891778469085693,2,-0.651731182370186,1.3715712554409683,2.7521977256106402,2.8526147746935617,80,253167.0,68,61.0,0,0,-1,0,0,0,-20.0,6.0,-987.0
1776461053.883382,response,right,x,1,1776461051.7427142,2.1406679153442383,,,,,,80,253163.0,68,61.0,1,-1,-1,0,0,0,-7.0,0.0,-1003.0
1776461053.933092,response,right,x,1,1776461051.7427142,2.190377950668335,2,-0.6511538054625877,1.384205385447862,2.7455311480663624,2.847728277342863,80,253163.0,68,61.0,1,-1,-1,0,0,0,-7.0,0.0,-1003.0
1776461053.984771,response,right,x,1,1776461051.7427142,2.2420568466186523,2,-0.49141731453568727,1.346240007009619,2.7877584155109734,2.851836268570084,80,253169.0,68,61.0,1,-1,-1,0,0,0,-14.0,3.0,-1004.0
1776461054.0365179,response,right,x,1,1776461051.7427142,2.2938036918640137,2,-0.6867382125902077,1.2374393970447872,2.7099069924667134,2.805634107955022,80,253169.0,68,61.0,1,-1,-1,0,0,0,-14.0,3.0,-1004.0
1776461054.08805,response,right,x,1,1776461051.7427142,2.3453357219696045,,,,,,80,253169.0,68,61.0,1,-1,-1,0,0,0,-8.0,11.0,-1016.0
1776461054.139284,response,right,x,1,1776461051.7427142,2.3965697288513184,,,,,,80,253169.0,68,61.0,1,-1,-1,0,0,0,-8.0,11.0,-1016.0
1776461054.191045,response,right,x,1,1776461051.7427142,2.448330879211426,,,,,,80,253169.0,68,61.0,1,-1,-1,0,0,0,-24.0,12.0,-1018.0
1776461054.242578,response,right,x,1,1776461051.7427142,2.499863862991333,2,-0.47690374524680673,1.3443342475585998,2.7278413090649347,2.790541428417302,80,253169.0,68,61.0,1,-1,-1,0,0,0,-24.0,12.0,-1018.0
1776461054.293012,response,right,x,1,1776461051.7427142,2.550297737121582,,,,,,80,253171.99999999997,68,61.0,1,-1,-1,0,0,0,-11.0,13.0,-998.0
1776461054.3443992,response,right,x,1,1776461051.7427142,2.601685047149658,,,,,,80,253171.99999999997,68,61.0,1,-1,-1,0,0,0,-11.0,13.0,-998.0
1776461054.3962932,response,right,x,1,1776461051.7427142,2.653578996658325,,,,,,80,253167.0,68,61.0,1,-1,-1,0,0,0,6.0,0.0,-1013.0
1776461054.4478772,response,right,x,1,1776461051.7427142,2.70516300201416,,,,,,80,253167.0,68,61.0,1,-1,-1,0,0,0,6.0,0.0,-1013.0
1776461054.497932,response,right,x,1,1776461051.7427142,2.7552177906036377,,,,,,80,253167.0,68,61.0,1,-1,-1,0,0,0,6.0,0.0,-1013.0
1776461054.549846,response,right,x,1,1776461051.7427142,2.807131767272949,,,,,,80,253167.99999999997,68,61.0,1,-1,-1,0,0,0,21.0,-5.0,-975.0
1776461054.602816,response,right,x,1,1776461051.7427142,2.8601019382476807,,,,,,80,253176.00000000003,68,61.0,1,-1,-1,0,0,0,-1.0,8.0,-992.0
1776461054.6536808,response,right,x,1,1776461051.7427142,2.910966634750366,,,,,,80,253176.00000000003,68,61.0,1,-1,-1,0,0,0,-1.0,8.0,-992.0
1776461054.705068,response,right,x,1,1776461051.7427142,2.9623539447784424,,,,,,80,253175.0,68,61.0,1,-1,-1,0,0,0,0.0,4.0,-983.0
1776461054.756268,response,right,x,1,1776461051.7427142,3.0135538578033447,2,0.2757599082361383,0.6607292039421042,2.720161620072723,2.755073037029113,80,253175.0,68,61.0,1,-1,-1,0,0,0,0.0,4.0,-983.0
1776461054.808206,response,right,x,1,1776461051.7427142,3.0654919147491455,2,0.3327118418450072,0.35241397660030094,2.5940456018673035,2.694278644085209,80,253179.0,68,61.0,1,-1,-1,0,0,0,-6.0,16.0,-996.0
1776461054.857572,response,right,x,1,1776461051.7427142,3.1148579120635986,,,,,,80,253179.0,68,61.0,1,-1,-1,0,0,0,-6.0,16.0,-996.0
1776461054.908654,response,right,x,1,1776461051.7427142,3.1659398078918457,2,0.6522790872510578,0.744995009089556,2.6189020666113447,2.710930391499472,80,253163.0,68,61.0,1,-1,-1,0,0,0,-6.0,13.0,-993.0
1776461054.960088,response,right,x,1,1776461051.7427142,3.217373847961426,2,0.45023534526825626,0.49512905157794895,2.6141808438326835,2.700286656070271,80,253163.0,68,61.0,1,-1,-1,0,0,0,-6.0,13.0,-993.0
1776461055.010967,response,right,x,1,1776461051.7427142,3.2682528495788574,,,,,,80,253178.00000000003,68,61.0,1,-1,-1,0,0,0,9.0,3.0,-993.0
1776461055.0634391,response,right,x,1,1776461051.7427142,3.3207249641418457,,,,,,80,253178.00000000003,68,61.0,1,-1,-1,0,0,0,9.0,3.0,-993.0
1776461055.115834,response,right,x,1,1776461051.7427142,3.373119831085205,2,0.4642879668683464,0.6416465754679006,2.6307446970618904,2.6953289510135643,80,253173.99999999997,68,61.0,1,-1,-1,0,0,0,-8.0,12.0,-1017.0
1776461055.1665862,response,right,x,1,1776461051.7427142,3.4238719940185547,,,,,,80,253173.99999999997,68,61.0,1,-1,-1,0,0,0,-8.0,12.0,-1017.0
1776461055.216971,response,right,x,1,1776461051.7427142,3.474256753921509,,,,,,80,253171.0,68,61.0,1,-1,-1,0,0,0,-1.0,6.0,-1001.0
1776461055.268681,response,right,x,1,1776461051.7427142,3.5259668827056885,,,,,,80,253171.0,68,61.0,1,-1,-1,0,0,0,-1.0,6.0,-1001.0
1776461055.320726,response,right,x,1,1776461051.7427142,3.5780117511749268,,,,,,80,253177.0,68,61.0,1,-1,-1,0,0,0,20.0,0.0,-995.0
1776461055.372826,response,right,x,1,1776461051.7427142,3.6301119327545166,,,,,,80,253177.0,68,61.0,1,-1,-1,0,0,0,20.0,0.0,-995.0
1776461055.423407,response,right,x,1,1776461051.7427142,3.6806929111480713,,,,,,80,253176.00000000003,68,61.0,1,-1,-1,0,0,0,0.0,8.0,-996.0
1776461055.4739609,response,right,x,1,1776461051.7427142,3.7312467098236084,2,0.45584240274614074,0.6357176492686499,2.597596394832777,2.6623299866177317,80,253176.00000000003,68,61.0,1,-1,-1,0,0,0,0.0,8.0,-996.0
1776461055.524843,response,right,x,1,1776461051.7427142,3.7821288108825684,,,,,,80,253164.0,67,61.0,2,-1,-1,0,0,0,5.0,0.0,-1005.0
1776461055.5768719,response,right,x,1,1776461051.7427142,3.834157705307007,,,,,,80,253164.0,67,61.0,2,-1,-1,0,0,0,5.0,0.0,-1005.0
1776461055.628795,response,right,x,1,1776461051.7427142,3.886080741882324,2,0.45311281478965554,0.6308346024535797,2.5955451943955596,2.660535504334061,80,253164.0,67,61.0,2,-1,-1,0,0,0,5.0,0.0,-1005.0
1776461055.679044,response,right,x,1,1776461051.7427142,3.9363298416137695,2,0.626749090560637,0.7243415948098026,2.555676899328932,2.6458054336315304,80,253164.0,67,61.0,2,-1,-1,0,0,0,5.0,0.0,-1005.0
1776461055.7292302,response,right,x,1,1776461051.7427142,3.986515998840332,,,,,,80,253173.99999999997,67,61.0,1,-1,-1,0,0,0,0.0,14.0,-989.0
1776461055.779493,response,right,x,1,1776461051.7427142,4.036778926849365,2,0.49369683984449547,0.7775181106955773,2.5928357755541733,2.6487793641099135,80,253173.99999999997,67,61.0,1,-1,-1,0,0,0,0.0,14.0,-989.0
1776461055.832395,response,right,x,1,1776461051.7427142,4.089680910110474,2,0.6251895135374834,0.7195258303136174,2.5532356144924466,2.6435846479375544,80,253178.00000000003,67,61.0,1,-1,-1,0,0,0,-12.0,19.0,-1017.0
1776461055.88352,response,right,x,1,1776461051.7427142,4.140805721282959,,,,,,80,253178.00000000003,67,61.0,1,-1,-1,0,0,0,-12.0,19.0,-1017.0
1776461055.933877,response,right,x,1,1776461051.7427142,4.191162824630737,,,,,,80,253173.99999999997,67,61.0,1,-1,-1,0,0,0,5.0,15.0,-992.0
1776461055.985985,response,right,x,1,1776461051.7427142,4.2432708740234375,,,,,,80,253173.99999999997,67,61.0,1,-1,-1,0,0,0,5.0,15.0,-992.0
1776461056.037407,response,right,x,1,1776461051.7427142,4.294692754745483,,,,,,80,253182.00000000003,67,61.0,1,-1,-1,0,0,0,1.0,16.0,-984.0
1776461056.089317,response,right,x,1,1776461051.7427142,4.346602916717529,,,,,,80,253182.00000000003,67,61.0,1,-1,-1,0,0,0,1.0,16.0,-984.0
1776461056.141057,response,right,x,1,1776461051.7427142,4.398342847824097,,,,,,80,253175.0,67,61.0,1,-1,-1,0,0,0,7.0,7.0,-997.0
1776461056.1909041,response,right,x,1,1776461051.7427142,4.448189973831177,,,,,,80,253175.0,67,61.0,1,-1,-1,0,0,0,7.0,7.0,-997.0
1776461056.242836,response,right,x,1,1776461051.7427142,4.500121831893921,2,0.6284387711015876,0.7110101938639231,2.5468116790430795,2.639071830319226,80,253189.0,67,61.0,1,-1,-1,0,0,0,-11.0,14.0,-1004.0
1776461056.293151,response,right,x,1,1776461051.7427142,4.550436735153198,2,0.6284387711015876,0.7110101938639231,2.5468116790430795,2.639071830319226,80,253188.0,67,61.0,1,-1,-1,0,0,0,18.0,-1.0,-981.0
1776461056.345241,response,right,x,1,1776461051.7427142,4.602526903152466,2,0.6284387711015876,0.7110101938639231,2.5468116790430795,2.639071830319226,80,253188.0,67,61.0,1,-1,-1,0,0,0,18.0,-1.0,-981.0
1776461056.396207,response,right,x,1,1776461051.7427142,4.6534929275512695,2,0.6284387711015876,0.7110101938639231,2.5468116790430795,2.639071830319226,80,253188.0,67,61.0,1,-1,-1,0,0,0,18.0,-1.0,-981.0
1776461056.447934,response,right,x,1,1776461051.7427142,4.705219745635986,,,,,,80,253173.99999999997,67,61.5,1,-1,-1,0,0,0,14.0,8.0,-1003.0
1776461056.499847,response,right,x,1,1776461051.7427142,4.7571327686309814,,,,,,80,253173.99999999997,67,61.5,1,-1,-1,0,0,0,14.0,8.0,-1003.0
1776461056.550333,response,right,x,1,1776461051.7427142,4.807618856430054,,,,,,80,253181.0,67,61.5,1,-1,-1,0,0,0,22.0,-4.0,-1016.0
1776461056.601898,response,right,x,1,1776461051.7427142,4.8591837882995605,,,,,,80,253181.0,67,61.5,1,-1,-1,0,0,0,22.0,-4.0,-1016.0
1776461056.652541,response,right,x,1,1776461051.7427142,4.909826755523682,,,,,,80,253175.0,67,61.5,1,0,-1,0,0,0,0.0,19.0,-999.0
1776461056.702664,response,right,x,1,1776461051.7427142,4.959949731826782,2,0.6865733019554104,0.8209159852469585,2.5504671715908644,2.6473263449489424,80,253175.0,67,61.5,1,0,-1,0,0,0,0.0,19.0,-999.0
1776461056.753883,response,right,x,1,1776461051.7427142,5.011168718338013,,,,,,80,253176.00000000003,67,61.5,1,-1,-1,0,0,0,15.0,13.0,-983.0
1776461056.8057878,response,right,x,1,1776461051.7427142,5.063073635101318,,,,,,80,253173.99999999997,67,61.5,1,-1,-1,0,0,0,9.0,12.0,-974.0
1776461056.857153,response,right,x,1,1776461051.7427142,5.114438772201538,2,0.5018387888444753,0.7444174513007997,2.631347997301908,2.690939778607695,80,253173.99999999997,67,61.5,1,-1,-1,0,0,0,9.0,12.0,-974.0
1776461056.9082508,response,right,x,1,1776461051.7427142,5.165536642074585,,,,,,80,253179.0,67,61.5,1,-1,-1,0,0,0,11.0,-6.0,-1008.0
1776461056.958742,response,right,x,1,1776461051.7427142,5.216027736663818,2,0.5000444569732303,0.7421659092140622,2.6307199280047535,2.690206352108031,80,253179.0,67,61.5,1,-1,-1,0,0,0,11.0,-6.0,-1008.0
1776461057.009448,response,right,x,1,1776461051.7427142,5.266733884811401,,,,,,80,253173.99999999997,67,61.5,1,-1,-1,0,0,0,-2.0,10.0,-994.0
1776461057.0596008,response,right,x,1,1776461051.7427142,5.31688666343689,,,,,,80,253173.99999999997,67,61.5,1,-1,-1,0,0,0,-2.0,10.0,-994.0
1776461057.1109362,response,right,x,1,1776461051.7427142,5.368221998214722,2,0.45788968927086793,0.44610508782081204,2.5714065076066057,2.669942690141525,80,253167.0,67,61.5,1,-1,-1,0,0,0,11.0,4.0,-984.0
1776461057.161676,response,right,x,1,1776461051.7427142,5.418961763381958,2,0.4592941639785075,0.5866614815243114,2.598403343059647,2.670861245580523,80,253167.0,67,61.5,1,-1,-1,0,0,0,11.0,4.0,-984.0
1776461057.2132869,response,right,x,1,1776461051.7427142,5.4705727100372314,,,,,,80,253160.0,67,61.5,0,-1,-1,0,0,0,-17.0,18.0,-993.0
1776461057.264469,response,right,x,1,1776461051.7427142,5.521754741668701,2,0.4943244862015718,0.739123941361508,2.6307996633441335,2.6895203818303384,80,253160.0,67,61.5,0,-1,-1,0,0,0,-17.0,18.0,-993.0
1776461057.3163981,response,right,x,1,1776461051.7427142,5.573683977127075,,,,,,80,253171.99999999997,67,61.5,0,-1,-1,0,0,0,9.0,7.0,-1000.0
1776461057.368408,response,right,x,1,1776461051.7427142,5.6256937980651855,,,,,,80,253171.99999999997,67,61.5,0,-1,-1,0,0,0,9.0,7.0,-1000.0
1776461057.420196,response,right,x,1,1776461051.7427142,5.6774818897247314,,,,,,80,253166.0,67,62.0,0,-1,-1,0,0,0,5.0,-3.0,-977.0
1776461057.4720268,response,right,x,1,1776461051.7427142,5.7293126583099365,2,0.49260081828981245,0.7368355094157784,2.6301456489512303,2.688787319588765,80,253166.0,67,62.0,0,-1,-1,0,0,0,5.0,-3.0,-977.0
1776461057.524411,response,right,x,1,1776461051.7427142,5.781696796417236,2,0.49017203526598985,0.7399020063881645,2.631688614413314,2.6895547128977273,80,253171.99999999997,66,62.0,0,-1,-1,0,0,0,25.0,-4.0,-1017.0
1776461057.576982,response,right,x,1,1776461051.7427142,5.834267854690552,,,,,,80,253171.99999999997,66,62.0,0,-1,-1,0,0,0,25.0,-4.0,-1017.0
1776461057.627136,response,right,x,1,1776461051.7427142,5.8844218254089355,,,,,,80,253179.0,66,62.0,1,-1,-1,0,0,0,16.0,13.0,-993.0
1776461057.674933,response,right,x,1,1776461051.7427142,5.932218790054321,,,,,,80,253179.0,66,62.0,1,-1,-1,0,0,0,16.0,13.0,-993.0
1776461057.725287,response,right,x,1,1776461051.7427142,5.982572793960571,2,0.4952955106313887,0.731700562736995,2.626786679274826,2.6865052557742968,80,253175.0,66,62.0,1,-1,-1,0,0,0,-3.0,2.0,-1028.0
1776461057.772321,response,right,x,1,1776461051.7427142,6.029606819152832,,,,,,80,253175.0,66,62.0,1,-1,-1,0,0,0,-3.0,2.0,-1028.0
1776461057.8229702,response,right,x,1,1776461051.7427142,6.08025598526001,,,,,,80,253187.0,66,62.0,1,-1,-1,0,0,0,20.0,-11.0,-978.0
1776461057.875378,response,right,x,1,1776461051.7427142,6.132663726806641,2,0.4629254516570379,0.5781704738229286,2.591410955193013,2.666017790946078,80,253187.0,66,62.0,1,-1,-1,0,0,0,20.0,-11.0,-978.0
1776461057.9296188,response,right,x,1,1776461051.7427142,6.186904668807983,,,,,,80,253177.0,66,62.0,1,-1,-1,0,0,0,20.0,-3.0,-976.0
1776461057.983671,response,right,x,1,1776461051.7427142,6.240956783294678,,,,,,80,253177.0,66,62.0,1,-1,-1,0,0,0,20.0,-3.0,-976.0
1776461058.032761,response,right,x,1,1776461051.7427142,6.29004693031311,,,,,,80,253178.00000000003,66,62.0,1,-1,-1,0,0,0,-1.0,1.0,-997.0
1776461058.08401,response,right,x,1,1776461051.7427142,6.3412957191467285,2,0.49362369667191314,0.7294578418261494,2.626124845267659,2.685775328689556,80,253178.00000000003,66,62.0,1,-1,-1,0,0,0,-1.0,1.0,-997.0
1776461058.1372402,response,right,x,1,1776461051.7427142,6.39452600479126,,,,,,80,253181.0,66,62.0,1,-1,-1,0,0,0,-2.0,18.0,-981.0
1776461058.190476,response,right,x,1,1776461051.7427142,6.44776177406311,,,,,,80,253181.0,66,62.0,1,-1,-1,0,0,0,-2.0,18.0,-981.0
1776461058.243636,response,right,x,1,1776461051.7427142,6.500921726226807,,,,,,80,253167.99999999997,66,62.0,1,-1,-1,0,0,0,4.0,6.0,-997.0
1776461058.294958,response,right,x,1,1776461051.7427142,6.552243947982788,,,,,,80,253167.99999999997,66,62.0,1,-1,-1,0,0,0,4.0,6.0,-997.0
1776461058.346721,response,right,x,1,1776461051.7427142,6.604006767272949,,,,,,80,253171.99999999997,66,62.0,0,-1,-1,0,0,0,18.0,-2.0,-982.0
1776461058.398005,response,right,x,1,1776461051.7427142,6.655290842056274,2,0.4859380756847006,0.7276610496758447,2.6274592159615935,2.6858604298818887,80,253171.99999999997,66,62.0,0,-1,-1,0,0,0,18.0,-2.0,-982.0
1776461058.44872,response,right,x,1,1776461051.7427142,6.706005811691284,,,,,,80,253178.00000000003,66,62.0,0,-1,-1,0,0,0,6.0,15.0,-1003.0
1776461058.4990962,response,right,x,1,1776461051.7427142,6.756381988525391,,,,,,80,253178.00000000003,66,62.0,0,-1,-1,0,0,0,6.0,15.0,-1003.0
1776461058.5506911,response,right,x,1,1776461051.7427142,6.807976961135864,,,,,,80,253171.99999999997,66,62.0,0,-1,-1,0,0,0,-5.0,15.0,-980.0
1776461058.602509,response,right,x,1,1776461051.7427142,6.859794855117798,,,,,,80,253171.99999999997,66,62.0,0,-1,-1,0,0,0,-5.0,15.0,-980.0
1776461058.65419,response,right,x,1,1776461051.7427142,6.911475896835327,2,0.28831788493606264,0.5583009322083503,2.638761662927582,2.6909642106498466,80,253177.0,66,62.0,1,-1,-1,0,0,0,2.0,9.0,-1006.0
1776461058.706084,response,right,x,1,1776461051.7427142,6.963369846343994,2,0.28831788493606264,0.5583009322083503,2.638761662927582,2.6909642106498466,80,253177.0,66,62.0,1,-1,-1,0,0,0,2.0,9.0,-1006.0
1776461058.757675,response,right,x,1,1776461051.7427142,7.014960765838623,,,,,,80,253164.0,66,62.0,1,-1,-1,0,0,0,21.0,0.0,-1001.0
1776461058.8080919,response,right,x,1,1776461051.7427142,7.065377712249756,,,,,,80,253164.0,66,62.0,1,-1,-1,0,0,0,21.0,0.0,-1001.0
1776461058.85759,response,right,x,1,1776461051.7427142,7.114875793457031,,,,,,80,253175.0,66,62.0,1,-1,-1,0,0,0,16.0,0.0,-999.0
1776461058.908146,response,right,x,1,1776461051.7427142,7.16543173789978,2,0.44748223472119253,0.5726661433878868,2.622095624858471,2.6941121062977293,80,253175.0,66,62.0,1,-1,-1,0,0,0,16.0,0.0,-999.0
1776461058.9586198,response,right,x,1,1776461051.7427142,7.215905666351318,2,0.282861971123314,0.5638350641789952,2.6436549509358267,2.6942832526583054,80,253173.99999999997,66,62.0,1,-1,-1,0,0,0,1.0,7.0,-1015.0
1776461059.007941,response,right,x,1,1776461051.7427142,7.2652268409729,,,,,,80,253173.99999999997,66,62.0,1,-1,-1,0,0,0,1.0,7.0,-1015.0
1776461059.059607,response,right,x,1,1776461051.7427142,7.316892862319946,2,0.28004995610743394,0.5666649782485306,2.6461286451395076,2.695960686957428,80,253173.99999999997,66,62.0,1,-1,-1,0,0,0,16.0,5.0,-996.0
1776461059.112125,response,right,x,1,1776461051.7427142,7.369410753250122,,,,,,80,253173.99999999997,66,62.0,1,-1,-1,0,0,0,16.0,5.0,-996.0
1776461059.16236,response,right,x,1,1776461051.7427142,7.4196457862854,2,0.475987002123162,0.748175129355302,2.6399644554240673,2.6943258373047434,80,253178.00000000003,66,62.0,1,-1,-1,0,0,0,-4.0,14.0,-1010.0
1776461059.214441,response,right,x,1,1776461051.7427142,7.471726894378662,,,,,,80,253178.00000000003,66,62.0,1,-1,-1,0,0,0,-4.0,14.0,-1010.0
1776461059.265168,response,right,x,1,1776461051.7427142,7.522453784942627,,,,,,80,253173.0,66,62.0,1,-1,-1,0,0,0,-14.0,29.0,-1018.0
1776461059.3165922,response,right,x,1,1776461051.7427142,7.573878049850464,2,0.4751950583511961,0.7521005419434467,2.642073405603291,2.6958887895056614,80,253173.0,66,62.0,1,-1,-1,0,0,0,-14.0,29.0,-1018.0
1776461059.3667898,response,right,x,1,1776461051.7427142,7.624075651168823,,,,,,80,253176.00000000003,66,62.0,1,-1,-1,0,0,0,17.0,-1.0,-988.0
1776461059.418174,response,right,x,1,1776461051.7427142,7.675459861755371,2,0.7651693642544227,0.7673296233868231,2.5242948574757844,2.647958494316995,80,253176.00000000003,66,62.0,1,-1,-1,0,0,0,17.0,-1.0,-988.0
1776461059.470612,response,right,x,1,1776461051.7427142,7.727897882461548,,,,,,80,253180.00000000003,66,63.0,1,-1,-1,0,0,0,-8.0,28.0,-1020.0
1776461059.5220008,response,right,x,1,1776461051.7427142,7.779286623001099,2,0.6099094510724002,0.711627754174411,2.58175592608959,2.6684474423470754,80,253180.00000000003,66,63.0,1,-1,-1,0,0,0,-8.0,28.0,-1020.0
1776461059.57376,response,right,x,1,1776461051.7427142,7.831045866012573,,,,,,80,253171.99999999997,65,63.0,1,-1,-1,0,0,0,9.0,8.0,-992.0
1776461059.62539,response,right,x,1,1776461051.7427142,7.882675886154175,,,,,,80,253171.99999999997,65,63.0,1,-1,-1,0,0,0,9.0,8.0,-992.0
1776461059.674541,response,right,x,1,1776461051.7427142,7.931826829910278,,,,,,80,253175.0,65,63.0,1,-1,-1,0,0,0,9.0,5.0,-1025.0
