timestamp,phase,command,axis,repeat,t_send,t_since_cmd,marker_id,pos_x,pos_y,pos_z,marker_dist,tello_height_cm,tello_baro_cm,tello_battery,tello_temp_c,tello_pitch,tello_roll,tello_yaw,tello_vgx,tello_vgy,tello_vgz,tello_agx,tello_agy,tello_agz
1776461774.974472,init_hover,none,-,0,,,2,0.3493864141039138,1.1054748571681543,3.3762034058642323,3.4752772993174186,70,253153.00000000003,89,61.0,0,-1,4,0,0,0,13.0,9.0,-999.0
1776461775.186409,init_hover,none,-,0,,,,,,,,70,253148.99999999997,89,61.0,0,-1,4,0,0,0,-8.0,20.0,-996.0
1776461775.237568,init_hover,none,-,0,,,,,,,,70,253148.99999999997,89,61.0,0,-1,4,0,0,0,-8.0,20.0,-996.0
1776461775.287411,init_hover,none,-,0,,,,,,,,70,253148.99999999997,89,61.0,0,-1,4,0,0,0,-8.0,20.0,-996.0
1776461775.3389819,init_hover,none,-,0,,,,,,,,70,253160.0,89,61.0,0,-1,4,0,0,0,0.0,20.0,-1023.0
1776461775.3883252,init_hover,none,-,0,,,2,0.3660766483947786,1.0828704186367148,3.343501285236523,3.4371534008948563,70,253160.0,89,61.0,0,-1,4,0,0,0,0.0,20.0,-1023.0
1776461775.439174,init_hover,none,-,0,,,,,,,,70,253152.0,89,61.0,0,-1,4,0,0,0,12.0,8.0,-988.0
1776461775.499558,init_hover,none,-,0,,,2,0.2711798982022896,0.8404941177281047,3.376435704339348,3.4625618011789765,70,253152.0,89,61.0,0,-1,4,0,0,0,12.0,8.0,-988.0
1776461775.552806,init_hover,none,-,0,,,,,,,,70,253152.0,89,61.0,0,0,4,0,0,0,-9.0,22.0,-987.0
1776461775.6038668,init_hover,none,-,0,,,,,,,,70,253152.0,89,61.0,0,0,4,0,0,0,-9.0,22.0,-987.0
1776461775.6557262,init_hover,none,-,0,,,2,0.3652508958390127,1.0718543906159304,3.347874239737208,3.4400312376885034,70,253156.0,89,61.0,0,0,4,0,0,0,-8.0,16.0,-1007.0
1776461775.706314,init_hover,none,-,0,,,2,0.2666158234817091,0.8350842750698647,3.3774522858139333,3.4641450474398874,70,253156.0,89,61.0,0,0,4,0,0,0,-8.0,16.0,-1007.0
1776461775.757546,init_hover,none,-,0,,,2,-0.01764413685698707,0.7620804103371255,3.2696314291091446,3.428171426710275,70,253151.00000000003,89,61.0,0,-1,4,0,0,0,-13.0,23.0,-993.0
1776461775.8077471,init_hover,none,-,0,,,2,0.3610301058955321,1.0709206087513559,3.3485394087823983,3.4413318522757135,70,253151.00000000003,89,61.0,0,-1,4,0,0,0,-13.0,23.0,-993.0
1776461775.858548,init_hover,none,-,0,,,,,,,,70,253148.0,88,61.0,0,-1,4,0,0,0,5.0,18.0,-989.0
1776461775.909837,init_hover,none,-,0,,,2,0.2642907480463207,0.8323928033880086,3.3779462570413736,3.464938013000608,70,253148.0,88,61.0,0,-1,4,0,0,0,5.0,18.0,-989.0
1776461775.958426,init_hover,none,-,0,,,,,,,,70,253150.0,88,61.0,0,-1,4,0,0,0,-7.0,23.0,-1013.0
1776461776.0103521,init_hover,none,-,0,,,,,,,,70,253150.0,88,61.0,0,-1,4,0,0,0,-7.0,23.0,-1013.0
1776461776.062523,init_hover,none,-,0,,,,,,,,70,253150.0,88,61.0,0,-1,4,0,0,0,-7.0,23.0,-1013.0
1776461776.116576,init_hover,none,-,0,,,2,0.3567621587392774,1.0687759281485805,3.347965802714599,3.4412760434739504,70,253148.0,88,61.0,0,-1,4,0,0,0,0.0,15.0,-1005.0
1776461776.166629,init_hover,none,-,0,,,,,,,,70,253155.00000000003,88,61.0,0,-1,4,0,0,0,8.0,16.0,-1005.0
1776461776.217607,init_hover,none,-,0,,,,,,,,70,253155.00000000003,88,61.0,0,-1,4,0,0,0,8.0,16.0,-1005.0
1776461776.267756,init_hover,none,-,0,,,2,0.5995375281431944,1.3202273222859051,3.335946484645667,3.436224168408192,70,253153.00000000003,88,61.0,0,-1,4,0,0,0,-8.0,18.0,-1008.0
1776461776.319206,init_hover,none,-,0,,,,,,,,70,253153.00000000003,88,61.0,0,-1,4,0,0,0,-8.0,18.0,-1008.0
1776461776.3721962,init_hover,none,-,0,,,2,0.3495987663823461,1.067603930810906,3.34556386392443,3.4401268535328953,70,253156.0,88,61.0,0,-1,4,0,0,0,-5.0,19.0,-1005.0
1776461776.4235919,init_hover,none,-,0,,,2,0.24991464111932526,0.8353616568332873,3.371708366929899,3.462143911904811,70,253156.0,88,61.0,0,-1,4,0,0,0,-5.0,19.0,-1005.0
1776461776.475722,init_hover,none,-,0,,,,,,,,70,253148.99999999997,88,61.0,0,0,4,0,0,0,-6.0,20.0,-995.0
1776461776.527082,init_hover,none,-,0,,,2,0.3439097879699978,1.0694613430855209,3.3419573531380724,3.4379539364521547,70,253148.99999999997,88,61.0,0,0,4,0,0,0,-6.0,20.0,-995.0
1776461776.578779,init_hover,none,-,0,,,2,0.34110756166915646,1.0704018700779847,3.3401657353547978,3.4368771151003767,70,253163.0,88,61.5,0,0,4,0,0,0,-15.0,24.0,-988.0
1776461776.62923,init_hover,none,-,0,,,2,0.26268830783257247,0.8254549547742458,3.332245802027419,3.420280771101754,70,253163.0,88,61.5,0,0,4,0,0,0,-15.0,24.0,-988.0
1776461776.681623,init_hover,none,-,0,,,2,0.3425063881719722,1.0732531117320232,3.3389738368079933,3.435842347990809,70,253160.0,88,61.5,0,-1,4,0,0,0,3.0,7.0,-987.0
1776461776.733794,init_hover,none,-,0,,,2,0.3425063881719722,1.0732531117320232,3.3389738368079933,3.435842347990809,70,253160.0,88,61.5,0,-1,4,0,0,0,3.0,7.0,-987.0
1776461776.78655,init_hover,none,-,0,,,2,0.5741776080289736,1.3270843988919765,3.3243573132255544,3.4294792576442648,70,253154.0,88,61.5,0,-1,4,0,0,0,10.0,25.0,-977.0
1776461776.839128,init_hover,none,-,0,,,2,0.2474906256807654,0.8465086969986332,3.365438177509221,3.457341612101829,70,253154.0,88,61.5,0,-1,4,0,0,0,10.0,25.0,-977.0
1776461776.890786,init_hover,none,-,0,,,,,,,,70,253151.00000000003,88,61.5,0,-1,4,0,0,0,19.0,7.0,-988.0
1776461776.9422998,init_hover,none,-,0,,,2,0.33954712319897173,1.084515488774806,3.329747955954535,3.4290194971042154,70,253151.00000000003,88,61.5,0,-1,4,0,0,0,19.0,7.0,-988.0
1776461776.992617,init_hover,none,-,0,,,2,0.24743942390741636,0.8509823687685931,3.363195139859536,3.4554914439043687,70,253157.00000000003,88,61.5,0,-1,4,0,0,0,10.0,1.0,-1016.0
1776461777.042793,init_hover,none,-,0,,,2,0.24743942390741636,0.8509823687685931,3.363195139859536,3.4554914439043687,70,253157.00000000003,88,61.5,0,-1,4,0,0,0,10.0,1.0,-1016.0
1776461777.09302,init_hover,none,-,0,,,2,0.24743942390741636,0.8509823687685931,3.363195139859536,3.4554914439043687,70,253157.00000000003,88,61.5,0,-1,4,0,0,0,10.0,1.0,-1016.0
1776461777.145447,init_hover,none,-,0,,,2,0.33975464201588457,1.080683419323009,3.333062601689056,3.4316594803578413,70,253158.0,88,61.5,0,-1,4,0,0,0,6.0,17.0,-1004.0
1776461777.195031,init_hover,none,-,0,,,,,,,,70,253158.0,88,61.5,0,-1,4,0,0,0,12.0,-4.0,-993.0
1776461777.246758,init_hover,none,-,0,,,,,,,,70,253158.0,88,61.5,0,-1,4,0,0,0,12.0,-4.0,-993.0
1776461777.2976792,init_hover,none,-,0,,,2,0.24966528990815484,0.8534793469752279,3.3626912496056742,3.4546991760045,70,253156.0,88,61.5,0,-1,4,0,0,0,6.0,7.0,-1012.0
1776461777.351298,init_hover,none,-,0,,,2,0.3410924563887159,1.0834599404580194,3.331872016709134,3.4306360635871767,70,253156.0,88,61.5,0,-1,4,0,0,0,6.0,7.0,-1012.0
1776461777.403145,init_hover,none,-,0,,,2,0.5816879233460591,1.3287465574761557,3.3212813754013903,3.425925643252642,70,253163.0,88,61.5,0,-1,4,0,0,0,18.0,18.0,-993.0
1776461777.455602,init_hover,none,-,0,,,2,0.34240067128093643,1.0862254115238357,3.330676984108552,3.4296153137653387,70,253163.0,88,61.5,0,-1,4,0,0,0,18.0,18.0,-993.0
1776461777.508335,init_hover,none,-,0,,,2,0.26906514651711555,0.842157776428527,3.3262960727071276,3.414257124474915,70,253157.00000000003,88,61.5,0,-1,4,0,0,0,8.0,3.0,-984.0
1776461777.5607848,init_hover,none,-,0,,,,,,,,70,253148.99999999997,88,62.0,0,-1,4,0,0,0,-1.0,17.0,-990.0
1776461777.612839,init_hover,none,-,0,,,,,,,,70,253148.99999999997,88,62.0,0,-1,4,0,0,0,-1.0,17.0,-990.0
1776461777.663877,init_hover,none,-,0,,,,,,,,70,253158.0,88,62.0,0,-1,4,0,0,0,-13.0,30.0,-973.0
1776461777.715795,init_hover,none,-,0,,,,,,,,70,253158.0,88,62.0,0,-1,4,0,0,0,-13.0,30.0,-973.0
1776461777.767352,init_hover,none,-,0,,,2,0.3478803800973085,1.0944634305013345,3.3268641440585327,3.4260442372782483,70,253152.0,88,62.0,0,-1,4,0,0,0,-21.0,24.0,-1008.0
1776461777.819544,init_hover,none,-,0,,,,,,,,70,253152.0,88,62.0,0,-1,4,0,0,0,-21.0,24.0,-1008.0
1776461777.8713841,init_hover,none,-,0,,,2,0.5876501243401877,1.3375781576937829,3.317970648427096,3.423884224457267,70,253146.0,87,62.0,0,-1,4,0,0,0,-2.0,18.0,-989.0
1776461777.922741,init_hover,none,-,0,,,2,0.628749356991687,1.0754130150511725,3.3769262385928753,3.430375401572131,70,253146.0,87,62.0,0,-1,4,0,0,0,-2.0,18.0,-989.0
1776461777.9739141,init_hover,none,-,0,,,2,0.37504091775029447,1.298597854996979,3.258924099194442,3.3910469035097526,70,253161.0,87,62.0,0,-1,4,0,0,0,-6.0,15.0,-993.0
1776461778.024833,init_hover,none,-,0,,,,,,,,70,253161.0,87,62.0,0,-1,4,0,0,0,-6.0,15.0,-993.0
1776461778.077086,init_hover,none,-,0,,,2,0.6292337658306928,1.0794465396760538,3.3752120582875813,3.429197139742381,70,253161.0,87,62.0,0,-1,4,0,0,0,-6.0,15.0,-993.0
1776461778.128864,init_hover,none,-,0,,,2,0.6292337658306928,1.0794465396760538,3.3752120582875813,3.429197139742381,70,253161.0,87,62.0,0,-1,4,0,0,0,-6.0,15.0,-993.0
1776461778.181338,init_hover,none,-,0,,,2,0.6292337658306928,1.0794465396760538,3.3752120582875813,3.429197139742381,70,253165.0,87,62.0,0,-1,4,0,0,0,7.0,2.0,-995.0
1776461778.233952,init_hover,none,-,0,,,,,,,,70,253165.0,87,62.0,0,-1,4,0,0,0,7.0,2.0,-995.0
1776461778.285532,init_hover,none,-,0,,,2,0.5570918917850131,0.6989910776884283,3.3900380108006285,3.4202813539908643,70,253157.00000000003,87,62.0,0,-1,4,0,0,0,17.0,8.0,-1000.0
1776461778.337555,init_hover,none,-,0,,,2,0.5570918917850131,0.6989910776884283,3.3900380108006285,3.4202813539908643,70,253157.00000000003,87,62.0,0,-1,4,0,0,0,17.0,8.0,-1000.0
1776461778.388427,init_hover,none,-,0,,,,,,,,70,253157.00000000003,87,62.0,0,-1,4,0,0,0,3.0,2.0,-988.0
1776461778.440746,init_hover,none,-,0,,,,,,,,70,253157.00000000003,87,62.0,0,-1,4,0,0,0,3.0,2.0,-988.0
1776461778.491256,init_hover,none,-,0,,,,,,,,70,253156.0,87,62.0,0,-1,4,0,0,0,21.0,-2.0,-988.0
1776461778.542751,init_hover,none,-,0,,,,,,,,70,253156.0,87,62.0,0,-1,4,0,0,0,21.0,-2.0,-988.0
1776461778.593032,init_hover,none,-,0,,,2,0.30163531875617167,0.8470215982196045,3.2898975864855857,3.372263190731033,70,253159.0,87,62.0,1,-1,4,0,0,0,9.0,12.0,-988.0
1776461778.6454442,init_hover,none,-,0,,,2,0.40147951562423234,1.2941741196957603,3.222022453793621,3.349855694119234,70,253159.0,87,62.0,1,-1,4,0,0,0,9.0,12.0,-988.0
1776461778.6966348,init_hover,none,-,0,,,2,0.3061666628888601,0.8478984012115538,3.2910998692067017,3.372565294564717,70,253161.0,87,62.0,1,-1,4,0,0,0,-10.0,23.0,-989.0
1776461778.748081,init_hover,none,-,0,,,,,,,,70,253161.0,87,62.0,1,-1,4,0,0,0,-10.0,23.0,-989.0
1776461778.7996411,init_hover,none,-,0,,,2,0.3107022140837401,0.8488298682597579,3.2922988582938175,3.372874073150375,70,253146.99999999997,87,62.0,1,-1,4,0,0,0,-3.0,18.0,-995.0
1776461778.85199,init_hover,none,-,0,,,,,,,,70,253146.99999999997,87,62.0,1,-1,4,0,0,0,-3.0,18.0,-995.0
1776461778.90372,init_hover,none,-,0,,,,,,,,70,253152.0,87,62.0,1,-1,4,0,0,0,-8.0,16.0,-1015.0
1776461778.9548311,init_hover,none,-,0,,,,,,,,70,253152.0,87,62.0,1,-1,4,0,0,0,-8.0,16.0,-1015.0
1776461779.0062232,init_hover,none,-,0,,,2,0.6693872340740226,1.0928925042827007,3.333301956142472,3.385727359459785,70,253150.0,87,62.0,1,-1,4,0,0,0,-3.0,10.0,-1004.0
1776461779.056653,init_hover,none,-,0,,,2,0.40186856393807247,1.085755285648996,3.2583296834266764,3.348198282396194,70,253150.0,87,62.0,1,-1,4,0,0,0,-3.0,10.0,-1004.0
1776461779.1079402,init_hover,none,-,0,,,2,0.40186856393807247,1.085755285648996,3.2583296834266764,3.348198282396194,70,253150.0,87,62.0,1,-1,4,0,0,0,-3.0,10.0,-1004.0
1776461779.160026,init_hover,none,-,0,,,2,0.03948622198169738,0.7827704482991267,3.19077797048997,3.3372227692347045,70,253148.99999999997,87,62.0,1,-1,4,0,0,0,-2.0,15.0,-999.0
1776461779.2117188,init_hover,none,-,0,,,2,0.03948622198169738,0.7827704482991267,3.19077797048997,3.3372227692347045,70,253148.99999999997,87,62.0,1,-1,4,0,0,0,-2.0,15.0,-999.0
1776461779.262205,init_hover,none,-,0,,,,,,,,70,253144.99999999997,87,62.0,1,-1,4,0,0,0,-7.0,23.0,-990.0
1776461779.31347,init_hover,none,-,0,,,2,0.34095734376798204,0.8397095675744504,3.261437847092841,3.3359818239867063,70,253148.99999999997,87,62.0,1,-1,4,0,0,0,10.0,22.0,-1010.0
1776461779.364403,init_hover,none,-,0,,,,,,,,70,253148.99999999997,87,62.0,1,-1,4,0,0,0,10.0,22.0,-1010.0
1776461779.4143639,init_hover,none,-,0,,,2,0.33919692221414055,0.8469023649982803,3.257561854200245,3.3330662638767845,70,253152.0,87,62.0,1,-1,4,0,0,0,-7.0,12.0,-1010.0
1776461779.465504,init_hover,none,-,0,,,,,,,,70,253152.0,87,62.0,1,-1,4,0,0,0,13.0,3.0,-1012.0
1776461779.5175848,init_hover,none,-,0,,,2,0.21134600705516737,0.6480435358617271,3.206606921919534,3.302515897558737,70,253152.0,87,62.0,1,-1,4,0,0,0,13.0,3.0,-1012.0
1776461779.570409,init_hover,none,-,0,,,2,0.3411982492969682,0.8496741937260266,3.257002855757119,3.3323301985475795,70,253152.0,87,63.0,1,-1,4,0,0,0,-8.0,18.0,-1003.0
1776461779.6232698,init_hover,none,-,0,,,,,,,,70,253152.0,87,63.0,1,-1,4,0,0,0,-8.0,18.0,-1003.0
1776461779.6750798,init_hover,none,-,0,,,,,,,,70,253146.0,87,63.0,1,-1,4,0,0,0,-10.0,20.0,-1008.0
1776461779.725462,init_hover,none,-,0,,,,,,,,70,253146.0,87,63.0,1,-1,4,0,0,0,-10.0,20.0,-1008.0
1776461779.7773418,init_hover,none,-,0,,,,,,,,70,253144.0,86,63.0,1,-1,4,0,0,0,8.0,13.0,-997.0
1776461779.826584,init_hover,none,-,0,,,,,,,,70,253144.0,86,63.0,1,-1,4,0,0,0,8.0,13.0,-997.0
1776461779.8788538,init_hover,none,-,0,,,2,0.43430751783014565,1.0820756133003169,3.223318712862196,3.307897883250021,70,253153.00000000003,86,63.0,1,-1,4,0,0,0,-8.0,17.0,-1001.0
1776461779.930016,init_hover,none,-,0,,,,,,,,70,253153.00000000003,86,63.0,1,-1,4,0,0,0,-8.0,17.0,-1001.0
1776461780.000658,recenter,right,-,1,,,2,0.36595934972627797,0.8423020114942952,3.2260641172968794,3.2966964524936473,70,253155.00000000003,86,63.0,1,-1,4,0,0,0,-8.0,19.0,-1014.0
1776461780.10461,recenter,right,-,1,,,2,0.1743018505266517,0.9347694006729121,3.167319866013892,3.2902527439874385,70,253140.0,86,63.0,1,-1,4,0,0,0,18.0,-1.0,-995.0
1776461780.155991,recenter,right,-,1,,,2,0.360288234369731,0.8398297818498202,3.2630026415601545,3.3337569956696713,70,253140.0,86,63.0,1,-1,4,0,0,0,18.0,-1.0,-995.0
1776461780.309978,recenter,right,-,1,,,2,0.44464161629702137,1.0869076768965709,3.2256132380047062,3.3090909297511306,70,253157.00000000003,86,63.0,0,-1,4,0,0,0,5.0,14.0,-995.0
1776461780.360498,recenter,right,-,1,,,2,0.07573269003365735,0.7745828076600165,3.16540399498896,3.302201033930996,70,253157.00000000003,86,63.0,0,-1,4,0,0,0,5.0,14.0,-995.0
1776461780.413118,recenter,right,-,1,,,2,0.36886162244880427,0.8481264188822344,3.2684636144071293,3.338076807095456,70,253146.99999999997,86,63.0,0,-1,4,0,0,0,-22.0,20.0,-987.0
1776461780.515645,recenter,right,-,1,,,2,0.7049878272756446,1.1179481033510783,3.2924688504298874,3.345990668078981,70,253142.0,86,63.0,0,-1,4,0,0,0,-8.0,10.0,-1007.0
1776461780.5682912,recenter,right,-,1,,,2,0.3808712544889804,0.8420190648645937,3.231977814430344,3.299632437749078,70,253142.0,86,63.0,0,-1,4,0,0,0,-8.0,10.0,-1007.0
1776461780.726133,recenter,right,-,1,,,2,0.4492780220890623,1.08765892121033,3.2287768211908383,3.3115110873209184,70,253150.0,86,62.0,0,-1,4,0,0,0,1.0,14.0,-1000.0
1776461780.7785118,recenter,right,-,1,,,2,0.3708984863950391,0.8480283025919686,3.2690225093253344,3.3382323046460405,70,253150.0,86,62.0,0,-1,4,0,0,0,1.0,14.0,-1000.0
1776461780.8304682,recenter,right,-,1,,,2,0.2425610469838081,0.6283387020319515,3.223327604964318,3.3112471515282764,70,253151.00000000003,86,62.0,1,-1,4,0,0,0,0.0,3.0,-1013.0
1776461780.881824,recenter,right,-,1,,,2,0.7165140340201752,0.6441885558951173,3.3363268432049766,3.348640578812497,70,253146.0,86,62.0,0,-1,4,0,0,0,-7.0,28.0,-1012.0
1776461780.934531,recenter,right,-,1,,,2,0.4565842041778264,1.0858433678580877,3.232153619482901,3.3133308807266975,70,253146.0,86,62.0,0,-1,4,0,0,0,-7.0,28.0,-1012.0
1776461780.9872231,recenter,right,-,1,,,2,0.44451374521168585,1.094248333359423,3.2280748280756253,3.3125992045435853,70,253146.0,86,62.0,0,-1,4,0,0,0,-12.0,22.0,-1005.0
1776461781.0401332,recenter,right,-,1,,,2,0.23646987865804792,0.635937523507712,3.2198747692589516,3.309359950428891,70,253146.0,86,62.0,0,-1,4,0,0,0,-12.0,22.0,-1005.0
1776461781.0921931,recenter,right,-,1,,,2,0.44451374521168585,1.094248333359423,3.2280748280756253,3.3125992045435853,70,253144.0,86,62.0,0,-1,4,0,0,0,5.0,14.0,-987.0
1776461781.143924,recenter,right,-,1,,,2,0.7294007764680034,1.1088872199890865,3.2611935103725593,3.3117326665267592,70,253144.0,86,62.0,0,-1,4,0,0,0,5.0,14.0,-987.0
1776461781.1956449,recenter,right,-,1,,,2,0.7294007764680034,1.1088872199890865,3.2611935103725593,3.3117326665267592,70,253140.0,86,62.0,0,-1,4,0,0,0,1.0,27.0,-1006.0
1776461781.246729,recenter,right,-,1,,,2,0.7294007764680034,1.1088872199890865,3.2611935103725593,3.3117326665267592,70,253140.0,86,62.0,0,-1,4,0,0,0,1.0,27.0,-1006.0
1776461781.297844,recenter,right,-,1,,,2,0.7294007764680034,1.1088872199890865,3.2611935103725593,3.3117326665267592,70,253140.0,86,62.0,0,-1,4,0,0,0,1.0,27.0,-1006.0
1776461781.349319,recenter,right,-,1,,,2,0.7231821271650591,0.6385624151317053,3.3380521594463186,3.349732439130905,70,253142.0,86,62.0,1,-1,4,0,0,0,2.0,17.0,-1016.0
1776461781.4000719,recenter,right,-,1,,,2,0.38668617175481756,0.8389332007126465,3.2356026288325945,3.3018733013288,70,253146.0,86,62.0,1,-1,4,0,0,0,0.0,21.0,-1006.0
1776461781.4519281,recenter,right,-,1,,,2,0.38668617175481756,0.8389332007126465,3.2356026288325945,3.3018733013288,70,253146.0,86,62.0,1,-1,4,0,0,0,0.0,21.0,-1006.0
1776461781.504457,recenter,right,-,1,,,2,0.19902326858301334,0.9316557264305481,3.1386675186432673,3.2561930283280036,70,253142.0,86,62.0,1,-1,4,0,0,0,-2.0,13.0,-1004.0
1776461781.556711,recenter,right,-,1,,,2,0.25362580117729816,0.6346976336685626,3.186010795406862,3.2724521629657928,70,253142.0,86,62.0,1,-1,4,0,0,0,-2.0,13.0,-1004.0
1776461781.6073248,recenter,right,-,1,,,2,0.7313888134911526,1.098953699190738,3.2221697985937867,3.2716180972759847,70,253144.0,86,62.5,1,-1,4,0,0,0,-6.0,23.0,-1010.0
1776461781.6592798,recenter,right,-,1,,,2,0.6588567988588736,1.335959211834309,3.1616750521321886,3.2640777840676023,70,253144.0,86,62.5,1,-1,4,0,0,0,-6.0,23.0,-1010.0
1776461781.915981,recenter,right,-,1,,,2,0.7306400025076956,1.1027427556008451,3.2203858684559825,3.2705030543188887,70,253142.99999999997,85,62.5,1,-1,4,0,0,0,-2.0,21.0,-989.0
1776461781.969443,recenter,right,-,1,,,2,0.3906895491416982,0.852907924484555,3.1921795604203775,3.2596367880114903,70,253142.99999999997,85,62.5,1,-1,4,0,0,0,-2.0,21.0,-989.0
1776461782.021555,recenter,right,-,1,,,2,0.4669489960139437,1.0787732969790962,3.1550340559020476,3.2353681609134535,70,253142.0,85,62.5,1,-1,4,0,0,0,9.0,5.0,-1023.0
1776461782.0739598,recenter,right,-,1,,,2,0.4100143379371288,0.8281974983724208,3.163387886874803,3.2260161348836167,70,253142.0,85,62.5,1,-1,4,0,0,0,9.0,5.0,-1023.0
1776461782.228002,recenter,right,-,1,,,2,0.4706012057577875,1.069747766155428,3.156836216750006,3.2352033856525337,70,253146.0,85,62.5,1,-1,4,0,0,0,0.0,11.0,-993.0
1776461782.27909,recenter,right,-,1,,,2,0.4706012057577875,1.069747766155428,3.156836216750006,3.2352033856525337,70,253146.0,85,62.5,1,-1,4,0,0,0,0.0,11.0,-993.0
1776461782.329891,recenter,right,-,1,,,2,0.4706012057577875,1.069747766155428,3.156836216750006,3.2352033856525337,70,253146.0,85,62.5,1,-1,4,0,0,0,0.0,11.0,-993.0
1776461782.3820999,recenter,right,-,1,,,2,0.4706012057577875,1.069747766155428,3.156836216750006,3.2352033856525337,70,253148.0,85,62.5,1,-1,4,0,0,0,8.0,11.0,-1000.0
1776461782.5910091,recenter,right,-,1,,,2,0.40243651016496396,0.8282219572399809,3.1604626180711417,3.224545137903231,70,253148.99999999997,85,62.5,1,-1,4,0,0,0,10.0,19.0,-992.0
1776461782.643328,recenter,right,-,1,,,2,0.4759426801516293,1.265804245995028,3.085577397358045,3.1997998755482366,70,253146.99999999997,85,63.0,1,-1,4,0,0,0,4.0,11.0,-1006.0
1776461782.848505,recenter,right,-,1,,,2,0.4771173781897513,1.0550118038725451,3.126920135719318,3.202822429205439,70,253146.0,85,63.0,1,-1,4,0,0,0,17.0,7.0,-985.0
1776461783.004834,recenter,right,-,1,,,2,0.402501922283072,0.8158964963420803,3.165737623025855,3.2288558264266927,70,253146.99999999997,85,63.0,1,-1,4,0,0,0,-8.0,33.0,-1005.0
1776461783.057004,recenter,right,-,1,,,2,0.4794530073624892,1.051747580205892,3.1298205183377132,3.2048122448551624,70,253148.99999999997,85,63.0,1,-1,4,0,0,0,0.0,11.0,-1029.0
1776461783.2637691,recenter,right,-,1,,,2,0.39767957811098786,0.8145328720356847,3.164522073283927,3.228469327113027,70,253146.99999999997,85,63.0,1,-1,4,0,0,0,-13.0,28.0,-1023.0
1776461783.3156962,recenter,right,-,1,,,2,0.4757312869650504,1.0489453296176459,3.129526905718731,3.2047384052478094,70,253146.0,85,63.0,1,-1,4,0,0,0,17.0,16.0,-988.0
1776461783.625267,recenter,right,-,1,,,2,0.4731361572936419,1.0494014789932413,3.1261788274928306,3.201958972182041,70,253153.00000000003,85,63.5,1,-1,4,0,0,0,7.0,25.0,-1007.0
1776461783.677105,recenter,right,-,1,,,2,0.7403562206689289,1.0565672684463385,3.1585057281221274,3.2018786668676507,70,253153.00000000003,85,63.5,1,-1,4,0,0,0,7.0,25.0,-1007.0
1776461783.7284749,recenter,right,-,1,,,2,0.4719804613043518,1.0462031042075597,3.1292137966724027,3.2046654784444732,70,253142.0,85,63.5,1,-1,4,0,0,0,14.0,10.0,-1009.0
1776461783.8846772,recenter,right,-,1,,,2,0.13060069862675427,0.7466580995975436,3.0325032665117013,3.158075332351967,70,253153.00000000003,84,63.5,1,-1,4,0,0,0,-10.0,17.0,-999.0
1776461783.93605,recenter,right,-,1,,,2,0.40271974246547426,0.8059119093069315,3.12813011976395,3.1912915044867582,70,253153.00000000003,84,63.5,1,-1,4,0,0,0,12.0,16.0,-992.0
1776461783.987917,recenter,right,-,1,,,2,0.12878002366298402,0.7448156124976962,3.0325819388618593,3.1585675589898194,70,253153.00000000003,84,63.5,1,-1,4,0,0,0,12.0,16.0,-992.0
1776461784.143234,recenter,right,-,1,,,2,0.3865683006791051,0.8212340365171623,3.1575202872062595,3.2241552867013863,70,253153.00000000003,84,63.5,1,-1,4,0,0,0,16.0,6.0,-1011.0
1776461784.193405,recenter,right,-,1,,,2,0.12755744732424146,0.7496002865263982,3.029305338080285,3.1559827446882354,70,253153.00000000003,84,63.5,1,-1,4,0,0,0,16.0,6.0,-1011.0
1776461784.245045,recenter,right,-,1,,,2,0.4610030580979436,1.0505399746493869,3.121559050958879,3.1996304287776947,70,253154.0,84,63.5,1,-1,4,0,0,0,11.0,-1.0,-1013.0
1776461784.295288,recenter,right,-,1,,,2,0.45813973870471036,1.0509098935353363,3.119977924430516,3.1986238484374496,70,253154.0,84,63.5,1,-1,4,0,0,0,11.0,-1.0,-1013.0
1776461784.34622,recenter,right,-,1,,,2,0.6626413577268302,1.2876559844808084,3.0963412736446165,3.189672536387369,70,253148.0,84,63.5,1,-1,4,0,0,0,22.0,9.0,-1016.0
1776461784.3967428,recenter,right,-,1,,,2,0.6517777427176394,1.2913425909079312,3.092773500376504,3.188175221517984,70,253148.0,84,63.5,1,-1,4,0,0,0,22.0,9.0,-1016.0
1776461784.448867,recenter,right,-,1,,,2,0.6517777427176394,1.2913425909079312,3.092773500376504,3.188175221517984,70,253148.0,84,63.5,1,-1,4,0,0,0,22.0,9.0,-1016.0
1776461784.500051,recenter,right,-,1,,,2,0.7154438336923694,1.0557945618753217,3.1502360919893473,3.195732831400511,70,253148.0,84,63.5,1,-1,4,0,0,0,-4.0,8.0,-991.0
1776461784.65574,recenter,right,-,1,,,2,0.3778455759653224,0.8305904570612467,3.1501249333240344,3.219244504815282,70,253148.99999999997,84,63.5,1,-1,4,0,0,0,24.0,-3.0,-974.0
1776461784.811916,recenter,right,-,1,,,2,0.45611070820182575,1.0541463935439255,3.1171677395627815,3.1966856625374684,70,253146.99999999997,84,63.5,1,-1,4,0,0,0,-12.0,25.0,-1015.0
1776461784.862271,recenter,right,-,1,,,2,0.6514223958151493,1.2937582966905028,3.091057982580127,3.187074892756441,70,253146.99999999997,84,63.5,1,-1,4,0,0,0,-12.0,25.0,-1015.0
1776461784.9147048,recenter,right,-,1,,,2,0.4543119001891077,1.0549982542697445,3.1157251686199294,3.195706845133863,70,253153.00000000003,84,63.5,1,-1,4,0,0,0,23.0,10.0,-1013.0
1776461784.96669,recenter,right,-,1,,,2,0.3823297619199003,0.8317917111823272,3.151260218861679,3.2195783710546504,70,253153.00000000003,84,63.5,1,-1,4,0,0,0,23.0,10.0,-1013.0
1776461785.0178409,recenter,right,-,1,,,2,0.4568926901316751,1.0569880117908632,3.1159308495678077,3.195751656847155,70,253150.0,84,63.5,1,-1,4,0,0,0,6.0,13.0,-997.0
1776461785.069367,recenter,right,-,1,,,2,0.6795761231235641,0.6696579548835138,3.210965075962645,3.2276648541326085,70,253150.0,84,63.5,1,-1,4,0,0,0,6.0,13.0,-997.0
1776461785.121557,recenter,right,-,1,,,2,0.6795761231235641,0.6696579548835138,3.210965075962645,3.2276648541326085,70,253148.99999999997,84,63.5,1,-1,4,0,0,0,20.0,14.0,-1014.0
1776461785.173863,recenter,right,-,1,,,2,0.4568926901316751,1.0569880117908632,3.1159308495678077,3.195751656847155,70,253148.99999999997,84,63.5,1,-1,4,0,0,0,20.0,14.0,-1014.0
1776461785.2259488,recenter,right,-,1,,,2,0.6705774925067954,0.6740949947275255,3.207721623609666,3.2254437324591194,70,253148.99999999997,84,63.5,1,-1,4,0,0,0,2.0,11.0,-1006.0
1776461785.3270028,recenter,right,-,1,,,2,0.6757129154066058,0.6699209071988304,3.2093607251374934,3.2264604926378144,70,253158.0,84,63.5,1,-1,4,0,0,0,6.0,16.0,-1002.0
1776461785.429906,recenter,right,-,1,,,2,0.3868268209052289,0.8330496568188823,3.1523938880814133,3.2199193647850306,70,253151.00000000003,84,63.5,1,-1,4,0,0,0,19.0,17.0,-1009.0
1776461785.48268,recenter,right,-,1,,,2,0.3868268209052289,0.8330496568188823,3.1523938880814133,3.2199193647850306,70,253151.00000000003,84,63.5,1,-1,4,0,0,0,19.0,17.0,-1009.0
1776461785.5360498,recenter,right,-,1,,,2,0.3868268209052289,0.8330496568188823,3.1523938880814133,3.2199193647850306,70,253148.0,84,63.5,1,-1,4,0,0,0,23.0,10.0,-986.0
1776461785.983317,pre_hover,right,x,1,,,,,,,,70,253155.00000000003,83,63.0,1,-1,4,0,0,0,-12.0,28.0,-998.0
1776461786.036256,pre_hover,right,x,1,,,2,0.3922362935793444,0.829929130030637,3.1558280245091352,3.222032688840393,70,253151.00000000003,83,63.0,1,-1,4,0,0,0,35.0,7.0,-1002.0
1776461786.0886312,pre_hover,right,x,1,,,2,0.4661162564266439,1.0589467469167235,3.119348818222598,3.1978119109641305,70,253151.00000000003,83,63.0,1,-1,4,0,0,0,35.0,7.0,-1002.0
1776461786.1410408,pre_hover,right,x,1,,,2,0.4614007828337128,1.06003534125171,3.1163565445113934,3.195841007380015,70,253146.99999999997,83,63.0,1,-1,4,0,0,0,-12.0,20.0,-1011.0
1776461786.192736,pre_hover,right,x,1,,,2,0.3913368357643443,0.8343687611175683,3.1535238898387443,3.220265903224271,70,253146.99999999997,83,63.0,1,-1,4,0,0,0,-12.0,20.0,-1011.0
1776461786.244658,pre_hover,right,x,1,,,,,,,,70,253152.0,83,63.0,1,-1,4,0,0,0,2.0,19.0,-996.0
1776461786.295813,pre_hover,right,x,1,,,,,,,,70,253152.0,83,63.0,1,-1,4,0,0,0,2.0,19.0,-996.0
1776461786.34743,pre_hover,right,x,1,,,2,0.38566707679131107,0.8480971556678999,3.1490848350202345,3.218026171015869,70,253152.0,83,63.0,1,-1,4,0,0,0,2.0,19.0,-996.0
1776461786.3997939,pre_hover,right,x,1,,,2,0.390430618369625,0.83874887758361,3.1512252275307944,3.2185083955452374,70,253154.0,83,63.0,1,-1,4,0,0,0,-5.0,24.0,-1003.0
1776461786.45278,pre_hover,right,x,1,,,,,,,,70,253150.0,83,63.0,1,-1,4,0,0,0,15.0,13.0,-1001.0
1776461786.505485,pre_hover,right,x,1,,,,,,,,70,253150.0,83,63.0,1,-1,4,0,0,0,15.0,13.0,-1001.0
1776461786.557855,pre_hover,right,x,1,,,,,,,,70,253150.0,83,63.0,1,-1,4,0,0,0,15.0,13.0,-1001.0
1776461786.6106062,pre_hover,right,x,1,,,,,,,,70,253151.00000000003,83,63.0,1,-1,4,0,0,0,8.0,11.0,-999.0
1776461786.662069,pre_hover,right,x,1,,,2,0.7095585082689633,1.0774129300186095,3.139148254119454,3.1884998239311724,70,253148.0,83,64.0,1,-1,4,0,0,0,11.0,17.0,-999.0
1776461786.713995,pre_hover,right,x,1,,,2,0.38859012710011565,0.8473145816441525,3.1466432146152483,3.215019448628182,70,253148.0,83,64.0,1,-1,4,0,0,0,11.0,17.0,-999.0
1776461786.7661781,pre_hover,right,x,1,,,,,,,,70,253153.00000000003,83,64.0,2,-1,4,0,0,0,7.0,19.0,-1011.0
1776461786.818741,pre_hover,right,x,1,,,2,0.45501830997539505,1.071435485989145,3.106703436416415,3.18917900120916,70,253153.00000000003,83,64.0,2,-1,4,0,0,0,7.0,19.0,-1011.0
1776461786.870601,pre_hover,right,x,1,,,2,0.8255998323766416,1.3908702286349477,3.091082917147636,3.195416207270985,70,253146.0,83,64.0,2,-1,4,0,0,0,15.0,6.0,-995.0
1776461786.922998,pre_hover,right,x,1,,,,,,,,70,253146.0,83,64.0,2,-1,4,0,0,0,15.0,6.0,-995.0
1776461786.9745312,pre_hover,right,x,1,,,2,0.45039432207563956,1.0746202410802381,3.102497904091454,3.1863496385898435,70,253142.99999999997,83,64.0,2,-1,4,0,0,0,3.0,26.0,-1021.0
1776461787.0261078,pre_hover,right,x,1,,,2,0.6467729885619512,1.3025696821670065,3.078372768151044,3.1772240052605083,70,253152.0,83,64.0,2,-1,4,0,0,0,16.0,-2.0,-1003.0
1776461787.077934,pre_hover,right,x,1,,,,,,,,70,253152.0,83,64.0,2,-1,4,0,0,0,16.0,-2.0,-1003.0
1776461787.12898,pre_hover,right,x,1,,,,,,,,70,253155.00000000003,83,64.0,2,-1,4,0,0,0,11.0,10.0,-979.0
1776461787.180314,pre_hover,right,x,1,,,2,0.4458941898180949,1.0777551005588826,3.098345853035827,3.18355622064566,70,253155.00000000003,83,64.0,2,-1,4,0,0,0,11.0,10.0,-979.0
1776461787.2317472,pre_hover,right,x,1,,,,,,,,70,253157.00000000003,83,64.0,2,-1,4,0,0,0,10.0,12.0,-981.0
1776461787.2829518,pre_hover,right,x,1,,,2,0.3910564724799973,0.8504456866278992,3.104012003663082,3.1730782815026046,70,253157.00000000003,83,64.0,2,-1,4,0,0,0,10.0,12.0,-981.0
1776461787.333885,pre_hover,right,x,1,,,2,0.6391476295270827,1.3026345900243017,3.074088058866453,3.173945052145651,70,253146.99999999997,83,64.0,2,-1,4,0,0,0,13.0,7.0,-1005.0
1776461787.3855,pre_hover,right,x,1,,,2,0.443402034557258,1.0826214279331206,3.092465545598414,3.179004229086287,70,253146.99999999997,83,64.0,2,-1,4,0,0,0,13.0,7.0,-1005.0
1776461787.436957,pre_hover,right,x,1,,,,,,,,70,253154.0,83,64.0,2,-1,4,0,0,0,19.0,12.0,-987.0
1776461787.4875221,pre_hover,right,x,1,,,,,,,,70,253154.0,83,64.0,2,-1,4,0,0,0,19.0,12.0,-987.0
1776461787.538347,pre_hover,right,x,1,,,,,,,,70,253151.00000000003,83,64.0,2,-1,4,0,0,0,24.0,10.0,-989.0
1776461787.5885031,pre_hover,right,x,1,,,,,,,,70,253151.00000000003,83,64.0,2,-1,4,0,0,0,24.0,10.0,-989.0
1776461787.640755,pre_hover,right,x,1,,,2,0.3876547159406326,0.8556836561370377,3.1002205654362656,3.170442939603126,70,253151.00000000003,83,64.0,2,-1,4,0,0,0,24.0,10.0,-989.0
1776461787.6907,pre_hover,right,x,1,,,2,0.4390219417710429,1.081125548764558,3.0927993398254534,3.1798719992969984,70,253157.00000000003,83,64.0,2,-1,4,0,0,0,19.0,8.0,-1010.0
1776461787.741559,pre_hover,right,x,1,,,2,0.6802245649976413,1.0862816602007777,3.1241961601703925,3.1779439625490564,70,253157.00000000003,83,64.0,2,-1,4,0,0,0,19.0,8.0,-1010.0
1776461787.791764,pre_hover,right,x,1,,,2,0.6539934167473604,0.7441136773222476,3.1892813706723606,3.2112310675134044,70,253154.0,83,64.0,2,-1,4,0,0,0,-10.0,14.0,-1003.0
1776461787.844276,pre_hover,right,x,1,,,,,,,,70,253154.0,83,64.0,2,-1,4,0,0,0,-10.0,14.0,-1003.0
1776461787.894888,pre_hover,right,x,1,,,2,0.37254225756787274,0.8701656406538137,3.129533861506624,3.203228821399506,70,253148.99999999997,82,64.0,1,-1,4,0,0,0,11.0,5.0,-1000.0
1776461787.9450681,pre_hover,right,x,1,,,,,,,,70,253148.99999999997,82,64.0,1,-1,4,0,0,0,11.0,5.0,-1000.0
1776461787.997514,pre_hover,right,x,1,,,2,0.12696364219410494,0.786175492610361,3.007647131225697,3.1373229132605807,70,253158.0,82,64.0,1,-1,4,0,0,0,17.0,14.0,-978.0
1776461788.049938,pre_hover,right,x,1,,,,,,,,70,253153.00000000003,82,64.0,1,-1,4,0,0,0,31.0,0.0,-999.0
1776461788.100587,pre_hover,right,x,1,,,,,,,,70,253153.00000000003,82,64.0,1,-1,4,0,0,0,31.0,0.0,-999.0
1776461788.151983,pre_hover,right,x,1,,,,,,,,70,253146.0,82,64.0,1,-1,4,0,0,0,7.0,16.0,-1000.0
1776461788.203188,pre_hover,right,x,1,,,,,,,,70,253146.0,82,64.0,1,-1,4,0,0,0,7.0,16.0,-1000.0
1776461788.255685,pre_hover,right,x,1,,,2,0.4348162260667249,1.084181676309624,3.0887689116430734,3.1771619385111913,70,253142.99999999997,82,64.0,1,-1,4,0,0,0,18.0,0.0,-1019.0
1776461788.307512,pre_hover,right,x,1,,,2,0.3819424932539621,0.8620598653482539,3.094921285014755,3.166892517138663,70,253142.99999999997,82,64.0,1,-1,4,0,0,0,18.0,0.0,-1019.0
1776461788.358094,pre_hover,right,x,1,,,2,0.6267872659819296,1.3037261103707265,3.066460634954661,3.168232789581172,70,253146.99999999997,82,64.0,1,-1,4,0,0,0,-16.0,29.0,-1009.0
1776461788.409934,pre_hover,right,x,1,,,2,0.6701279078811195,1.0881627509919525,3.1194293320714417,3.1745799448750063,70,253146.99999999997,82,64.0,1,-1,4,0,0,0,-16.0,29.0,-1009.0
1776461788.4614341,pre_hover,right,x,1,,,,,,,,70,253154.0,82,64.0,1,-1,4,0,0,0,-17.0,21.0,-993.0
1776461788.514011,pre_hover,right,x,1,,,,,,,,70,253154.0,82,64.0,1,-1,4,0,0,0,-17.0,21.0,-993.0
1776461788.565652,pre_hover,right,x,1,,,,,,,,70,253146.99999999997,82,64.0,1,-1,4,0,0,0,14.0,5.0,-990.0
1776461788.618134,pre_hover,right,x,1,,,2,0.6143834177124006,1.3092002872879112,3.060340970259106,3.1650200710691982,70,253146.99999999997,82,64.0,1,-1,4,0,0,0,14.0,5.0,-990.0
1776461788.670224,pre_hover,right,x,1,,,2,0.6593441455955584,1.1017079003861792,3.1483168911026125,3.206190336716139,70,253151.00000000003,82,64.5,2,-1,4,0,0,0,0.0,31.0,-1013.0
1776461788.722087,pre_hover,right,x,1,,,,,,,,70,253151.00000000003,82,64.5,2,-1,4,0,0,0,0.0,31.0,-1013.0
1776461788.774539,pre_hover,right,x,1,,,2,0.6217634871606239,1.3067380419046306,3.06158906735199,3.1647857963611545,70,253154.0,82,64.5,1,-1,4,0,0,0,26.0,-1.0,-1003.0
1776461788.825539,pre_hover,right,x,1,,,2,0.6119600227399221,1.3107095455376103,3.0579113103945965,3.163305970706829,70,253154.0,82,64.5,1,-1,4,0,0,0,26.0,-1.0,-1003.0
1776461788.8774972,pre_hover,right,x,1,,,2,0.42518411340164264,1.0906644096907165,3.0795553037282626,3.170934520790971,70,253155.00000000003,82,64.5,1,-1,4,0,0,0,11.0,21.0,-988.0
1776461788.92854,pre_hover,right,x,1,,,2,0.365485006026971,0.8838377402259007,3.119931327495398,3.196426853322368,70,253155.00000000003,82,64.5,1,-1,4,0,0,0,11.0,21.0,-988.0
1776461788.980813,pre_hover,right,x,1,,,2,0.6603576251131575,1.0962908052831404,3.111746761989725,3.1693263348826837,70,253144.99999999997,82,64.5,2,-1,4,0,0,0,9.0,20.0,-985.0
1776461789.0317519,response,right,x,1,1776461789.031533,0.00021886825561523438,,,,,,70,253144.99999999997,82,64.5,2,-1,4,0,0,0,9.0,20.0,-985.0
1776461789.084277,response,right,x,1,1776461789.031533,0.05274391174316406,2,0.42580624644463805,1.0951135452044425,3.0772431602379613,3.1692682683070905,70,253157.00000000003,82,64.5,2,-1,4,0,0,0,26.0,14.0,-981.0
1776461789.135592,response,right,x,1,1776461789.031533,0.10405898094177246,,,,,,70,253157.00000000003,82,64.5,2,-1,4,0,0,0,26.0,14.0,-981.0
1776461789.186475,response,right,x,1,1776461789.031533,0.15494203567504883,,,,,,70,253142.99999999997,82,64.5,2,-1,4,0,0,0,19.0,15.0,-1005.0
1776461789.237823,response,right,x,1,1776461789.031533,0.20629000663757324,2,0.6411638697230589,0.7840225608657443,3.1769499932734755,3.202442650705872,70,253142.99999999997,82,64.5,2,-1,4,0,0,0,19.0,15.0,-1005.0
1776461789.289241,response,right,x,1,1776461789.031533,0.2577080726623535,2,0.42421102506817976,1.0976740429279064,3.074769254805328,3.167557160802841,70,253152.0,82,64.5,0,3,4,0,0,0,40.0,11.0,-1001.0
1776461789.341892,response,right,x,1,1776461789.031533,0.31035900115966797,2,0.36248254656067236,0.8886152684620086,3.116293350875426,3.1939022410430087,70,253152.0,82,64.5,0,3,4,0,0,0,40.0,11.0,-1001.0
1776461789.39318,response,right,x,1,1776461789.031533,0.3616468906402588,2,0.6289988178848709,0.788397460265251,3.1719259871154803,3.1991014281988206,70,253163.0,82,64.5,0,4,4,0,0,0,18.0,5.0,-966.0
1776461789.445058,response,right,x,1,1776461789.031533,0.4135251045227051,2,0.6503217863487463,0.8062616583785234,3.1729607140239473,3.1988276629976093,70,253163.0,82,64.5,0,4,4,0,0,0,18.0,5.0,-966.0
1776461789.494841,response,right,x,1,1776461789.031533,0.46330809593200684,2,0.6548559902260205,0.8195313830260642,3.1703501697977163,3.1966292582582367,70,253153.00000000003,82,64.5,0,2,4,0,1,0,22.0,-10.0,-986.0
1776461789.5466602,response,right,x,1,1776461789.031533,0.5151271820068359,,,,,,70,253153.00000000003,82,64.5,0,2,4,0,1,0,22.0,-10.0,-986.0
1776461789.596815,response,right,x,1,1776461789.031533,0.5652821063995361,2,0.4333922303108958,1.1386381667807615,3.053803818075923,3.152283806810561,70,253159.0,82,64.5,1,0,4,0,2,0,26.0,-2.0,-999.0
1776461789.648226,response,right,x,1,1776461789.031533,0.6166930198669434,,,,,,70,253159.0,82,64.5,1,0,4,0,2,0,26.0,-2.0,-999.0
1776461789.6999328,response,right,x,1,1776461789.031533,0.6683998107910156,,,,,,70,253159.0,82,64.5,1,0,4,0,2,0,26.0,-2.0,-999.0
1776461789.753456,response,right,x,1,1776461789.031533,0.7219231128692627,2,0.40411741257109224,0.9443548191623927,3.0642891545191837,3.1406248298682904,70,253156.0,82,64.5,2,0,4,0,2,0,5.0,6.0,-1006.0
1776461789.806112,response,right,x,1,1776461789.031533,0.7745790481567383,,,,,,70,253156.0,82,64.5,2,0,4,0,2,0,5.0,6.0,-1006.0
1776461789.858748,response,right,x,1,1776461789.031533,0.8272149562835693,,,,,,70,253153.00000000003,81,64.5,3,0,4,0,2,0,7.0,3.0,-1000.0
1776461789.9114509,response,right,x,1,1776461789.031533,0.8799178600311279,,,,,,70,253153.00000000003,81,64.5,3,0,4,0,2,0,7.0,3.0,-1000.0
1776461789.962076,response,right,x,1,1776461789.031533,0.9305429458618164,,,,,,70,253157.00000000003,81,64.5,3,-1,4,0,2,0,4.0,-4.0,-1002.0
1776461790.0136461,response,right,x,1,1776461789.031533,0.9821131229400635,,,,,,70,253157.00000000003,81,64.5,3,-1,4,0,2,0,4.0,-4.0,-1002.0
1776461790.065475,response,right,x,1,1776461789.031533,1.0339419841766357,,,,,,70,253162.0,81,64.5,3,-1,4,0,2,0,-3.0,11.0,-996.0
1776461790.117329,response,right,x,1,1776461789.031533,1.0857958793640137,,,,,,70,253162.0,81,64.5,3,-1,4,0,2,0,-3.0,11.0,-996.0
1776461790.1688929,response,right,x,1,1776461789.031533,1.137359857559204,,,,,,70,253152.0,81,64.5,3,-2,4,-1,2,0,17.0,-9.0,-1006.0
1776461790.220611,response,right,x,1,1776461789.031533,1.1890780925750732,,,,,,70,253152.0,81,64.5,3,-2,4,-1,2,0,17.0,-9.0,-1006.0
1776461790.2719622,response,right,x,1,1776461789.031533,1.240429162979126,2,1.2314649958241348,-0.15095593474747837,2.981083764028086,3.082916033299673,70,253148.0,81,64.5,3,-3,4,-1,2,0,21.0,7.0,-992.0
1776461790.3220322,response,right,x,1,1776461789.031533,1.290499210357666,,,,,,70,253148.0,81,64.5,3,-3,4,-1,2,0,21.0,7.0,-992.0
1776461790.372867,response,right,x,1,1776461789.031533,1.3413341045379639,,,,,,70,253153.00000000003,81,64.5,-2,-5,5,-1,1,0,13.0,10.0,-996.0
1776461790.423347,response,right,x,1,1776461789.031533,1.3918139934539795,,,,,,70,253153.00000000003,81,64.5,-2,-5,5,-1,1,0,13.0,10.0,-996.0
1776461790.4823549,response,right,x,1,1776461789.031533,1.450821876525879,2,0.9786363912342185,-0.10962740474114774,3.0064620102121484,3.0891489566202575,70,253153.00000000003,81,64.5,-2,-5,5,-1,1,0,13.0,10.0,-996.0
1776461790.534113,response,right,x,1,1776461789.031533,1.502579927444458,2,0.9786363912342185,-0.10962740474114774,3.0064620102121484,3.0891489566202575,70,253153.00000000003,81,64.5,-2,-5,5,-1,1,0,13.0,10.0,-996.0
1776461790.58612,response,right,x,1,1776461789.031533,1.5545868873596191,2,1.1764211382645102,0.015903636007409627,3.021962342640741,3.082944920168803,70,253159.0,81,64.5,0,-2,5,0,0,0,0.0,13.0,-1002.0
1776461790.6384718,response,right,x,1,1776461789.031533,1.6069388389587402,,,,,,70,253159.0,81,64.5,0,-2,5,0,0,0,0.0,13.0,-1002.0
1776461790.6902132,response,right,x,1,1776461789.031533,1.6586802005767822,,,,,,70,253159.0,81,64.5,0,-2,5,0,0,0,0.0,13.0,-1002.0
1776461790.7424672,response,right,x,1,1776461789.031533,1.7109341621398926,,,,,,70,253159.0,81,64.5,0,-2,5,0,0,0,0.0,13.0,-1002.0
1776461790.794378,response,right,x,1,1776461789.031533,1.7628450393676758,,,,,,70,253159.0,81,65.0,0,-1,4,0,0,0,-7.0,19.0,-1011.0
1776461790.845502,response,right,x,1,1776461789.031533,1.8139688968658447,,,,,,70,253159.0,81,65.0,0,-1,4,0,0,0,-7.0,19.0,-1011.0
1776461790.8969028,response,right,x,1,1776461789.031533,1.8653697967529297,,,,,,70,253159.0,81,65.0,0,-1,4,0,0,0,-7.0,19.0,-1011.0
1776461790.948907,response,right,x,1,1776461789.031533,1.9173738956451416,,,,,,70,253151.00000000003,81,65.0,0,-1,4,0,0,0,-6.0,9.0,-1016.0
1776461790.999267,response,right,x,1,1776461789.031533,1.9677340984344482,,,,,,70,253151.00000000003,81,65.0,0,-1,4,0,0,0,-6.0,9.0,-1016.0
1776461791.052014,response,right,x,1,1776461789.031533,2.0204811096191406,,,,,,70,253158.0,81,65.0,0,0,4,0,0,0,10.0,0.0,-1002.0
1776461791.104369,response,right,x,1,1776461789.031533,2.072835922241211,,,,,,70,253158.0,81,65.0,0,0,4,0,0,0,10.0,0.0,-1002.0
1776461791.156357,response,right,x,1,1776461789.031533,2.124824047088623,2,1.1334095686218006,0.2837844857395654,3.0717183368122787,3.0908322350408537,70,253155.00000000003,81,65.0,0,-1,4,0,0,0,5.0,13.0,-1000.0
1776461791.207058,response,right,x,1,1776461789.031533,2.175524950027466,,,,,,70,253154.0,81,65.0,1,-2,4,0,0,0,0.0,2.0,-996.0
1776461791.257907,response,right,x,1,1776461789.031533,2.2263739109039307,,,,,,70,253154.0,81,65.0,1,-2,4,0,0,0,0.0,2.0,-996.0
1776461791.309859,response,right,x,1,1776461789.031533,2.2783260345458984,,,,,,70,253154.0,81,65.0,1,-2,4,0,0,0,1.0,6.0,-1011.0
1776461791.361084,response,right,x,1,1776461789.031533,2.3295509815216064,,,,,,70,253154.0,81,65.0,1,-2,4,0,0,0,1.0,6.0,-1011.0
1776461791.4121778,response,right,x,1,1776461789.031533,2.3806447982788086,,,,,,70,253150.0,81,65.0,1,-2,4,0,0,0,14.0,12.0,-1006.0
1776461791.4638069,response,right,x,1,1776461789.031533,2.4322738647460938,,,,,,70,253150.0,81,65.0,1,-2,4,0,0,0,14.0,12.0,-1006.0
1776461791.515212,response,right,x,1,1776461789.031533,2.4836790561676025,,,,,,70,253146.0,81,65.0,2,-2,4,0,0,0,5.0,12.0,-990.0
1776461791.566336,response,right,x,1,1776461789.031533,2.5348029136657715,,,,,,70,253146.0,81,65.0,2,-2,4,0,0,0,5.0,12.0,-990.0
1776461791.617215,response,right,x,1,1776461789.031533,2.585681915283203,,,,,,70,253150.0,81,65.0,1,-2,4,0,0,0,18.0,12.0,-999.0
1776461791.667198,response,right,x,1,1776461789.031533,2.635664939880371,,,,,,70,253150.0,81,65.0,1,-2,4,0,0,0,18.0,12.0,-999.0
1776461791.7198431,response,right,x,1,1776461789.031533,2.688310146331787,3,0.7843332355073533,0.19483830372560618,2.795818370030841,2.917430010926756,70,253159.0,81,65.0,1,-2,4,0,0,0,-3.0,28.0,-1009.0
1776461791.772578,response,right,x,1,1776461789.031533,2.7410449981689453,3,0.7843332355073533,0.19483830372560618,2.795818370030841,2.917430010926756,70,253159.0,81,65.0,1,-2,4,0,0,0,-3.0,28.0,-1009.0
1776461791.825262,response,right,x,1,1776461789.031533,2.793729066848755,,,,,,70,253148.99999999997,80,65.0,1,-2,4,0,0,0,6.0,6.0,-999.0
1776461791.877161,response,right,x,1,1776461789.031533,2.845628023147583,,,,,,70,253148.99999999997,80,65.0,1,-2,4,0,0,0,6.0,6.0,-999.0
1776461791.9284632,response,right,x,1,1776461789.031533,2.89693021774292,,,,,,70,253155.00000000003,80,65.0,1,-2,4,0,0,0,1.0,13.0,-1000.0
1776461791.98069,response,right,x,1,1776461789.031533,2.9491569995880127,,,,,,70,253163.0,80,65.0,1,-2,4,0,0,0,7.0,13.0,-999.0
1776461792.0327291,response,right,x,1,1776461789.031533,3.0011961460113525,,,,,,70,253163.0,80,65.0,1,-2,4,0,0,0,7.0,13.0,-999.0
1776461792.085772,response,right,x,1,1776461789.031533,3.05423903465271,,,,,,70,253146.0,80,65.0,1,-2,4,0,0,0,-8.0,10.0,-995.0
1776461792.138391,response,right,x,1,1776461789.031533,3.106858015060425,2,0.8012630159259041,-0.04646116195357508,2.883727231472795,2.9619742011521613,70,253146.0,80,65.0,1,-2,4,0,0,0,-8.0,10.0,-995.0
1776461792.18891,response,right,x,1,1776461789.031533,3.157377004623413,2,0.665277753657673,0.24936053644585743,2.909201822607959,2.949312167313501,70,253148.0,80,65.0,1,-1,4,0,0,0,-3.0,14.0,-994.0
1776461792.2400482,response,right,x,1,1776461789.031533,3.208515167236328,2,0.8000557136710369,-0.045127937439503496,2.883514182251251,2.9615573289309536,70,253148.0,80,65.0,1,-1,4,0,0,0,-3.0,14.0,-994.0
1776461792.289792,response,right,x,1,1776461789.031533,3.2582590579986572,,,,,,70,253148.99999999997,80,65.0,1,-1,4,0,0,0,-10.0,18.0,-996.0
1776461792.341104,response,right,x,1,1776461789.031533,3.3095710277557373,,,,,,70,253148.99999999997,80,65.0,1,-1,4,0,0,0,-10.0,18.0,-996.0
1776461792.391634,response,right,x,1,1776461789.031533,3.3601009845733643,,,,,,70,253153.00000000003,80,65.0,1,-1,4,0,0,0,-1.0,17.0,-997.0
1776461792.443179,response,right,x,1,1776461789.031533,3.4116458892822266,2,0.6601270025240338,0.248879967990139,2.9068152349204004,2.947604746443669,70,253153.00000000003,80,65.0,1,-1,4,0,0,0,-1.0,17.0,-997.0
1776461792.494862,response,right,x,1,1776461789.031533,3.4633290767669678,2,0.6601270025240338,0.248879967990139,2.9068152349204004,2.947604746443669,70,253150.0,80,65.0,1,-2,4,0,0,0,0.0,29.0,-981.0
1776461792.545891,response,right,x,1,1776461789.031533,3.5143580436706543,,,,,,70,253150.0,80,65.0,1,-2,4,0,0,0,0.0,29.0,-981.0
1776461792.5976388,response,right,x,1,1776461789.031533,3.566105842590332,2,0.6572873202307137,0.24754170779761686,2.9052073812412975,2.946507891833278,70,253158.0,80,65.0,1,-2,4,0,0,0,9.0,7.0,-991.0
1776461792.647413,response,right,x,1,1776461789.031533,3.615880012512207,,,,,,70,253158.0,80,65.0,1,-2,4,0,0,0,9.0,7.0,-991.0
1776461792.697361,response,right,x,1,1776461789.031533,3.665827989578247,,,,,,70,253159.0,80,65.0,1,-1,4,0,0,0,-1.0,21.0,-1000.0
1776461792.744544,response,right,x,1,1776461789.031533,3.7130110263824463,2,0.4464596852777333,0.23630928100233606,2.8365746957887943,2.9128738084402412,70,253159.0,80,65.0,1,-1,4,0,0,0,-1.0,21.0,-1000.0
1776461792.792369,response,right,x,1,1776461789.031533,3.760835886001587,2,0.4464596852777333,0.23630928100233606,2.8365746957887943,2.9128738084402412,70,253159.0,80,65.0,1,-1,4,0,0,0,-1.0,21.0,-1000.0
1776461792.844566,response,right,x,1,1776461789.031533,3.813033103942871,2,0.4464596852777333,0.23630928100233606,2.8365746957887943,2.9128738084402412,70,253159.0,80,65.0,1,-1,4,0,0,0,-1.0,21.0,-1000.0
1776461792.898604,response,right,x,1,1776461789.031533,3.8670709133148193,2,0.6656474169292351,0.24823398637354643,2.8745379911200475,2.915218626542651,70,253155.00000000003,80,65.0,1,-1,4,0,0,0,18.0,7.0,-1000.0
1776461792.9504929,response,right,x,1,1776461789.031533,3.918959856033325,,,,,,70,253155.00000000003,80,65.0,1,-1,4,0,0,0,18.0,7.0,-1000.0
1776461793.0000582,response,right,x,1,1776461789.031533,3.9685251712799072,,,,,,70,253156.0,80,65.0,1,-1,4,0,0,0,-11.0,23.0,-999.0
1776461793.0533628,response,right,x,1,1776461789.031533,4.021829843521118,,,,,,70,253156.0,80,65.0,1,-1,4,0,0,0,-11.0,23.0,-999.0
1776461793.100669,response,right,x,1,1776461789.031533,4.069135904312134,,,,,,70,253157.00000000003,80,65.0,1,-1,4,0,0,0,26.0,11.0,-992.0
1776461793.1541991,response,right,x,1,1776461789.031533,4.122666120529175,,,,,,70,253157.00000000003,80,65.0,1,-1,4,0,0,0,26.0,11.0,-992.0
1776461793.205792,response,right,x,1,1776461789.031533,4.1742589473724365,,,,,,70,253156.0,80,65.0,1,-1,4,0,0,0,-25.0,21.0,-994.0
1776461793.2563488,response,right,x,1,1776461789.031533,4.224815845489502,2,0.6613631942717533,0.23626767687204192,2.869724886382003,2.91243832769075,70,253156.0,80,65.0,1,-1,4,0,0,0,-25.0,21.0,-994.0
1776461793.3086798,response,right,x,1,1776461789.031533,4.277146816253662,2,0.796472181876803,-0.035711389165303475,2.817714687836088,2.8956982931776047,70,253157.00000000003,80,65.0,1,-1,4,0,0,0,8.0,18.0,-982.0
1776461793.358953,response,right,x,1,1776461789.031533,4.327419996261597,,,,,,70,253157.00000000003,80,65.0,1,-1,4,0,0,0,8.0,18.0,-982.0
1776461793.411198,response,right,x,1,1776461789.031533,4.379664897918701,,,,,,70,253152.0,80,65.0,1,-1,4,0,0,0,13.0,10.0,-1002.0
1776461793.461662,response,right,x,1,1776461789.031533,4.430129051208496,,,,,,70,253152.0,80,65.0,1,-1,4,0,0,0,13.0,10.0,-1002.0
1776461793.51344,response,right,x,1,1776461789.031533,4.481906890869141,,,,,,70,253135.0,80,65.0,1,-1,4,0,0,0,5.0,28.0,-1012.0
1776461793.564963,response,right,x,1,1776461789.031533,4.533430099487305,2,0.6608967779723436,0.22966343348814078,2.8680407165417905,2.9116657980315805,70,253135.0,80,65.0,1,-1,4,0,0,0,5.0,28.0,-1012.0
1776461793.6167428,response,right,x,1,1776461789.031533,4.585209846496582,,,,,,70,253154.0,80,65.0,1,-1,4,0,0,0,-2.0,18.0,-996.0
1776461793.6696398,response,right,x,1,1776461789.031533,4.638106822967529,2,0.6600774108891705,0.2278204624186806,2.8672665156394834,2.9112338014129744,70,253154.0,80,65.0,1,-1,4,0,0,0,-2.0,18.0,-996.0
1776461793.7212958,response,right,x,1,1776461789.031533,4.689762830734253,2,0.8991452190654418,0.1303233225722048,2.8888167233897373,2.92848594490279,70,253148.99999999997,80,65.0,1,-1,4,0,0,0,27.0,5.0,-1003.0
1776461793.773119,response,right,x,1,1776461789.031533,4.741585969924927,,,,,,70,253148.99999999997,80,65.0,1,-1,4,0,0,0,27.0,5.0,-1003.0
1776461793.8256361,response,right,x,1,1776461789.031533,4.794103145599365,,,,,,70,253154.0,79,65.0,1,-1,4,0,0,0,-2.0,12.0,-1015.0
1776461793.87929,response,right,x,1,1776461789.031533,4.84775710105896,,,,,,70,253154.0,79,65.0,1,-1,4,0,0,0,-2.0,12.0,-1015.0
1776461793.934827,response,right,x,1,1776461789.031533,4.903294086456299,,,,,,70,253154.0,79,65.0,1,-1,4,0,0,0,-2.0,12.0,-1015.0
1776461793.986889,response,right,x,1,1776461789.031533,4.955355882644653,,,,,,70,253154.0,79,65.0,1,-1,4,0,0,0,-2.0,12.0,-1015.0
1776461794.037198,response,right,x,1,1776461789.031533,5.005665063858032,,,,,,70,253153.00000000003,79,65.0,1,-1,4,0,0,0,20.0,13.0,-985.0
1776461794.088653,response,right,x,1,1776461789.031533,5.057120084762573,,,,,,70,253153.00000000003,79,65.0,1,-1,4,0,0,0,20.0,13.0,-985.0
1776461794.1402931,response,right,x,1,1776461789.031533,5.108760118484497,,,,,,70,253157.00000000003,79,65.0,1,-1,4,0,0,0,18.0,4.0,-1009.0
1776461794.1902258,response,right,x,1,1776461789.031533,5.158692836761475,2,0.6669903327971314,0.20941334217705942,2.867000394928542,2.9125838426112773,70,253157.00000000003,79,65.0,1,-1,4,0,0,0,18.0,4.0,-1009.0
1776461794.24235,response,right,x,1,1776461789.031533,5.210817098617554,,,,,,70,253151.00000000003,79,65.0,1,-1,4,0,0,0,12.0,0.0,-999.0
1776461794.293243,response,right,x,1,1776461789.031533,5.261709928512573,2,0.8957045045670604,0.1100866028771525,2.8858001606716583,2.9289478067013452,70,253151.00000000003,79,65.0,1,-1,4,0,0,0,12.0,0.0,-999.0
1776461794.345191,response,right,x,1,1776461789.031533,5.313657999038696,,,,,,70,253148.0,79,65.0,1,-1,4,0,0,0,3.0,13.0,-1006.0
1776461794.395427,response,right,x,1,1776461789.031533,5.363893985748291,,,,,,70,253148.0,79,65.0,1,-1,4,0,0,0,3.0,13.0,-1006.0
1776461794.447391,response,right,x,1,1776461789.031533,5.415858030319214,,,,,,70,253153.00000000003,79,65.0,1,-1,4,0,0,0,21.0,7.0,-992.0
1776461794.497366,response,right,x,1,1776461789.031533,5.465832948684692,,,,,,70,253153.00000000003,79,65.0,1,-1,4,0,0,0,21.0,7.0,-992.0
1776461794.551171,response,right,x,1,1776461789.031533,5.5196380615234375,,,,,,70,253151.00000000003,79,65.0,1,0,4,0,0,0,-6.0,15.0,-1009.0
1776461794.605036,response,right,x,1,1776461789.031533,5.573503017425537,,,,,,70,253151.00000000003,79,65.0,1,0,4,0,0,0,-6.0,15.0,-1009.0
1776461794.657467,response,right,x,1,1776461789.031533,5.625933885574341,,,,,,70,253151.00000000003,79,65.0,1,0,4,0,0,0,-6.0,15.0,-1009.0
1776461794.711257,response,right,x,1,1776461789.031533,5.6797239780426025,2,0.8899119553529611,0.10713374236212303,2.8840516056168224,2.9279327501418377,70,253153.00000000003,79,65.5,1,0,4,0,0,0,28.0,-7.0,-977.0
1776461794.7625349,response,right,x,1,1776461789.031533,5.731001853942871,2,0.8899119553529611,0.10713374236212303,2.8840516056168224,2.9279327501418377,70,253153.00000000003,79,65.5,1,0,4,0,0,0,28.0,-7.0,-977.0
1776461794.8146079,response,right,x,1,1776461789.031533,5.783074855804443,2,0.8899119553529611,0.10713374236212303,2.8840516056168224,2.9279327501418377,70,253153.00000000003,79,65.5,1,0,4,0,0,0,28.0,-7.0,-977.0
1776461794.866208,response,right,x,1,1776461789.031533,5.834675073623657,2,0.9238742504505423,-0.15602335811842805,2.7982902667847145,2.899619779375772,70,253154.0,79,65.5,1,0,4,0,0,0,-12.0,26.0,-1003.0
1776461794.917519,response,right,x,1,1776461789.031533,5.885986089706421,2,0.9238742504505423,-0.15602335811842805,2.7982902667847145,2.899619779375772,70,253154.0,79,65.5,1,0,4,0,0,0,-12.0,26.0,-1003.0
1776461794.9697988,response,right,x,1,1776461789.031533,5.938265800476074,2,0.9238742504505423,-0.15602335811842805,2.7982902667847145,2.899619779375772,70,253153.00000000003,79,65.5,1,0,4,0,0,0,9.0,14.0,-974.0
1776461795.020895,response,right,x,1,1776461789.031533,5.989362001419067,,,,,,70,253153.00000000003,79,65.5,1,0,4,0,0,0,9.0,14.0,-974.0
1776461795.0727592,response,right,x,1,1776461789.031533,6.041226148605347,,,,,,70,253153.00000000003,79,65.5,1,0,4,0,0,0,9.0,14.0,-974.0
1776461795.125834,response,right,x,1,1776461789.031533,6.094300985336304,2,0.6557922956623794,0.19150849655552749,2.894572381231306,2.9434492559408554,70,253153.00000000003,79,65.5,1,-1,4,0,0,0,-16.0,21.0,-1032.0
1776461795.1769059,response,right,x,1,1776461789.031533,6.1453728675842285,2,0.6557922956623794,0.19150849655552749,2.894572381231306,2.9434492559408554,70,253153.00000000003,79,65.5,1,-1,4,0,0,0,-16.0,21.0,-1032.0
1776461795.2290208,response,right,x,1,1776461789.031533,6.197487831115723,2,0.6557922956623794,0.19150849655552749,2.894572381231306,2.9434492559408554,70,253153.00000000003,79,65.5,1,-1,4,0,0,0,-3.0,5.0,-1000.0
1776461795.281525,response,right,x,1,1776461789.031533,6.2499918937683105,2,0.6557922956623794,0.19150849655552749,2.894572381231306,2.9434492559408554,70,253153.00000000003,79,65.5,1,-1,4,0,0,0,-3.0,5.0,-1000.0
1776461795.335316,response,right,x,1,1776461789.031533,6.303782939910889,2,0.6557922956623794,0.19150849655552749,2.894572381231306,2.9434492559408554,70,253158.0,79,65.5,1,-1,4,0,0,0,11.0,4.0,-991.0
1776461795.388941,response,right,x,1,1776461789.031533,6.357408046722412,2,0.6557922956623794,0.19150849655552749,2.894572381231306,2.9434492559408554,70,253158.0,79,65.5,1,-1,4,0,0,0,11.0,4.0,-991.0
1776461795.441649,response,right,x,1,1776461789.031533,6.410115957260132,2,0.6557922956623794,0.19150849655552749,2.894572381231306,2.9434492559408554,70,253148.0,79,65.5,1,-1,4,0,0,0,5.0,15.0,-1024.0
1776461795.495266,response,right,x,1,1776461789.031533,6.463732957839966,2,0.6557922956623794,0.19150849655552749,2.894572381231306,2.9434492559408554,70,253159.0,79,65.5,1,-1,4,0,0,0,6.0,17.0,-994.0
1776461795.547283,response,right,x,1,1776461789.031533,6.515749931335449,2,0.6557922956623794,0.19150849655552749,2.894572381231306,2.9434492559408554,70,253159.0,79,65.5,1,-1,4,0,0,0,6.0,17.0,-994.0
1776461795.599985,response,right,x,1,1776461789.031533,6.568451881408691,2,0.6557922956623794,0.19150849655552749,2.894572381231306,2.9434492559408554,70,253154.0,79,65.5,1,-1,4,0,0,0,32.0,-7.0,-1007.0
1776461795.6526852,response,right,x,1,1776461789.031533,6.62115216255188,2,0.6557922956623794,0.19150849655552749,2.894572381231306,2.9434492559408554,70,253154.0,79,65.5,1,-1,4,0,0,0,32.0,-7.0,-1007.0
1776461795.705044,response,right,x,1,1776461789.031533,6.673511028289795,2,0.6557922956623794,0.19150849655552749,2.894572381231306,2.9434492559408554,70,253154.0,79,65.5,1,-1,4,0,0,0,32.0,-7.0,-1007.0
1776461795.757897,response,right,x,1,1776461789.031533,6.726363897323608,2,0.6557922956623794,0.19150849655552749,2.894572381231306,2.9434492559408554,70,253153.00000000003,79,66.0,1,-1,4,0,0,0,4.0,25.0,-1003.0
1776461795.810535,response,right,x,1,1776461789.031533,6.779001951217651,2,0.6557922956623794,0.19150849655552749,2.894572381231306,2.9434492559408554,70,253154.0,78,66.0,1,-1,4,0,0,0,8.0,7.0,-1027.0
1776461795.863379,response,right,x,1,1776461789.031533,6.831845998764038,2,0.6557922956623794,0.19150849655552749,2.894572381231306,2.9434492559408554,70,253154.0,78,66.0,1,-1,4,0,0,0,8.0,7.0,-1027.0
1776461795.915489,response,right,x,1,1776461789.031533,6.883955955505371,2,0.6557922956623794,0.19150849655552749,2.894572381231306,2.9434492559408554,70,253148.99999999997,78,66.0,0,0,4,0,0,0,1.0,24.0,-999.0
1776461795.9675689,response,right,x,1,1776461789.031533,6.936035871505737,2,0.6557922956623794,0.19150849655552749,2.894572381231306,2.9434492559408554,70,253148.99999999997,78,66.0,0,0,4,0,0,0,1.0,24.0,-999.0
1776461796.021369,response,right,x,1,1776461789.031533,6.989835977554321,2,0.6557922956623794,0.19150849655552749,2.894572381231306,2.9434492559408554,70,253144.99999999997,78,66.0,0,-1,4,0,0,0,-5.0,16.0,-1015.0
1776461796.074485,response,right,x,1,1776461789.031533,7.042952060699463,,,,,,70,253144.99999999997,78,66.0,0,-1,4,0,0,0,-5.0,16.0,-1015.0
1776461796.126081,response,right,x,1,1776461789.031533,7.094547986984253,,,,,,70,253159.0,78,66.0,0,0,4,0,0,0,-11.0,17.0,-1002.0
1776461796.176875,response,right,x,1,1776461789.031533,7.145342111587524,,,,,,70,253159.0,78,66.0,0,0,4,0,0,0,-11.0,17.0,-1002.0
1776461796.228943,response,right,x,1,1776461789.031533,7.1974101066589355,2,0.3862021725828536,0.36916021098207435,2.8869082817344207,2.9604516899085915,70,253148.99999999997,78,66.0,0,0,4,0,0,0,-4.0,19.0,-1012.0
1776461796.2822,response,right,x,1,1776461789.031533,7.250667095184326,2,0.6020461460489135,0.4606901666047973,2.9685427570416696,2.9983363053432948,70,253148.99999999997,78,66.0,0,0,4,0,0,0,-4.0,19.0,-1012.0
1776461796.334174,response,right,x,1,1776461789.031533,7.302640914916992,,,,,,70,253148.99999999997,78,66.0,0,0,4,0,0,0,0.0,6.0,-1012.0
1776461796.386154,response,right,x,1,1776461789.031533,7.354620933532715,,,,,,70,253148.99999999997,78,66.0,0,0,4,0,0,0,0.0,6.0,-1012.0
1776461796.4376252,response,right,x,1,1776461789.031533,7.406092166900635,,,,,,70,253153.00000000003,78,66.0,0,0,4,0,0,0,-18.0,30.0,-1027.0
1776461796.489239,response,right,x,1,1776461789.031533,7.457705974578857,,,,,,70,253153.00000000003,78,66.0,0,0,4,0,0,0,-18.0,30.0,-1027.0
1776461796.541209,response,right,x,1,1776461789.031533,7.509675979614258,,,,,,70,253157.00000000003,78,66.0,0,0,4,0,0,0,-14.0,22.0,-974.0
1776461796.591109,response,right,x,1,1776461789.031533,7.559576034545898,,,,,,70,253157.00000000003,78,66.0,0,0,4,0,0,0,-14.0,22.0,-974.0
1776461796.639094,response,right,x,1,1776461789.031533,7.607561111450195,,,,,,70,253155.00000000003,78,66.0,0,0,4,0,0,0,-6.0,20.0,-991.0
1776461796.6865568,response,right,x,1,1776461789.031533,7.655023813247681,,,,,,70,253155.00000000003,78,66.0,0,0,4,0,0,0,-6.0,20.0,-991.0
1776461796.735281,response,right,x,1,1776461789.031533,7.703747987747192,2,0.3892407104357217,0.3704102052844379,2.889381366200417,2.962138258584967,70,253156.0,78,66.0,0,0,4,0,0,0,-1.0,-4.0,-975.0
1776461796.784652,response,right,x,1,1776461789.031533,7.753118991851807,,,,,,70,253156.0,78,66.0,0,0,4,0,0,0,-1.0,-4.0,-975.0
1776461796.833248,response,right,x,1,1776461789.031533,7.801714897155762,,,,,,70,253144.0,78,66.0,0,-1,4,0,0,0,7.0,5.0,-992.0
1776461796.8839161,response,right,x,1,1776461789.031533,7.852383136749268,,,,,,70,253144.0,78,66.0,0,-1,4,0,0,0,7.0,5.0,-992.0
1776461796.9327471,response,right,x,1,1776461789.031533,7.901214122772217,,,,,,70,253152.0,78,66.0,0,0,4,0,0,0,-3.0,3.0,-975.0
1776461796.985755,response,right,x,1,1776461789.031533,7.954221963882446,,,,,,70,253152.0,78,66.0,0,0,4,0,0,0,-3.0,3.0,-975.0
1776461797.039667,response,right,x,1,1776461789.031533,8.008133888244629,,,,,,70,253152.0,78,66.0,0,0,4,0,0,0,-3.0,3.0,-975.0
1776461797.094201,response,right,x,1,1776461789.031533,8.062668085098267,,,,,,70,253158.0,78,66.0,0,0,4,0,0,0,-2.0,10.0,-1001.0
1776461797.146794,response,right,x,1,1776461789.031533,8.11526107788086,,,,,,70,253154.0,78,66.0,0,0,4,0,0,0,-13.0,12.0,-999.0
1776461797.1982641,response,right,x,1,1776461789.031533,8.166731119155884,,,,,,70,253154.0,78,66.0,0,0,4,0,0,0,-13.0,12.0,-999.0
1776461797.250807,response,right,x,1,1776461789.031533,8.219274044036865,2,1.6065463059898106,0.8241759664772071,2.8932489792004845,2.9646320076698425,70,253154.0,78,66.0,0,-1,4,0,0,0,-16.0,26.0,-1003.0
1776461797.302198,response,right,x,1,1776461789.031533,8.270664930343628,2,1.382577902767029,0.7281308053515023,2.9762223877226246,3.003445197793195,70,253154.0,78,66.0,0,-1,4,0,0,0,-16.0,26.0,-1003.0
