timestamp,elapsed,my_id,peer_age_s,peer_seq,peer_pos_x,peer_pos_y,peer_pos_z,peer_state,pos_x,pos_y,pos_z,marker_id,tx_count,rx_count,crc_errors,target_x,target_z,err_x_cm,err_y_cm,err_z_cm,err_3d_cm,dist_to_peer_cm,dist_to_mid_cm,cmd_lr,cmd_fb,cmd_ud,feedback,tello_height_cm,tello_baro_cm,tello_battery,tello_temp_c,tello_pitch,tello_roll,tello_yaw,tello_vgx,tello_vgy,tello_vgz
1778105102.158637,2.1457672119140625e-06,1,0.012696027755737305,1,1.8108772039413452,1.4906302690505981,3.9663779735565186,5,-0.32702369442953005,0.5668063865507997,3.627749119086148,0,352,2,0,0.44192675475590765,3.7970635463213336,76.89504491854377,22.381902666373076,16.931442723518543,81.85640630208275,216.45530144431459,78.73704138285012,30,-30,30,ok,110,250548.0,84,79.0,0,0,0,0,0,0
1778105102.2300081,0.07137322425842285,1,0.004113197326660156,5,1.8108772039413452,1.4906302690505981,3.9663779735565186,5,-0.3276361299308799,0.8970122280765518,3.5830902644941043,0,356,6,0,0.4416205370052327,3.7747341190253114,76.92566669361126,-10.638681486202128,19.164385453120715,79.98758284769715,217.2590331164072,79.27693148736495,30,-19,-30,ok,110,250548.0,84,79.0,0,0,0,0,0,0
1778105102.3017778,0.1431429386138916,1,0.015828847885131836,8,1.8842737674713135,1.5488194227218628,3.9387054443359375,5,-0.2485313825903063,1.0445716430473424,3.5570116685234052,0,360,9,0,0.49340567126384743,3.7570827328365315,74.19370538541537,-25.394622983281188,20.00710643131263,80.93131101764433,212.19436891394272,76.84393422106709,30,-15,-30,ok,110,250540.0,84,79.0,0,0,0,0,0,0
1778105102.373486,0.21485114097595215,1,0.007528066635131836,12,1.8259772062301636,1.612404227256775,3.897144079208374,5,-0.31488675217277107,0.7594734841818273,3.601423212060001,0,363,13,0,0.45905729661163536,3.771787289862169,77.39440487844065,3.115192903270325,17.0364077802168,79.30849590911691,217.47457220786313,79.24729078360868,30,0,30,ok,110,250560.0,84,79.0,0,0,0,0,0,0
1778105102.445951,0.28731608390808105,1,4.982948303222656e-05,16,1.8915221691131592,1.6646101474761963,3.886455774307251,5,-0.3069938139833899,0.751143550605119,3.6034720092571693,0,367,17,0,0.46885584807803776,3.7672421291250444,77.58496620614277,3.9481862609411555,16.377011986787515,79.39283139915581,217.64862944840488,79.29459945559783,30,-8,5,ok,110,250560.0,83,79.0,0,0,0,0,0,0
1778105102.516147,0.3575119972229004,1,0.010001897811889648,19,1.8446738719940186,1.7182906866073608,3.8458027839660645,5,-0.3316002694054625,0.5651373140492112,3.6272885768151033,0,370,20,0,0.4565499838548808,3.772049624151774,78.81502532603433,22.54880991653193,14.47610473366705,83.24550831159252,219.54741943339337,80.13342514458951,30,-2,30,ok,110,250560.0,83,79.0,0,0,0,0,0,0
1778105102.586487,0.42785215377807617,1,0.0004019737243652344,23,1.8368666172027588,1.7173194885253906,3.846431255340576,5,-0.14354549523550858,0.7951814450208102,3.619687869745803,0,374,24,0,0.5500178266603959,3.7632221694637042,69.35633218959045,-0.45560318062797256,14.353429971790144,70.82746177159042,200.77551342853872,70.82599640490703,10,-8,-30,ok,120,250546.0,83,77.5,1,1,0,0,0,0
1778105102.6565042,0.49786925315856934,1,0.010632038116455078,26,1.9484012126922607,1.6059181690216064,3.9078879356384277,5,-0.2026133848138145,0.933714498217554,3.581086232849116,0,377,27,0,0.5270351358797405,3.7439920676689122,72.9648520693555,-14.308908500302353,16.290583481979624,76.11831323772424,208.49118803294888,74.76130514969812,30,-17,-30,ok,120,250552.0,83,77.5,1,1,0,0,0,0
1778105102.7270458,0.5684108734130859,1,0.0011436939239501953,30,1.8194345235824585,1.6138434410095215,3.8990745544433594,5,-0.14724460630875083,0.7970109192959034,3.618417347609322,0,381,31,0,0.5552543576098419,3.7584511613544427,70.24989639185927,-0.6385506081372894,14.003381374512047,71.63484054471083,202.44640195862758,71.63199447863359,30,-1,30,ok,120,250552.0,83,77.5,1,1,0,0,0,0
1778105102.795143,0.6365079879760742,1,0.009299039840698242,33,1.8862435817718506,1.657159686088562,3.8713839054107666,5,-0.15670176678613018,1.0953485030244416,3.5566037832240807,0,384,34,0,0.5552361759855589,3.7216072499027124,71.1937942771689,-30.472308980991116,16.500346667863177,79.17941271803235,205.06043441258623,73.08089889799871,30,-19,-30,ok,120,250558.0,83,77.5,0,1,0,0,0,0
1778105102.865629,0.7069940567016602,1,-0.0002942085266113281,37,1.8227565288543701,1.6060538291931152,3.882636308670044,5,-0.098879980284523,1.0048188464254573,3.591199460263904,0,388,38,0,0.5803022418228034,3.735400767443506,67.91822221073265,-21.419343321092676,14.4201307179602,72.66094787777239,197.9486641615293,69.43216169895273,30,-2,16,ok,120,250544.0,83,77.5,0,1,0,0,1,0
1778105102.937022,0.7783870697021484,1,0.011047840118408203,40,1.871841311454773,1.535120964050293,3.9078893661499023,5,-0.15181537980903284,0.8103584388830283,3.629066935174147,0,391,41,0,0.5567010486370867,3.755006085332473,70.85164284461194,-1.9733025668497772,12.593915015832602,71.98927636965662,203.26987538622814,71.96222612736814,30,-2,30,ok,120,250544.0,83,77.5,0,1,0,0,1,0
1778105103.008715,0.8500800132751465,1,0.0012629032135009766,44,1.8747117519378662,1.531288504600525,3.908879041671753,5,-0.3368691220076744,0.602297523464044,3.635481591054415,0,395,45,0,0.46312352646431015,3.759614867482888,79.99926484719846,18.832788975048654,12.413327642847305,83.1182712755721,221.39493192115114,80.95661232574446,30,-7,30,ok,120,250540.0,83,77.5,0,1,0,0,1,0
1778105103.081556,0.9229211807250977,1,0.015436172485351562,47,1.8747117519378662,1.531288504600525,3.908879041671753,5,-0.1629428305560525,0.8234137836040795,3.624781951720352,0,399,48,0,0.5519640396866115,3.7582073139224623,71.49068702426639,-3.278837038954896,13.342536220211043,72.79898609401972,204.72794460400604,72.72510985890125,19,-12,-30,ok,120,250542.99999999997,83,77.5,0,2,0,0,1,0
1778105103.153697,0.9950621128082275,1,0.007879018783569336,51,1.864656686782837,1.5182521343231201,3.892873764038086,5,-0.16190676900141684,0.8329415928842095,3.6372607409106354,0,402,52,0,0.5542189498126842,3.7673493653111985,71.6125718814101,-4.231617966967905,13.008862440056301,72.90745876844701,204.8838233374128,72.78455161264948,30,-7,-6,ok,120,250542.99999999997,83,77.5,0,2,0,0,1,0
1778105103.225374,1.0667390823364258,1,-0.00044417381286621094,55,1.8709920644760132,1.5169919729232788,3.893446445465088,5,-0.1647084813725061,0.8392030203062462,3.6350052513247095,0,406,56,0,0.5479800218636242,3.765319027382402,71.26885032361304,-4.857760709171566,13.031377605769245,72.61310947660397,204.20770649679682,72.45043705012208,30,-9,-5,ok,120,250553.00000000003,83,77.5,0,2,0,0,1,0
1778105103.296257,1.1376221179962158,1,0.010415077209472656,58,1.8846615552902222,1.6294331550598145,3.8411192893981934,5,-0.32946729382178636,0.6422899582283543,3.644445315038445,0,409,59,0,0.4696773051207192,3.7664168551739463,79.91445989425056,14.833545498617617,12.197154013550149,82.18957073911265,221.17829061528687,80.83991258171946,30,-5,30,ok,120,250556.0,83,77.5,0,1,0,0,2,0
1778105103.366036,1.2074010372161865,1,1.0013580322265625e-05,62,1.8846615552902222,1.6294331550598145,3.8411192893981934,5,-0.09360016351282463,0.6643789719496658,3.6690320411535553,0,413,63,0,0.5875119936200983,3.7768186797307157,68.1112157132923,12.624644126486473,10.778663857716042,70.10491380652785,197.40304195526275,68.95880872303603,6,-2,0,ok,120,250556.0,83,77.5,0,1,0,0,2,0
1778105103.436844,1.2782092094421387,1,0.010886907577514648,65,1.8380253314971924,1.6900041103363037,3.817803382873535,5,-0.10053144535658612,0.6760667742313509,3.666500063777863,0,416,66,0,0.585000652863394,3.771500633180588,68.55320982199801,11.455863898317965,10.500056940272495,70.29246467655429,198.22196005455834,69.35267675185904,30,-6,3,ok,120,250548.99999999997,83,77.5,0,1,0,0,2,0
1778105103.507884,1.3492491245269775,1,0.001964092254638672,69,1.7668112516403198,1.6427900791168213,3.827028274536133,5,0.23150737334460855,0.5006303367881094,3.677638950643651,0,420,70,0,0.744455683475588,3.7720162583876213,51.29483101309794,28.999507642642108,9.437730774397046,59.67580660827244,163.6816460281134,52.15582854132676,-21,-3,30,ok,120,250550.0,83,77.5,0,1,0,0,2,0
1778105103.5791638,1.4205288887023926,1,0.013013839721679688,72,1.8764756917953491,1.6302211284637451,3.8417093753814697,5,-0.11298041738097567,0.6995385642284317,3.6617172213171783,0,423,73,0,0.5723220343538886,3.7598572895812423,68.53024517348642,9.108684898609877,9.814006826406407,69.8260508271023,198.03559219429314,69.22939573278761,30,-8,-30,ok,120,250548.0,83,78.0,0,0,0,0,2,0
1778105103.6518521,1.4932172298431396,1,0.005887031555175781,76,1.8144012689590454,1.5894527435302734,3.868403196334839,5,-0.06139144608431204,0.9538472394201021,3.6325951966553562,0,427,77,0,0.594347114816044,3.742766536916774,65.5738560900356,-16.322182620557157,11.017134026141795,68.46693720450396,192.41350482820906,66.49291574797024,30,-12,-30,ok,120,250548.0,83,78.0,0,0,0,0,2,0
1778105103.723393,1.564758062362671,1,-0.0025479793548583984,80,1.8820867538452148,1.6348564624786377,3.8408846855163574,5,0.19138311038950978,0.457738853751238,3.679453226940958,0,431,81,0,0.7218237722443535,3.762946234651967,53.04406618548436,33.28865594632925,8.349300771100898,63.17846465030179,166.92546542676362,53.69714872184883,-3,2,30,ok,120,250566.0,83,78.0,0,0,0,0,2,0
1778105103.793847,1.6352121829986572,1,0.007919073104858398,83,1.8820867538452148,1.6348564624786377,3.8408846855163574,5,,,,,434,84,0,,,,,,,,,0,0,0,lost_self,120,250555.00000000003,83,78.0,0,0,0,0,2,0
1778105103.864657,1.706022024154663,1,-0.001271963119506836,87,1.8190667629241943,1.5910799503326416,3.868945837020874,5,0.01893349166405072,0.8398224759696699,3.6616768780856455,0,438,88,0,0.6323536315346354,3.752526772196547,61.34201398705847,-4.919706275513935,9.084989411090172,62.205974169893274,183.58540848130176,62.011125716181745,30,-8,-30,ok,120,250555.00000000003,83,78.0,0,0,0,0,2,0
1778105103.93631,1.7776751518249512,1,0.010233163833618164,90,1.8133797645568848,1.5925650596618652,3.8683698177337646,5,0.22875251143099185,0.8871888338764848,3.6419792533926265,0,441,91,0,0.7328080294972723,3.7443811178710114,50.40555180662805,-9.656342066195434,10.240186447838484,52.333794182311436,162.11001424729864,51.435212368737815,2,-12,-23,ok,120,250569.0,83,78.0,0,0,0,0,2,0
1778105104.007999,1.8493640422821045,1,0.0018298625946044922,94,1.8126040697097778,1.594521164894104,3.8682596683502197,5,0.005424426376327446,1.0448397454506204,3.6159786044568727,0,445,95,0,0.6166403941211624,3.7330770670876356,61.1215967744835,-25.421433223608993,11.709846263076296,67.22513933722894,183.74183952748967,62.23319123881913,30,-14,-30,ok,120,250569.0,83,78.0,0,0,0,0,2,0
1778105104.080539,1.9219040870666504,1,0.012752056121826172,97,1.8126040697097778,1.594521164894104,3.8682596683502197,5,0.16438623108218792,0.7244767301697234,3.681387051004471,0,448,98,0,0.6945324676123792,3.7689348082037277,53.01462365301912,6.614868304480714,8.75477571992569,54.138275754433465,166.94997859429157,53.7326383027807,14,2,30,ok,120,250557.00000000003,83,78.0,0,0,0,0,2,0
1778105104.1505122,1.9918773174285889,1,0.004699230194091797,101,1.8283509016036987,1.698204517364502,3.8172950744628906,5,0.2246018145361366,0.8844687599434844,3.6429005414080526,0,452,102,0,0.7284864874620647,3.749083228400941,50.38846729259281,-9.384334672895388,10.618268699288835,52.343203985998976,162.1734047718375,51.49509943933492,30,-15,-30,ok,120,250569.0,83,78.0,0,0,0,0,2,0
1778105104.222144,2.063508987426758,1,0.015119075775146484,104,1.8791816234588623,1.6468242406845093,3.857675075531006,5,-0.018326588712212967,0.8392031846123005,3.662933658001434,0,456,105,0,0.6071914065668595,3.7600976429569775,62.55179952790725,-4.8577771397769975,9.716398495554346,63.48806204825949,186.12086390921726,63.30194328694743,30,-4,12,ok,120,250569.0,83,78.0,0,0,0,0,2,0
1778105104.2925901,2.133955240249634,1,0.006700038909912109,108,1.8700159788131714,1.5367282629013062,3.9093666076660156,5,0.08430750287149706,0.9538489903548624,3.630801302164313,0,459,109,0,0.6619843717245975,3.7465916782466158,57.76768688531004,-16.32235771403319,11.57903760823027,61.13590697255494,177.0563861952529,58.916718849678254,29,-15,-30,ok,120,250566.0,83,78.0,0,0,0,0,2,0
1778105104.363774,2.20513916015625,1,-0.002099752426147461,112,1.8700159788131714,1.5367282629013062,3.9093666076660156,5,0.1487730446057963,1.0570557765654909,3.611065511132738,0,463,113,0,0.6934627191522442,3.741003902865182,54.46896745464479,-26.64303633509604,12.993839173244393,62.01257660498023,170.92508674052482,55.99739522545038,30,-15,-30,ok,120,250566.0,83,78.0,0,1,0,0,2,1
1778105104.434669,2.276034116744995,1,0.008671998977661133,115,1.8800383806228638,1.644968032836914,3.857752799987793,5,0.18765443481544966,0.8721825845970601,3.652233476805161,0,466,116,0,0.7167141403632378,3.760888320886826,52.90597055477881,-8.15571713825296,10.865484408166504,54.622487986235356,167.2298861454371,54.010188592220565,30,-1,30,ok,120,250573.99999999997,82,78.0,0,1,0,0,2,1
1778105104.506131,2.3474960327148438,1,8.392333984375e-05,119,1.8350313901901245,1.6969845294952393,3.8174195289611816,5,0.3383865879964284,0.8316539159875682,3.6376773094455626,0,470,120,0,0.7934334435558046,3.75042584415874,45.50468555593762,-4.102850277303771,11.274853471317758,47.059877908282076,152.68372358179772,46.880686090803366,13,-10,10,ok,120,250573.99999999997,82,78.0,0,1,0,0,2,1
1778105104.5771022,2.4184672832489014,1,0.011104106903076172,122,1.8350313901901245,1.6969845294952393,3.8174195289611816,5,0.23888458584910333,0.9907693980768808,3.6168837467071686,0,473,123,0,0.7450841500121637,3.7368515540777283,50.61995641630603,-20.01439848623503,11.996780737055968,55.73938358474667,163.01533818165802,52.02213697688436,30,-12,-30,ok,120,250576.00000000003,82,78.0,0,0,0,0,2,1
1778105104.649645,2.4910101890563965,1,0.0037271976470947266,126,1.8357741832733154,1.6952208280563354,3.8175156116485596,5,0.12358778885605508,1.0503656449141139,3.619894399155114,0,477,127,0,0.6888838836133608,3.735185376757847,56.52960947573058,-25.974023169958336,11.529097760273332,63.270583388159785,174.5885839473862,57.6932998072094,30,-7,-30,ok,110,250561.0,82,78.0,0,0,0,0,2,0
1778105104.719688,2.5610530376434326,1,0.013730764389038086,129,1.8289278745651245,1.6923612356185913,3.818302869796753,5,0.45499171086112944,0.7976516564380047,3.639138334080274,0,480,130,0,0.8546219054259871,3.7448703314287934,39.96301945648577,-0.7026243223474227,10.573199734851935,41.344034124053344,141.51489877891555,41.33806329174764,-21,-5,30,ok,110,250561.0,82,78.0,0,0,0,0,2,0
1778105104.7904088,2.6317739486694336,1,0.004514932632446289,133,1.8372716903686523,1.691731333732605,3.8177073001861572,5,0.3010874874774881,0.7913463113981518,3.6574188343623986,0,484,134,0,0.7750504229160282,3.751512595610803,47.396293543854014,-0.07208981836213102,9.40937612484043,48.32132239183657,155.9323265187195,48.32126861697543,30,-4,1,ok,110,250564.0,82,78.0,0,0,0,0,2,0
1778105104.8605309,2.7018959522247314,1,0.014744043350219727,136,1.8497295379638672,1.390501618385315,3.945364236831665,5,0.3292739376914498,0.9189150068553039,3.6401332404340145,0,488,137,0,0.7878757454699277,3.745119650469464,45.86018077784779,-12.828959364077342,10.49864100354494,48.764329609493686,153.16642570183666,47.04654762996106,30,-12,-30,ok,110,250559.0,82,78.0,0,0,0,0,2,0
1778105104.931659,2.773024082183838,1,0.005658149719238281,140,1.821831226348877,1.5853787660598755,3.868697166442871,5,0.4443564544703353,0.759012209716644,3.6524411759693356,0,491,141,0,0.8424054568303518,3.748731778160678,39.80490023600166,3.1613203497886544,9.629060219134233,41.074844246274935,140.93179765633957,40.95300823507057,16,-5,30,ok,110,250559.0,82,78.0,0,0,0,0,2,0
1778105105.002183,2.843548059463501,1,-0.0037360191345214844,144,1.815464973449707,1.5823476314544678,3.869623899459839,5,0.3159797498192691,0.9036284738674555,3.650316381747053,0,495,145,0,0.7741812665564964,3.74841132476654,45.820151673722734,-11.300306065292498,9.809494301948662,48.201757177847846,152.90417362892728,46.8584301685718,30,-9,-30,ok,110,250553.00000000003,82,78.0,0,0,0,0,2,0
1778105105.073876,2.915241003036499,1,0.007822751998901367,147,1.815464973449707,1.5823476314544678,3.869623899459839,5,0.4373535378278298,0.8648781645809956,3.6335470389566877,0,498,148,0,0.8336452595145007,3.743289426527523,39.62917216866709,-7.425275136646514,10.974238757083521,41.78564243763919,140.9773816353724,41.12061773698606,16,-13,7,ok,110,250564.0,82,78.0,0,0,0,0,2,0
1778105105.146184,2.987549066543579,1,6.9141387939453125e-06,151,1.816109538078308,1.5728955268859863,3.8528833389282227,5,0.4426868174974685,0.8599527222494341,3.6362944938101136,0,502,152,0,0.8351292835923316,3.746879642077176,39.24424660948631,-6.932730903490358,11.058514826706256,41.35776106003407,140.24345173572758,40.772559916182104,30,-9,-4,ok,110,250564.0,82,78.0,0,0,0,0,2,0
1778105105.217015,3.058380126953125,1,0.011075019836425781,154,1.823204517364502,1.5741057395935059,3.85223126411438,5,0.4433981909497944,0.8477561441235085,3.6410691505912154,0,505,155,0,0.8346993661991937,3.751436698746841,39.130117524939934,-5.713073090897803,11.036754815562544,41.05624506109143,140.01118677978343,40.65680821676062,30,-9,0,ok,110,250567.99999999997,82,78.0,0,0,0,0,2,0
1778105105.2887292,3.130094289779663,1,0.0027272701263427734,158,1.8787442445755005,1.5113253593444824,3.893691062927246,5,0.330222418914916,0.9718009209353906,3.6373613786232313,0,509,159,0,0.7812250033074031,3.754294574833504,45.100258439248705,-18.117550772086013,11.693319621027287,49.99012583526511,152.01029624866138,46.59149101549044,30,-12,-30,ok,110,250573.99999999997,82,78.0,0,0,0,0,2,0
1778105105.359651,3.2010161876678467,1,0.013689041137695312,161,1.8787442445755005,1.5113253593444824,3.893691062927246,5,0.330222418914916,0.9718009209353906,3.6373613786232313,0,512,162,0,0.7838170379453311,3.759043560004822,45.359461903041506,-18.117550772086013,12.168218138159093,50.336785383757,152.67107166681956,46.9632443171391,30,-12,-14,ok,110,250573.99999999997,82,78.0,0,0,0,0,2,0
1778105105.432111,3.2734761238098145,1,0.006170988082885742,165,1.8433544635772705,1.6621451377868652,3.7864344120025635,5,0.5480081127504736,0.9119536502474646,3.6167780760381727,0,516,166,0,0.8923114427139476,3.7388187946604745,34.4303329963474,-12.132823703293404,12.204071862230181,38.49146153724284,131.1519299139542,36.52926498381602,-1,-10,10,ok,110,250555.00000000003,82,78.0,0,0,0,0,2,0
1778105105.501813,3.3431780338287354,1,0.01581096649169922,168,1.901288390159607,1.7069463729858398,3.7745063304901123,5,0.6643590299157786,0.8104945621140353,3.609116630170695,0,520,169,0,0.9554529740347706,3.7291011444796878,29.109394411899203,-1.9869148899504752,11.998451430899282,31.547860633441765,120.62973670668624,31.485229549221295,14,-9,30,ok,110,250563.0,82,78.0,0,0,0,0,2,0
1778105105.573685,3.4150500297546387,1,0.007623910903930664,172,1.8772234916687012,1.4932687282562256,3.877720355987549,5,0.5056168255964453,0.7831499071117534,3.682510922781037,2,523,173,0,0.8799417792637911,3.766304319317841,37.432495366734585,0.7475506102777141,8.379339653680384,38.3661813883956,135.90224081178974,38.35889782582845,30,4,8,ok,110,250563.0,82,78.0,0,0,0,0,2,0
1778105105.645633,3.4869980812072754,1,-0.00019311904907226562,176,1.8821772336959839,1.4904530048370361,3.877957582473755,5,0.5130285309523163,0.796890817799028,3.6780758643066207,2,527,177,0,0.8878171482071189,3.7646076452690025,37.478861725480265,-0.6265404584497536,8.653178096238179,38.4699248809893,136.06284240646605,38.464822466805764,30,-9,-6,ok,110,250567.0,82,78.5,0,1,0,0,2,0
1778105105.718632,3.559997081756592,1,0.012656927108764648,179,1.824761152267456,1.5476360321044922,3.837902307510376,5,0.5169503755221179,0.8147377199805221,3.6724499281860026,2,530,180,0,0.8903187963788415,3.7608583627450782,37.33684208567236,-2.411230676599163,8.840843455907565,38.44495185740348,135.8294638888432,38.369262306464776,30,-9,-9,ok,110,250557.00000000003,82,78.5,0,0,0,0,2,0
1778105105.790476,3.6318411827087402,1,0.004525184631347656,183,1.8256251811981201,1.5458968877792358,3.838017702102661,5,0.3933439249535884,0.731706924381446,3.652036770455322,2,534,184,0,0.8286668625841778,3.749763436254005,43.53229376305894,5.891848883308448,9.772666579868305,45.00310539971967,148.35771955834417,44.61575520322989,30,-12,30,ok,110,250555.00000000003,82,78.5,0,0,0,0,2,0
1778105105.8615491,3.702914237976074,1,0.015564203262329102,186,1.8264942169189453,1.5441728830337524,3.8381330966949463,5,0.5171902212330766,0.7209835969516092,3.685746970858751,2,538,187,0,0.8873243839953873,3.7631461635662014,37.01341627623107,6.964181626292132,7.7399192707450215,38.44995657317706,134.9178166341137,37.81400976827526,16,0,7,ok,110,250555.00000000003,82,78.5,0,0,0,0,2,0
1778105105.9304872,3.7718522548675537,1,0.00446319580078125,190,1.8046292066574097,1.4180092811584473,3.8709840774536133,5,0.5244782379334916,0.7343812562122684,3.6821531234355067,2,541,191,0,0.8863362024757142,3.759930053262477,36.18579645422226,5.624415700226216,7.777692982697015,37.43712629367337,133.28243935962206,37.0122192412114,30,-8,-2,ok,110,250546.99999999997,82,78.5,0,0,0,0,2,0
1778105106.00015,3.841515064239502,1,0.014223098754882812,193,1.8966459035873413,1.5864105224609375,3.8107833862304688,5,0.37782083938056266,0.6534312640110034,3.654799460913925,2,545,194,0,0.8163382181998791,3.74777503289093,43.85173788193164,13.719414920352712,9.29755719770049,46.879012690829434,148.8693891708574,44.82654888690574,30,-14,30,ok,110,250546.99999999997,82,78.5,0,1,0,-1,2,0
1778105106.072482,3.9138472080230713,1,0.006044149398803711,197,1.8330971002578735,1.5340254306793213,3.821829080581665,5,0.5030128950193108,0.6222831178158577,3.6922681803828765,2,548,198,0,0.8746722904003947,3.769467064506128,37.1659395381084,16.834229539867284,7.71988841232516,41.52463152214624,135.21627285405535,37.95923785917047,16,-2,21,ok,110,250546.99999999997,82,78.5,0,1,0,-1,2,0
1778105106.143878,3.985243082046509,1,-0.0019419193267822266,201,1.883972406387329,1.4615669250488281,3.8462629318237305,5,0.5453244821170031,0.7745307245542308,3.6867363249525176,2,552,202,0,0.8962498911191552,3.76473504778071,35.092540900215205,1.6094688660299727,7.799872282819242,35.98492496160425,131.1163893412945,35.948914232026105,30,-8,-30,ok,110,250553.00000000003,82,78.5,-1,0,0,-1,2,0
1778105106.216792,4.058157205581665,1,0.010586261749267578,204,1.883972406387329,1.4615669250488281,3.8462629318237305,5,0.6945699487417396,0.6226671458314275,3.7390377989372663,2,555,205,0,0.9709848227247326,3.7889048691074576,27.641487398299304,16.795826738310303,4.986707017019132,32.72642461814713,115.71358289089288,28.087703225146893,9,2,30,ok,110,250557.00000000003,82,78.5,0,0,0,0,2,0
1778105106.287555,4.128920078277588,1,0.001416921615600586,208,1.8973805904388428,1.5753661394119263,3.7952208518981934,5,0.4017035706885853,0.7013351383576317,3.675343275607278,2,559,209,0,0.829090348583867,3.754390016466702,42.73867778952817,8.929027485689877,7.904674085942398,44.37122923068824,146.3338528020604,43.463530132768526,30,-18,-22,ok,110,250555.00000000003,82,78.5,-1,0,0,0,2,0
1778105106.359728,4.2010931968688965,1,0.013907194137573242,211,1.8976662158966064,1.5744388103485107,3.7955377101898193,5,0.40896793070722914,0.7204623980870629,3.670501232323137,2,562,212,0,0.8372250932618444,3.7493139953300787,42.82571625546152,7.016301512746759,7.881276300694173,44.106518518683345,146.50186980716492,43.54487902062865,30,-8,-2,ok,110,250555.00000000003,82,78.5,-1,0,0,0,2,0
1778105106.431453,4.272818088531494,1,0.005548954010009766,215,1.805477261543274,1.4114489555358887,3.8720924854278564,5,0.5444238914039269,0.6937379090055427,3.708061249645152,2,566,216,0,0.9036395138992137,3.770216465786893,35.921562249528684,9.688750420898785,6.215521614174113,37.7208593234764,132.42786834129367,36.45533353822222,16,-1,15,ok,110,250542.0,82,78.5,0,0,0,0,2,0
1778105106.503725,4.34509015083313,1,-0.0021860599517822266,219,1.8288688659667969,1.5326188802719116,3.822287082672119,5,0.832980351411488,0.9242339659934928,3.7124230454697815,2,570,220,0,1.049432722609831,3.769353801525365,21.645237119834306,-13.360855277896233,5.69307560555834,26.06606709078575,103.91615133393874,22.38140745852361,-17,-5,-30,ok,110,250544.99999999997,81,78.5,0,0,0,0,2,0
1778105106.574462,4.415827035903931,1,0.007775068283081055,222,1.803612232208252,1.4153014421463013,3.871814250946045,5,0.5583692852996012,0.866339016020533,3.687757697467735,2,573,223,0,0.9063125850926945,3.7608355565690648,34.79432997930934,-7.571360280600247,7.307785910132969,36.3507170509201,130.41025929543983,35.55346865802832,30,-14,14,ok,110,250546.0,81,78.5,0,0,0,0,2,0
1778105106.6466408,4.488005876541138,1,0.0008587837219238281,226,1.8026891946792603,1.417249321937561,3.871675491333008,5,0.912476981480345,0.795850814263295,3.727991002285828,2,577,227,0,1.081465939084403,3.7840676096500703,16.898895760405807,-0.5225401048764455,5.607660736424247,17.81268045570626,94.46591517537412,17.80501437393117,-30,-1,22,ok,110,250546.0,81,78.5,0,0,0,0,2,0
1778105106.71876,4.560125112533569,1,0.012814998626708984,229,1.8855221271514893,1.4777147769927979,3.8620898723602295,5,1.0773688358837117,0.6278387723291894,3.7542717386278825,2,580,230,0,1.1640087238338463,3.798197161604629,8.663988795013466,16.27866408853411,4.392542297674629,18.9566356240845,77.82540606711382,9.713862757779708,-4,-2,30,ok,110,250546.99999999997,81,78.5,0,0,0,0,2,0
1778105106.789185,4.630550146102905,1,0.0032188892364501953,233,1.829753041267395,1.5481010675430298,3.8378331661224365,5,,,,,584,234,0,,,,,,,,,0,0,0,lost_self,110,250548.0,81,78.5,0,0,0,0,2,0
1778105106.859078,4.7004430294036865,1,0.013256072998046875,236,1.8449565172195435,1.6551204919815063,3.7875781059265137,5,0.8826202692371808,0.8406420017153741,3.7293715093140816,2,587,237,0,1.0641959474375944,3.782079245329152,18.157567820041354,-5.001658850084356,5.2707736015070505,19.557477208228367,96.89029657711296,18.907097172695362,30,-8,-30,ok,110,250541.0,81,78.5,0,0,0,0,2,0
1778105106.930099,4.771464109420776,1,0.004109859466552734,240,1.8901780843734741,1.597796082496643,3.8102409839630127,5,0.7088446152761608,0.5847580791199283,3.7456319503832245,2,591,241,0,0.9768579638279988,3.7911482241177747,26.8013348551838,20.586733409460223,4.551627373455025,34.100475865281716,113.96681890932123,27.185085281574437,30,-4,30,ok,110,250541.0,81,78.5,0,0,0,0,2,0
1778105107.000892,4.842257022857666,1,0.014966011047363281,243,1.8425498008728027,1.6599366664886475,3.7872815132141113,5,0.7066069959641741,0.5975204674178126,3.742809062179078,2,595,244,0,0.9722943782330178,3.78922076770472,26.56873822688437,19.31049457967179,4.641170552564189,33.17127546505002,113.51762169248893,26.971064403665935,30,-7,8,ok,110,250542.0,81,78.5,0,0,0,0,1,0
1778105107.07321,4.914575099945068,1,0.0072841644287109375,247,1.8724086284637451,1.5028687715530396,3.877251386642456,5,0.7039668265817387,0.6094570182779361,3.7400040376656625,2,598,248,0,0.9751575039743294,3.7881406867739247,27.119067739259073,18.11683949365944,4.813664910826221,32.96718183526248,114.64308560529568,27.542970154292394,30,-7,8,ok,110,250548.99999999997,81,78.5,0,0,0,0,1,0
1778105107.1453881,4.986753225326538,1,-0.00046372413635253906,251,1.8178863525390625,1.574600338935852,3.852492094039917,5,0.8680731404068638,0.8652982823686051,3.7189824369919484,2,602,252,0,1.0565242537976587,3.7795176996475552,18.84511133907949,-7.467286915407456,6.0535262655606825,21.15523045270722,98.43759610991941,19.79351918255406,2,-12,-30,ok,110,250548.99999999997,81,78.5,0,0,0,0,1,0
1778105107.216444,5.057809114456177,1,0.010197162628173828,254,1.8178863525390625,1.574600338935852,3.852492094039917,5,0.9013193191185283,1.0706404288914735,3.688619415425583,2,605,255,0,1.0740394756741665,3.7631285540577393,17.27201565556382,-28.001501567694298,7.450913863215636,33.733110325742075,95.71122361639583,18.810599198406752,25,-13,-30,ok,110,250557.00000000003,81,78.5,0,1,0,0,1,0
1778105107.288666,5.130031108856201,1,0.002663135528564453,258,1.7922911643981934,1.4771696329116821,3.9180126190185547,5,0.9802585216154006,0.9714951225211955,3.7062089782222047,2,609,259,0,1.1128592000300361,3.774819405936397,13.260067841463552,-18.086970930666503,6.861042771419212,23.452970483890407,87.60153828693359,14.92994665333603,14,-6,20,ok,110,250548.0,81,78.5,0,1,0,0,1,0
1778105107.359554,5.200919151306152,1,0.013512849807739258,261,1.8680682182312012,1.5385504961013794,3.908447027206421,5,0.7053655706975255,0.6396576356971678,3.7495199155087158,2,612,262,0,0.9743218552635804,3.799372196757539,26.895628456605493,15.096777751736267,4.985228124882335,31.243239717068462,114.22723032498365,27.353744342098484,30,0,30,ok,110,250548.0,81,78.5,0,1,0,0,1,0
1778105107.430639,5.272004127502441,1,0.004503011703491211,265,1.88069486618042,1.6649212837219238,3.8717682361602783,5,0.6991648912658012,0.6569827038177762,3.730292984455561,2,616,266,0,0.9734551623577732,3.7950206143705723,27.4290271091972,13.364270939675427,6.472762991501124,31.190574323828585,115.5852899888745,28.182409210378406,30,-13,2,ok,110,250546.99999999997,81,78.5,0,0,0,0,1,0
1778105107.500282,5.341647148132324,1,0.014351129531860352,268,1.813137412071228,1.6270860433578491,3.898804187774658,5,0.6218632501560077,0.4575540679987911,3.7392360215546687,2,619,269,0,0.929989299783986,3.805027333158354,30.812604962797828,33.307134521573936,6.579131160368545,45.84830205642286,122.33491552597133,31.507167302357818,30,-8,30,ok,110,250556.0,81,78.5,0,0,0,0,2,0
1778105107.571079,5.412444114685059,1,0.0050830841064453125,272,1.9667915105819702,1.6013967990875244,3.868711233139038,5,0.9308640285833883,0.7263804423785186,3.7454880949815355,2,623,273,0,1.0922547958544992,3.8132427273670952,16.13907672711109,6.424497083601189,6.775463238555979,18.64539789003717,93.26781445551876,17.50361961711355,-21,-9,-30,ok,110,250567.99999999997,81,77.5,0,0,0,0,1,0
1778105107.6418781,5.483243227005005,1,-0.0039768218994140625,276,1.4669417142868042,1.650671124458313,3.807554244995117,5,1.0694477108707765,0.8759285199520952,3.7292396515995945,2,627,277,0,1.1362049548621347,3.800762434323166,6.675724399135818,-8.53031067375647,7.15227827235716,12.980238092163532,74.7332280765818,9.78367930476309,-7,-10,-30,ok,110,250567.99999999997,81,77.5,0,0,0,0,1,0
1778105107.7151942,5.556559324264526,1,0.009219169616699219,279,1.6282488107681274,1.5940282344818115,3.8483121395111084,5,1.2265800779387273,0.7961608587877373,3.724766247773268,2,630,280,0,1.2029187920354265,3.798264485251952,-2.3661285903300744,-0.5535445573206843,7.349823747868411,7.741116534948121,57.1891863278681,7.721299996160481,0,0,26,ok,110,250571.0,81,77.5,0,0,0,0,2,0
1778105107.7856362,5.6270012855529785,1,-0.00034689903259277344,283,1.3872259855270386,1.5184330940246582,3.805647611618042,5,1.046268858089182,0.8799527958223978,3.726870230658032,2,634,284,0,1.0858469091724023,3.796388696542967,3.9578051083220434,-8.932738260786731,6.951846588493504,11.991088570314707,69.32418621995447,7.999524502456932,18,-8,-30,ok,110,250559.0,81,77.5,0,0,0,0,2,0
1778105107.85502,5.696385145187378,1,0.0090789794921875,286,1.6227571964263916,1.5894438028335571,3.8476269245147705,5,1.1947425268944987,0.7813306822886622,3.7278411968108665,2,637,287,0,1.149487870576823,3.7924750737128976,-4.525465631767567,0.92947309258683,6.463387690203115,7.944755493281182,52.5633819959152,7.890197691957951,0,0,30,ok,110,250559.0,81,77.5,0,0,0,0,2,0
1778105107.924884,5.766249179840088,1,-0.0010499954223632812,290,1.6180237531661987,1.578784704208374,3.8479223251342773,5,1.1988787656868596,0.7862371369629905,3.7262819460227177,2,641,291,0,1.1359282109064408,3.7879126544393147,-6.295055478041878,0.43882762515400353,6.163070841659701,8.820642570444592,48.98603217197445,8.809719954172271,-1,-6,-1,ok,110,250559.0,81,77.5,0,0,0,0,2,0
1778105107.995908,5.837273120880127,1,0.009907007217407227,293,1.7658435106277466,1.96856689453125,3.800657272338867,5,1.1903586967193305,0.7814598961607867,3.7269609143061415,2,644,294,0,1.1244899667006343,3.7838077033421884,-6.58687300186962,0.9165517053743799,5.68467890360469,8.748859194687714,48.186723900579494,8.700716647486407,15,-6,1,ok,110,250560.0,81,77.5,0,0,0,0,2,0
1778105108.065652,5.90701699256897,1,-0.0018932819366455078,297,1.6132123470306396,1.5724985599517822,3.8316125869750977,5,1.169404988718338,0.7702007697077489,3.729531177465046,2,648,298,0,1.1015177961351013,3.780893359871668,-6.788719258323672,2.0424643506781637,5.136218240662194,8.754376483099007,47.54552729688149,8.512781389419427,16,-5,4,ok,110,250560.0,81,77.5,0,0,0,0,2,0
1778105108.136863,5.9782280921936035,1,0.010009765625,300,1.6139767169952393,1.5666688680648804,3.8328332901000977,5,1.389873050655746,0.5555280491667115,3.727436424320475,2,651,301,0,1.1897009025046346,3.7776036118594485,-20.01721481511114,23.5097364047819,5.016718753897331,31.28200859651339,22.34488461400882,20.636287360133608,-30,-7,30,ok,110,250553.00000000003,81,77.5,0,-1,0,0,2,0
1778105108.2085178,6.049882888793945,1,0.0025746822357177734,304,1.6081805229187012,1.552905797958374,3.8341057300567627,5,1.3481699664892672,0.7349077261359177,3.7078349237642683,2,655,305,0,1.1776767859608888,3.7694623293976983,-17.049318052837847,5.571768707861279,6.1627405633430055,18.96584361033798,28.684458101740372,18.128944186518304,20,-12,-30,ok,110,250558.0,81,77.5,0,-1,0,0,1,0
1778105108.280819,6.1221840381622314,1,0.014861106872558594,307,1.6081805229187012,1.552905797958374,3.8341057300567627,5,1.0951880964887815,0.9939447621852823,3.6898444120574263,2,659,308,0,1.0499315829700568,3.7595791729533805,-4.525651351872462,-20.331934897075175,6.973476089595421,21.96584770933659,52.8231694550229,8.313295912624792,30,-11,-30,ok,110,250558.0,81,77.5,0,-1,0,0,1,0
1778105108.35264,6.194005012512207,1,0.0068018436431884766,311,1.277298092842102,1.558214545249939,3.753541946411133,5,1.3404711778125769,0.7190531644221462,3.710769884862033,2,662,312,0,1.165702630339146,3.7667853052802522,-17.476854747343083,7.1572248792384325,5.6015420418219275,19.698822124127542,27.43767047440009,18.352594506118937,-30,-3,30,ok,110,250561.0,81,77.5,0,-1,0,0,1,0
1778105108.42243,6.2637951374053955,1,0.016405105590820312,314,1.6222858428955078,1.520086646080017,3.8244800567626953,5,1.3368944819515838,0.7139312753716616,3.712125459175089,2,666,315,0,1.163884822812969,3.7660164132022755,-17.300965913861475,7.669413784286894,5.389095402718658,19.67703429398876,27.59041978517265,18.12086561983726,10,-7,6,ok,110,250563.0,80,77.5,0,-1,0,0,1,0
1778105108.493485,6.334850072860718,1,0.007380962371826172,318,1.4609695672988892,1.5978031158447266,3.7836239337921143,5,1.2005886733987154,0.9105225634653278,3.6944656802088063,2,669,319,0,1.085916031919828,3.7531678742602486,-11.467264147888745,-11.989715025079729,5.870219405144228,17.59860475391754,38.88042047245182,12.882454071409935,30,-10,-30,ok,110,250563.0,80,77.5,0,-1,0,0,1,0
1778105108.5643451,6.405710220336914,1,-0.0015468597412109375,322,1.453860878944397,1.600352168083191,3.7988393306732178,5,1.3505209650955232,0.8692222230842981,3.6936838302365977,2,673,323,0,1.1413832632880225,3.7526633279200414,-20.91377018075007,-7.859680986976758,5.897949768344368,23.10727547462461,21.665214866060325,21.729509765366178,-25,-8,8,ok,110,250562.0,80,77.5,0,-1,0,0,1,0
1778105108.634292,6.475656986236572,1,0.008240699768066406,325,1.455069661140442,1.5955924987792969,3.7820072174072266,5,1.254134195089742,1.0288421257895644,3.6701820366086304,2,676,326,0,1.0833059604169948,3.737812095508066,-17.08282346727472,-23.821671257503386,6.763005889943541,30.083768510312098,29.161049243468558,18.372836097932264,23,-12,-30,ok,110,250557.00000000003,80,77.5,0,-1,0,0,1,0
1778105108.7064471,6.547812223434448,1,0.0003750324249267578,329,1.455069661140442,1.5955924987792969,3.7820072174072266,5,1.4891643864699846,0.7183268906394598,3.69491239023646,2,680,330,0,1.1908893651161911,3.7470006427786764,-29.827502135379348,7.2298522575070745,5.2088252542216384,31.13009007103026,10.42336146208421,30.27889932221904,-30,-2,30,ok,110,250557.00000000003,80,77.5,0,-1,0,0,1,0
1778105108.778931,6.620296001434326,1,0.012889862060546875,332,1.8671962022781372,1.7707066535949707,3.825453519821167,5,1.3426741616180429,0.8638877887876906,3.6972032691633148,2,683,333,0,1.1338327326501851,3.747605319102379,-20.884142896785775,-7.326237557316007,5.040204993906405,22.6985648810711,20.83290830458582,21.483740151890842,30,-7,-30,ok,110,250554.0,80,77.5,0,-1,0,0,1,0
1778105108.8492959,6.6906609535217285,1,0.003476858139038086,336,1.6704277992248535,1.724117398262024,3.806461811065674,5,1.3225376611517592,0.6912149977030156,3.7186533306280767,2,687,337,0,1.1276549371861777,3.7566026048978167,-19.48827239655815,9.941041551151486,3.794927426974004,22.204020858848295,22.35154503697326,19.85432535188365,12,-2,30,ok,110,250564.0,80,77.5,0,-1,0,0,0,0
1778105108.919511,6.760876178741455,1,0.013571023941040039,339,1.8766099214553833,1.7770590782165527,3.8263776302337646,5,1.319394314183051,0.6899386731571154,3.7197854804570056,2,690,340,0,1.1635402529901537,3.7617209100511957,-15.585406119289736,10.068674005741507,4.1935429594190055,19.02285159195596,30.024411354649583,16.139723865533966,24,-8,6,ok,110,250560.0,80,77.5,0,-1,0,0,0,0
1778105108.989231,6.830596208572388,1,0.0032172203063964844,343,1.8766099214553833,1.7770590782165527,3.8263776302337646,5,1.4640402015177774,0.8446360622919934,3.674599861172757,2,694,344,0,1.251758451567509,3.739246698751013,-21.228174995026826,-5.401064907746289,6.464683757825629,22.83854312003866,21.793306312404013,22.19070863465556,-13,-17,-30,ok,110,250560.0,80,77.5,0,-1,0,0,0,0
1778105109.0598981,6.901263236999512,1,0.014023303985595703,346,1.6769399642944336,1.728276252746582,3.7907755374908447,5,1.3128587955224176,0.6872172041494454,3.7221259250782732,2,697,347,0,1.1896658983820507,3.763456705934942,-12.319289714036685,10.340820906508508,4.133078085666897,16.60661947962539,36.314727077503356,12.994123037765574,30,0,30,ok,110,250552.0,80,77.5,0,0,0,0,0,0
1778105109.130889,6.972254037857056,1,0.004884958267211914,350,1.4691400527954102,1.6035220623016357,3.7848827838897705,5,1.3316155895498565,0.8592036570426946,3.701930482593029,2,701,351,0,1.1999992437614584,3.7524867005183546,-13.16163457883981,-6.857824382816413,5.055621792532561,15.678574289826011,35.16190334812117,14.099217584534324,8,-11,-30,ok,110,250552.0,80,77.5,0,0,0,0,0,0
1778105109.2014332,7.042798280715942,1,0.015540122985839844,353,1.4691400527954102,1.6035220623016357,3.7848827838897705,5,1.3094640469392609,0.6857719922023382,3.7233334974359193,2,705,354,0,1.189802871934596,3.7633679308449586,-11.966117500466478,10.485342101219231,4.003443340903923,16.406033207280746,36.94582393672172,12.61806350510244,16,-3,30,ok,110,250559.0,80,77.5,0,0,0,0,0,0
1778105109.2726521,7.1140172481536865,1,0.006824970245361328,357,1.4691400527954102,1.6035220623016357,3.7848827838897705,5,1.320395487890655,0.8539636487979304,3.6892735798400853,2,708,358,0,1.1961479918887288,3.7465176949522006,-12.42474960019262,-6.33382355833999,5.724411511211525,15.075165360464885,36.9680031251687,13.68003252105702,10,-14,-30,ok,110,250558.0,80,77.5,0,0,0,0,0,0
1778105109.343331,7.184696197509766,1,-0.0024688243865966797,361,1.4691400527954102,1.6035220623016357,3.7848827838897705,5,1.4749138633366445,0.7049174446837825,3.703473148053508,2,712,362,0,1.2485286702690532,3.7510818080631996,-22.63851930675913,8.570796853074803,4.760866000969166,24.670366032516966,17.533652565982035,23.133707041494453,-30,-4,30,ok,110,250558.0,80,77.5,0,0,0,0,0,0
1778105109.415354,7.25671911239624,1,0.009367942810058594,364,1.7600101232528687,1.6608643531799316,3.827657461166382,5,1.126591294428239,1.0835950982152673,3.662290144747982,2,715,365,0,1.0799662810666013,3.731815034541731,-4.662501336163771,-29.29696850007368,6.952488979374882,30.46946643793369,52.548109063913316,8.371142199130183,30,-17,-30,ok,110,250562.0,80,77.5,0,0,0,0,0,0
1778105109.485787,7.3271520137786865,1,-0.00010204315185546875,368,1.8706109523773193,1.6460418701171875,3.84267520904541,5,1.473370769948784,0.6998957870635709,3.704899721545147,2,719,369,0,1.2529810832594948,3.754138421616041,-22.038968668928916,9.072962615095959,4.923870007089404,24.336788745676245,18.721379831733593,22.582308027231075,-30,-1,30,ok,110,250551.00000000003,80,77.5,0,0,0,0,0,0
1778105109.555936,7.397301197052002,1,0.009690284729003906,371,1.8277970552444458,1.704923152923584,3.818372964859009,5,1.3124031043551485,0.849335326382263,3.6928815837581768,2,722,372,0,1.1694464463244933,3.747629061136634,-14.295665803065516,-5.870991316773244,5.474747737845709,16.39534880957433,33.262529991692034,15.308132594996149,30,-10,-30,ok,110,250551.00000000003,80,77.5,0,0,0,0,0,0
1778105109.627445,7.468810081481934,1,-0.002686023712158203,375,1.8320949077606201,1.704158067703247,3.8170361518859863,5,1.338051305427382,0.9779006536193987,3.671119068888761,2,726,376,0,1.191967730827247,3.738389092101622,-14.608357460013499,-18.72752404048682,6.727002321286113,24.685559029463615,33.594953210820876,16.082806593070774,8,-13,-30,ok,110,250552.0,80,78.0,0,-1,0,0,0,0
1778105109.697985,7.5393500328063965,1,0.012008905410766602,378,1.8320949077606201,1.704158067703247,3.8170361518859863,5,1.4512310218080233,0.8326636712394346,3.6829558035475793,2,729,379,0,1.2712422674528931,3.746317044930795,-17.998875435513018,-4.203825802490413,6.336124138321564,19.539143722717718,27.142104554256964,19.081561415128874,-4,-7,30,ok,110,250550.0,80,78.0,0,-1,0,0,0,0
1778105109.769056,7.610421180725098,1,0.0030112266540527344,382,1.8815388679504395,1.6453953981399536,3.838967800140381,5,1.4506457370049561,0.8308457482458953,3.683621481410438,2,733,383,0,1.296724550998549,3.7500301973778876,-15.392118600640714,-4.02203350313648,6.640871596744935,17.239351614286306,32.093075548610194,16.763606132948947,18,-10,-2,ok,110,250550.0,80,78.0,0,-1,0,0,0,0
1778105109.841613,7.68297815322876,1,0.015441179275512695,385,1.8220478296279907,1.593122959136963,3.8492748737335205,5,1.2233635969402694,1.0193309595860627,3.6671185387123937,2,737,386,0,1.205140217018242,3.7458032316441,-1.8223379922027494,-22.87055463715322,7.868469293170621,24.25481383532772,58.51131327335693,8.076739736762262,30,-14,-30,ok,110,250551.00000000003,80,78.0,0,-1,0,0,0,0
1778105109.913698,7.755063056945801,1,0.004633903503417969,389,1.8246856927871704,1.5917103290557861,3.8487353324890137,5,1.564450127015815,0.8306919442159287,3.6524392423879135,2,740,390,0,1.3979050845554997,3.7424543677693123,-16.654504246031543,-4.006653100139824,9.001512538139878,19.35078832296587,32.19499867330202,18.931448429937213,-30,-14,30,ok,110,250550.0,80,78.0,0,0,0,0,0,0
1778105109.9854348,7.8267998695373535,1,-0.0004353523254394531,393,1.9018183946609497,1.7278026342391968,3.769178867340088,5,1.335233351190636,0.9783516564576095,3.6736727543568053,2,744,394,0,1.2921597136059153,3.749416211639615,-4.307363758472071,-18.772624324307895,7.574345728280951,20.69626825736763,53.57171904096422,8.713443392788326,30,-5,-30,ok,110,250546.99999999997,80,78.0,0,0,0,0,0,0
1778105110.056412,7.897777080535889,1,0.010449886322021484,396,1.8806556463241577,1.5197795629501343,3.871591329574585,5,1.2987782789926274,0.844657684614051,3.6984860351807023,2,747,397,0,1.2745599708785884,3.7636301095846365,-2.421830811403902,-5.403227139952049,6.514407440393422,8.803273953730672,56.6742594162212,6.950019336557162,23,-5,30,ok,110,250546.99999999997,80,78.0,0,0,0,0,0,0
1778105110.128236,7.969601154327393,1,0.0022351741790771484,400,1.8498300313949585,1.6871811151504517,3.7970705032348633,5,1.4393900318472712,0.8310888684513671,3.6888411997841177,2,751,401,0,1.3462429083153171,3.7574762880348356,-9.314712353195409,-4.046345523683659,6.863508825071785,12.25742761396714,43.5884791394646,11.570290385924176,-11,-10,0,ok,110,250544.99999999997,80,78.0,0,0,0,0,0,0
1778105110.19763,8.038995027542114,1,0.01169586181640625,403,1.8338388204574585,1.5837546586990356,3.8473265171051025,5,1.3293719663616033,0.9803301098764758,3.6757367498731024,2,754,404,0,1.2913428701160357,3.7528172109055227,-3.8029096245567606,-18.970469666194532,7.708046103242028,20.826781213098148,54.615071871008105,8.595120496086778,30,-13,-30,ok,110,250550.0,80,78.0,0,0,0,0,0,0
1778105110.268683,8.110048055648804,1,0.002727985382080078,407,1.902091383934021,1.6272921562194824,3.8193776607513428,5,1.4521789805982301,0.6860259848014273,3.716599705183493,2,758,408,0,1.3571211569951867,3.7733950328648023,-9.505782360304348,10.45994284131032,5.679532768130935,15.232445469760439,42.53328339676992,11.07325565250556,-7,-2,30,ok,110,250550.0,80,78.0,0,0,0,0,0,0
1778105110.3407109,8.18207597732544,1,0.014741897583007812,410,1.9001556634902954,1.6349637508392334,3.8344569206237793,5,1.4341107310518808,0.8285568720959118,3.691763677848224,2,761,411,0,1.349250581943253,3.7606950892273803,-8.486014910862782,-3.7931458881381275,6.893141137915615,11.57219942548992,45.18260502285558,10.93287902679848,16,-14,-30,ok,110,250548.0,80,78.0,0,0,0,0,0,0
1778105110.41033,8.251695156097412,1,0.004492998123168945,414,1.9581477642059326,1.573662519454956,3.855708599090576,5,1.3238415398582972,0.9795765590507705,3.6782125439598317,2,765,415,0,1.3026222322575827,3.7543216301180005,-2.1219307600714554,-18.895114583623997,7.61090861581688,20.48057311788743,57.796632237685444,7.901172071841812,30,-12,-30,ok,110,250548.0,79,78.0,0,0,0,0,0,0
1778105110.478666,8.32003116607666,1,0.012724161148071289,417,1.9625214338302612,1.6810972690582275,3.802462100982666,5,1.4314748384666554,0.8273808415436659,3.7095226820978433,2,768,418,0,1.3650536153769548,3.767084622217859,-6.642122308970055,-3.6755428329135365,5.756194012001581,9.526865874342025,48.11337526022957,8.789286562123262,-2,-2,30,ok,110,250548.0,79,78.0,0,0,0,0,0,0
1778105110.546443,8.387808084487915,1,0.0006120204925537109,421,1.9094663858413696,1.6401361227035522,3.8321518898010254,5,1.424941962311832,0.8279338882108425,3.695741889909172,2,772,422,0,1.3622651767483194,3.7641300400273323,-6.267678556351264,-3.7308474996311958,6.838815011816024,9.998620320678748,49.39605133491988,9.276485608870725,15,-13,-4,ok,110,250542.99999999997,79,78.0,0,0,0,0,0,0
1778105110.6170108,8.458375930786133,1,0.01111292839050293,424,1.9671299457550049,1.5830897092819214,3.851749897003174,5,1.4257456896602827,0.8246392450787008,3.7126252080677524,2,775,425,0,1.3680716841369727,3.7713316095709093,-5.7674005523310035,-3.4013831864170285,5.870640150315687,8.904871278483874,49.86715519319972,8.229661287411929,16,-6,-2,ok,110,250548.0,79,77.5,0,0,0,0,0,0
1778105110.68642,8.527785062789917,1,0.0005240440368652344,428,1.8954799175262451,1.526763677597046,3.866332769393921,5,1.4257456896602827,0.8246392450787008,3.7126252080677524,2,779,429,0,1.370924802020178,3.7756605012058504,-5.482088764010462,-3.4013831864170285,6.303529313809797,9.019821872264973,50.63052254069363,8.353908009222339,15,-11,-3,ok,110,250548.0,79,77.5,0,0,0,0,0,0
1778105110.7575638,8.598928928375244,1,0.011485815048217773,431,1.9676588773727417,1.6906014680862427,3.798793315887451,5,1.419964637138912,0.8215499154728382,3.6995122907854427,2,782,432,0,1.376398029316698,3.766070717488592,-4.356660782221411,-3.0924502258307673,6.655842670314938,8.534868670493525,52.98607695952011,7.9549189074013285,19,-11,-2,ok,100,250542.99999999997,79,77.5,0,0,0,0,0,0
1778105110.828663,8.67002820968628,1,0.002682209014892578,435,1.9163110256195068,1.7452592849731445,3.7780215740203857,5,1.4226883868376494,0.8256281697681179,3.715387359259638,2,786,436,0,1.3786486317714095,3.771423496305005,-4.403975506623992,-3.500275655358742,5.603613704536725,7.940240328611781,52.404463795183574,7.127095257720066,0,0,-5,ok,100,250537.0,79,77.5,0,0,0,0,0,0
1778105110.901048,8.74241304397583,1,0.015141963958740234,438,1.971359133720398,1.59296452999115,3.8489294052124023,5,1.5475981071714195,0.8219725879478701,3.699725101960662,2,790,439,0,1.445553708827676,3.764496897942306,-10.204439834374357,-3.134717473333959,6.4771795981644065,12.486428693500342,41.6565988922659,12.08653994657873,1,-9,-2,ok,100,250551.00000000003,79,77.5,0,0,0,0,0,0
1778105110.973001,8.814366102218628,1,0.007057905197143555,442,1.9705662727355957,1.6972944736480713,3.7967376708984375,5,1.4189733874481223,0.8216474391066966,3.717894121652448,2,793,443,0,1.3820175057491313,3.76989572477619,-3.6955881698991,-3.102202589216607,5.200160312374225,7.093849455720948,53.62699876002552,6.379579860452425,0,0,-3,ok,100,250551.00000000003,79,77.5,0,0,0,0,0,0
1778105111.045386,8.886751174926758,1,-0.0005288124084472656,446,1.9688326120376587,1.5929077863693237,3.8310792446136475,5,1.418330082433199,0.8191859475586571,3.7187502715565444,2,797,447,0,1.382090301879632,3.772112371205175,-3.6239780553567025,-2.8560534344126642,5.336209964863059,7.054459224847156,53.82080157015162,6.450453761931076,0,0,-2,ok,100,250553.00000000003,79,77.5,0,0,0,0,0,0
1778105111.116739,8.958104133605957,1,0.010748147964477539,449,1.9736855030059814,1.7039858102798462,3.7948005199432373,5,1.5719657596048942,0.6952160876531754,3.7063623099619227,2,800,450,0,1.4629218352882678,3.7635839297917526,-10.904392431662636,9.540932556135505,5.722161982982987,15.57813551436511,39.86905397239513,12.314581278435623,10,-8,30,ok,100,250541.0,79,77.5,0,0,0,0,0,0
1778105111.188213,9.02957820892334,1,0.0023140907287597656,453,1.9712423086166382,1.597852349281311,3.829827070236206,5,1.5774170560641474,0.6979979776306965,3.721568548559879,2,804,454,0,1.4659045061967466,3.769816872417795,-11.151254986740078,9.262743558383402,4.824832385791611,15.278347867444708,38.91293852311203,12.150287870263774,10,-5,4,ok,100,250541.0,79,77.5,0,0,0,0,0,0
1778105111.259725,9.1010901927948,1,0.01384115219116211,456,1.9748643636703491,1.7988340854644775,3.7423346042633057,5,1.5761465621793795,0.6847172151391534,3.722884396819774,2,807,457,0,1.470230787138369,3.762724911227079,-10.591577504101046,10.59081980753771,3.984051440730507,15.499020746598777,39.62623018464934,11.316102681920404,13,-5,10,ok,100,250546.0,79,77.5,0,0,0,0,0,0
1778105111.331402,9.172767162322998,1,0.00543212890625,460,1.9772568941116333,1.7011595964431763,3.7770602703094482,5,1.2969340643207237,0.9688344055092682,3.7242495471257198,2,811,461,0,1.3312244142552219,3.7620491710314266,3.42903499344982,-17.820899229473774,3.779962390570679,18.53728259501622,67.28412877543772,5.103567052604699,30,-7,-30,ok,100,250548.99999999997,79,77.5,0,-1,0,0,0,0
1778105111.401726,9.243091106414795,1,0.015790939331054688,463,1.9772568941116333,1.7011595964431763,3.7770602703094482,5,1.3031912491250437,0.9707328209410157,3.739693842286197,2,815,464,0,1.3381621234381398,3.769711237129732,3.497087431309609,-18.010740772648514,3.0017394843534717,18.59104202603216,67.26262874175309,4.608694005263344,20,-5,-14,ok,100,250548.99999999997,79,77.5,0,-1,0,0,0,0
1778105111.4724102,9.313775300979614,1,0.00635528564453125,467,1.9772568941116333,1.7011595964431763,3.7770602703094482,5,1.5782355145965086,0.6907024209573153,3.7233274395399656,2,818,468,0,1.4760528661983245,3.7570362148251815,-10.218264839818403,9.992299225721524,3.3708775285215875,14.684066039939884,40.13376938488865,10.759914109739018,-30,-9,30,ok,100,250546.99999999997,79,77.5,0,0,0,0,0,0
1778105111.5448651,9.386230230331421,1,-0.0010008811950683594,471,1.9772568941116333,1.7011595964431763,3.7770602703094482,5,1.422298592333287,0.9346793950605002,3.7224062300291685,2,822,472,0,1.398502568902716,3.755345772532971,-2.3796023430570967,-14.405398184596974,3.29395425038026,14.9675695679516,55.63223890268143,4.063575016494836,30,-7,-30,ok,100,250551.00000000003,79,77.5,0,0,0,0,0,0
1778105111.6154351,9.45680022239685,1,0.009508132934570312,474,1.9772568941116333,1.7011595964431763,3.7770602703094482,5,1.4156477952912196,0.8020779049404153,3.7573379467037524,2,825,475,0,1.3957036880113056,3.7694354449762506,-1.9944107279914025,-1.1452491725884806,1.2097498272498175,2.598608178193234,56.063411423743204,2.332631303154907,0,0,30,ok,100,250546.99999999997,79,77.5,0,0,0,0,0,0
1778105111.684902,9.526267051696777,1,-0.0009400844573974609,478,1.8599121570587158,1.7315083742141724,3.728349447250366,5,1.4189940719965282,0.8059472855400095,3.7569274240098567,2,829,479,0,1.390265992242256,3.7650769915859983,-2.872807975427216,-1.5321872325478991,0.8149567576141603,3.3563042019522005,54.27886150813504,2.986164794591753,0,0,-4,ok,100,250546.99999999997,79,77.5,0,0,0,0,0,0
1778105111.7551382,9.596503257751465,1,0.009074211120605469,481,1.6080225706100464,1.5196996927261353,3.704444408416748,5,1.4185431532369641,0.8031932601573261,3.75783698170178,2,832,482,0,1.3673392992370619,3.757695354068244,-5.120385399990224,-1.2567846942795557,-0.014162763353597896,5.2723860818489205,49.75923726219628,5.120404986746542,0,0,-1,ok,100,250541.0,79,77.5,0,0,0,0,0,0
1778105111.826751,9.668116092681885,1,0.0007691383361816406,485,1.6581472158432007,1.7068274021148682,3.6877238750457764,5,1.4181194591725703,0.8004036507427706,3.7587511729726977,2,836,486,0,1.347332630465668,3.754739279127607,-7.078682870690223,-0.9778237528240141,-0.4011893845090597,7.157153302649928,45.84965569618307,7.090042602555075,0,0,-1,ok,100,250544.0,79,77.5,0,0,0,0,0,0
1778105111.8983622,9.739727258682251,1,0.012394189834594727,488,1.7934856414794922,1.8979278802871704,3.6709134578704834,5,1.2932098311980178,0.963006061991561,3.7452831950541374,2,839,489,0,1.2733921131888832,3.7413711143908914,-1.9817718009134566,-17.238064877703053,-0.3912080663245998,17.356017514105957,56.04191842423831,2.0200156489624526,16,-3,-30,ok,100,250544.0,79,77.5,0,0,0,0,0,0
1778105111.97011,9.811475038528442,1,0.0021119117736816406,492,1.7934856414794922,1.8979278802871704,3.6709134578704834,5,1.5500816670805033,0.7994540150511122,3.724775206317604,2,843,493,0,1.390342327840617,3.7244829442451897,-15.973933923988625,-0.882860183658174,-0.02922620724143954,15.998339328912653,28.052193050799218,15.973960660373004,-30,-7,30,ok,100,250542.99999999997,79,77.5,0,0,0,0,0,0
1778105112.043067,9.884432077407837,1,-0.0028839111328125,496,1.7934856414794922,1.8979278802871704,3.6709134578704834,5,1.558435456860557,0.8034951890784352,3.7394587149576646,2,847,497,0,1.383033519441135,3.7251905227877846,-17.5401937419422,-1.2869775863904698,-1.4268192169879956,17.645127397973244,25.082470776723966,17.598130854804854,1,0,-4,ok,100,250553.00000000003,79,77.5,0,0,0,0,0,0
1778105112.1141639,9.955528974533081,1,0.008176803588867188,499,1.7934856414794922,1.8979278802871704,3.6709134578704834,5,1.5506367994255754,0.7977116491835663,3.725778892193759,2,850,500,0,1.3676484874341355,3.7117164356283965,-18.298831199143994,-0.7086235969035792,-1.4062456565362424,18.36646121340149,23.57073423995554,18.35278589482514,3,-5,0,ok,100,250553.00000000003,79,77.5,0,0,0,0,0,0
1778105112.1860201,10.027385234832764,1,3.0279159545898438e-05,503,1.6208196878433228,1.5485113859176636,3.673142433166504,5,1.4128554765474273,0.7821264808365638,3.763753138956633,2,854,504,0,1.276480500603292,3.7242086941883996,-13.637497594413528,0.8498932377966728,-3.95444447682336,14.224671886323637,33.66714220679278,14.199259549635451,25,5,4,ok,100,250544.0,79,77.5,0,0,0,0,0,0
1778105112.257747,10.099112033843994,1,0.011748790740966797,506,2.063627243041992,1.4079467058181763,3.71380615234375,5,1.665747328355929,0.8129429608568619,3.7036804325207946,2,857,507,0,1.4156586193814975,3.693263385038817,-25.008870897443146,-2.2317547642331403,-1.0417047481977804,25.129852798515827,10.197356226161354,25.03055677262087,-30,-15,-14,ok,100,250551.00000000003,79,77.5,0,0,0,0,0,0
1778105112.329359,10.170724153518677,1,0.0031888484954833984,510,2.3655927181243896,1.5432289838790894,3.676403760910034,5,1.421172078214102,0.9217680626019839,3.7461913107945026,2,861,511,0,1.3407191285302307,3.712766283706501,-8.045294968387129,-13.114264938745334,-3.3425027088001436,15.744301838134858,44.41537559825262,8.712008694135443,30,3,-30,ok,100,250551.00000000003,79,77.5,0,0,0,0,0,0
1778105112.401558,10.242923021316528,1,-0.004420280456542969,514,2.3655927181243896,1.5432289838790894,3.676403760910034,5,1.4220163221570443,0.9181063568520664,3.746934839051582,2,865,515,0,1.385356594394276,3.7124305407015568,-3.665972776276827,-12.748094363753593,-3.450429835002522,13.706156731551133,53.11822496530052,5.034364154754635,29,-3,-9,ok,100,250542.0,79,77.5,0,0,0,0,0,0
1778105112.474189,10.315554141998291,1,0.008077144622802734,517,2.3655927181243896,1.5432289838790894,3.676403760910034,5,1.6643166221988543,0.8086595109936963,3.70625445053042,2,868,518,0,1.5422634367054873,3.6924334903809477,-12.205318549336708,-1.8034097779165759,-1.3820960149472317,12.415002098767475,35.69654758237065,12.283321630785206,-19,-12,30,ok,100,250550.0,78,77.5,0,0,0,0,0,0
1778105112.5468512,10.388216257095337,1,0.0009381771087646484,521,2.3655927181243896,1.5432289838790894,3.676403760910034,5,1.663339250717268,0.8095223444125015,3.7066217308417975,2,872,522,0,1.577531443255,3.692960274476609,-8.58078074622679,-1.8896931197970979,-1.3661456365188673,8.891967847557954,42.92548461421903,8.688852174769456,24,-5,-3,ok,100,250551.00000000003,78,77.5,0,-1,0,0,0,0
1778105112.6197782,10.461143255233765,1,0.01377415657043457,524,2.3655927181243896,1.5432289838790894,3.676403760910034,5,1.414708230807836,0.9179459491546073,3.750576671501192,2,875,525,0,1.4889726255905902,3.715280888746278,7.426439478275415,-12.732053594007676,-3.5295782754914296,15.156355592555634,75.18500634631438,8.222525532177366,30,3,-30,ok,100,250551.00000000003,78,77.5,0,-1,0,0,0,0
1778105112.691807,10.533172130584717,1,0.005758047103881836,528,2.066354990005493,1.6293721199035645,3.720249891281128,5,1.5453869908906994,0.7826447826806684,3.7497010605315353,2,879,529,0,1.571366339914897,3.7179266103496147,2.597934902419752,0.798063053386211,-3.17744501819206,4.181187300041029,65.50485529320798,4.10431755604318,0,0,30,ok,100,250554.0,78,78.0,0,0,0,0,0,0
1778105112.7618701,10.603235244750977,1,0.015920162200927734,531,2.073902130126953,1.6266870498657227,3.7195470333099365,5,1.5503273113036986,0.7900438906906871,3.765315635636757,2,883,532,0,1.6021541527641234,3.72863418541119,5.182684146042482,0.058152252384335856,-3.6681450225567236,6.34971531240615,70.7467752375102,6.349449020517273,0,0,-4,ok,100,250556.0,78,78.0,0,0,0,0,0,0
1778105112.833079,10.674444198608398,1,0.006967067718505859,535,2.069040298461914,1.6172839403152466,3.704111337661743,5,1.545551792483708,0.7800126607539841,3.7505273790217086,2,886,536,0,1.6001047093178733,3.7206341311860402,5.455291683416519,1.0612752460546382,-2.989324783566838,6.310513066359082,71.162174531637,6.2206326055153225,0,0,2,ok,100,250552.0,78,78.0,0,0,0,0,0,0
1778105112.9044049,10.74576997756958,1,-0.0014679431915283203,539,2.0708158016204834,1.7074123620986938,3.6545121669769287,5,1.5457451747170916,0.7773592286499644,3.751354329325218,2,890,540,0,1.581777843153071,3.719679381716976,3.60326684359793,1.3266184564566075,-3.1674947608241855,4.977596963900569,67.50444624235938,4.797557191532046,0,0,0,ok,100,250555.00000000003,78,78.0,0,0,0,0,0,0
1778105112.976933,10.818298101425171,1,0.010860919952392578,542,2.0197508335113525,1.6574304103851318,3.6728005409240723,5,1.5523766454422927,0.7836110326586975,3.7492727290467185,2,893,543,0,1.5634784607273566,3.7184133803286037,1.1101815285063932,0.7014380555833033,-3.08593487181148,3.353731116997815,62.52571914883291,3.27955744869623,0,0,-3,ok,100,250555.00000000003,78,78.0,0,0,0,0,0,0
1778105113.049087,10.890452146530151,1,0.0032210350036621094,546,2.121403217315674,1.6493767499923706,3.652574062347412,5,1.4125848272509198,0.9076792897319225,3.754930986939036,2,897,547,0,1.4783207078311256,3.7197531531145986,6.573588058020574,-11.705387651739196,-3.517783382443751,13.878146848907333,73.48475061844006,7.455659587343572,20,-3,-30,ok,100,250546.99999999997,78,78.0,0,0,0,0,0,0
