timestamp,elapsed,master_age_s,master_seq,master_pos_x,master_pos_y,master_pos_z,master_state,pos_x,pos_y,pos_z,marker_id,received_count,crc_errors,target_x,target_y,target_z,err_x_cm,err_y_cm,err_z_cm,err_3d_cm,cmd_lr,cmd_fb,cmd_ud,feedback,tello_height_cm,tello_baro_cm,tello_battery,tello_temp_c,tello_pitch,tello_roll,tello_yaw,tello_vgx,tello_vgy,tello_vgz
1778075391.2910678,9.5367431640625e-07,0.001773834228515625,1105,-0.016446655616164207,1.4204339981079102,2.7479870319366455,3,1.5543659780462296,1.3436962914937751,2.9591951546816673,2,1106,0,0.9835533443838358,1.4204339981079102,2.7479870319366455,-57.08126336623938,7.673770661413504,-21.12081227450218,61.3453021411152,-30,30,30,ok,130,248029.0,75,69.5,0,1,0,0,0,0
1778075391.3640552,0.07298827171325684,-0.004239559173583984,1109,-0.014297416433691978,1.4669368267059326,2.720795154571533,3,1.5927601942802345,1.3293023075421135,2.9468491270362636,2,1110,0,0.985702583566308,1.4669368267059326,2.720795154571533,-60.70576107139265,13.763451916381907,-22.605397246473036,66.22405922761318,-30,18,30,ok,130,248026.00000000003,75,69.5,0,1,0,0,0,0
1778075391.428644,0.13757705688476562,0.0004868507385253906,1112,-0.014297416433691978,1.4669368267059326,2.720795154571533,3,1.5927601942802345,1.3293023075421135,2.9468491270362636,2,1113,0,0.985702583566308,1.4669368267059326,2.720795154571533,-60.70576107139265,13.763451916381907,-22.605397246473036,66.22405922761318,-30,13,9,ok,130,248032.00000000003,75,69.5,0,1,0,0,0,0
1778075391.492459,0.20139217376708984,0.003779888153076172,1115,0.01203709002584219,1.4422663450241089,2.7301414012908936,3,1.6282137941054016,1.278119981575388,2.9474323740136548,2,1116,0,1.0120370900258422,1.4422663450241089,2.7301414012908936,-61.61767040795594,16.41463634487208,-21.72909727227612,67.36713784261524,-30,10,21,ok,130,248032.00000000003,75,69.5,0,1,0,0,0,0
1778075391.5569193,0.2658524513244629,0.00860738754272461,1118,0.010935123078525066,1.4865446090698242,2.703425407409668,3,1.5883919343297306,1.3284093821722474,2.9361310448876714,2,1119,0,1.010935123078525,1.4865446090698242,2.703425407409668,-57.745681125120555,15.813522689757686,-23.270563747800345,64.23511754176235,-20,20,9,ok,130,248021.99999999997,75,69.5,0,0,0,0,1,0
1778075391.6209698,0.32990288734436035,0.012744426727294922,1121,-0.04284005984663963,1.3989259004592896,2.755687952041626,3,1.6276603225829835,1.2823916643874687,2.9477475064804946,2,1122,0,0.9571599401533604,1.3989259004592896,2.755687952041626,-67.05003824296232,11.65342360718209,-19.205955443886857,70.71335541935275,-30,-4,-8,ok,130,248021.99999999997,75,69.5,0,0,0,0,1,0
1778075391.6820703,0.3910033702850342,-0.006876945495605469,1125,-0.013124020770192146,1.469155192375183,2.7200469970703125,3,1.6264811382811604,1.2789846460831136,2.938097572145762,2,1126,0,0.9868759792298079,1.469155192375183,2.7200469970703125,-63.96051590513525,19.017054629206953,-21.805057507544934,70.20011748229943,-28,23,30,ok,130,248026.00000000003,75,69.5,-1,0,0,0,0,0
1778075391.746835,0.4557681083679199,-0.0023102760314941406,1128,-0.04543329402804375,1.4000828266143799,2.755625009536743,3,1.5841826151291716,1.3303197580564716,2.9280397174602895,2,1129,0,0.9545667059719563,1.4000828266143799,2.755625009536743,-62.96159091572153,6.976306855790826,-17.24147079235463,65.65134502101567,-30,-5,-30,ok,130,248030.00000000003,75,69.5,-1,-2,0,1,0,0
1778075391.8149862,0.5239193439483643,0.006432533264160156,1131,-0.04685716703534126,1.400301456451416,2.7553558349609375,3,1.5818684802179357,1.3336919103703377,2.92763555632724,2,1132,0,0.9531428329646587,1.400301456451416,2.7553558349609375,-62.87256472532769,6.6609546081078275,-17.227972136630232,65.52961723810313,-30,11,4,ok,130,248030.00000000003,75,69.5,-1,-2,0,1,0,0
1778075391.877058,0.5859911441802979,-0.011472463607788086,1135,-0.0226580873131752,1.4257501363754272,2.746824264526367,3,1.6150764034596152,1.3243833848640447,2.914919993256991,2,1136,0,0.9773419126868248,1.4257501363754272,2.746824264526367,-63.77344907727904,10.136675151138252,-16.809572873062393,66.72605735772797,-30,9,20,ok,130,248031.0,75,69.5,-1,-2,0,1,0,0
1778075391.948665,0.6575980186462402,5.602836608886719e-05,1138,-0.04612792655825615,1.45231032371521,2.7361481189727783,3,1.6063080256769553,1.2461691951324911,2.9552590309027993,2,1139,0,0.9538720734417439,1.45231032371521,2.7361481189727783,-65.24359522352114,20.61411285827188,-21.911091193002097,71.84541936611056,-30,30,30,ok,130,248017.99999999997,74,69.5,-1,-2,0,1,0,0
1778075392.0189857,0.7279188632965088,-0.009693384170532227,1142,-0.02127167209982872,1.427282691001892,2.7462806701660156,3,1.5593740327452927,1.332386446515819,2.9214385192944996,2,1143,0,0.9787283279001713,1.427282691001892,2.7462806701660156,-58.064570484512146,9.489624448607303,-17.515784912848396,61.38688816709682,-12,-4,-30,ok,130,248017.99999999997,74,69.5,-1,-2,0,1,0,0
1778075392.087215,0.7961480617523193,-0.0016837120056152344,1145,-0.019303979352116585,1.4727603197097778,2.7189972400665283,3,1.5559259514107335,1.3299701810864366,2.911231786752985,2,1146,0,0.9806960206478834,1.4727603197097778,2.7189972400665283,-57.52299307628501,14.279013862334121,-19.223454668645658,62.308315486237774,-30,19,29,ok,130,248025.0,74,69.5,0,-2,0,1,-1,0
1778075392.1516402,0.8605732917785645,0.002812623977661133,1148,-0.02402300387620926,1.4737701416015625,2.719088554382324,3,1.5578580150829797,1.3997402245460522,2.872849062428487,2,1149,0,0.9759769961237907,1.4737701416015625,2.719088554382324,-58.1881018959189,7.402991705551032,-15.37605080461626,60.63895139914969,-30,-4,-20,ok,130,248025.0,74,69.5,0,-2,0,1,-1,0
1778075392.2147863,0.9237194061279297,0.005820035934448242,1151,-0.04837601259350777,1.4555572271347046,2.735705614089966,3,1.4919180482596255,1.3715164268661648,2.8916879073555917,2,1152,0,0.9516239874064922,1.4555572271347046,2.735705614089966,-54.029406085313326,8.404080026853977,-15.598229326562585,56.860443553963734,-19,11,11,ok,130,248025.0,74,70.0,0,-1,0,1,-2,0
1778075392.2725887,0.9815218448638916,0.0037975311279296875,1154,-0.04837601259350777,1.4555572271347046,2.735705614089966,3,1.4796002311443828,1.3321452658361843,2.909732879659192,2,1155,0,0.9516239874064922,1.4555572271347046,2.735705614089966,-52.797624373789056,12.341196129852028,-17.40272655692263,56.945141610555496,-30,18,24,ok,130,248031.0,74,70.0,0,0,0,1,-3,0
1778075392.339614,1.0485470294952393,-0.009140491485595703,1158,-0.02141025848686695,1.4773234128952026,2.7186436653137207,3,1.4464718820481488,1.415908256268195,2.8774263894615095,2,1159,0,0.978589741513133,1.4773234128952026,2.7186436653137207,-46.78821405350158,6.141515662700758,-15.878272414778882,49.789303307331075,-11,5,-17,ok,130,248033.0,74,70.0,0,0,0,1,-3,0
1778075392.4092011,1.1181342601776123,0.0004417896270751953,1161,-0.02141025848686695,1.4773234128952026,2.7186436653137207,3,1.4145162679529804,1.3376062620626055,2.9147445767555498,2,1162,0,0.978589741513133,1.4773234128952026,2.7186436653137207,-43.59265264398473,13.971715083259717,-19.610091144182906,49.80044037546311,-20,27,30,ok,130,248033.0,74,70.0,0,0,0,1,-3,0
1778075392.4801846,1.189117670059204,-0.00854039192199707,1165,-0.05046774819493294,1.4602868556976318,2.7353029251098633,3,1.4171069238704348,1.3692133926926817,2.892252950257775,2,1166,0,0.9495322518050671,1.4602868556976318,2.7353029251098633,-46.757467206536774,9.107346300495012,-15.69500251479119,50.15513533175645,-30,-2,-9,ok,130,248035.0,74,70.0,0,0,0,0,-3,0
1778075392.5478766,1.2568097114562988,-0.0009071826934814453,1168,-0.051854025572538376,1.460446834564209,2.735095262527466,3,1.3922320696120276,1.3273787028479727,2.912016142828308,2,1169,0,0.9481459744274616,1.460446834564209,2.735095262527466,-44.4086095184566,13.306813171623633,-17.692088030084197,49.62061925260001,-23,20,27,ok,140,248030.00000000003,74,70.0,-1,0,0,0,-3,0
1778075392.6114528,1.3203859329223633,0.002298116683959961,1171,-0.05284234508872032,1.4635694026947021,2.7349166870117188,3,1.3368138578949411,1.3348949233935175,2.9151064799423856,2,1172,0,0.9471576549112797,1.4635694026947021,2.7349166870117188,-38.96562029836615,12.86744793011847,-18.018979293066685,44.81712168618952,-9,14,9,ok,140,248030.00000000003,74,70.0,-1,0,0,0,-3,0
1778075392.6809962,1.3899292945861816,-0.008509397506713867,1175,-0.027794381603598595,1.5301029682159424,2.6995553970336914,3,1.2837703382216914,1.3503144541138092,2.9216704564934095,2,1176,0,0.9722056183964014,1.5301029682159424,2.6995553970336914,-31.156471982529,17.978851410213316,-22.21150594597181,42.27665834496129,4,30,30,ok,140,248027.0,74,70.0,-1,0,0,1,-3,0
1778075392.7465236,1.4554567337036133,-0.0023262500762939453,1178,-0.03297401964664459,1.4452491998672485,2.753871202468872,3,1.2483270596902543,1.302581632121915,2.9440558192650763,2,1179,0,0.9670259803533554,1.4452491998672485,2.753871202468872,-28.130107933689885,14.266756774533352,-19.018461679620422,36.83130741480577,-11,1,-2,ok,140,248027.0,74,70.0,-1,0,0,1,-3,0
1778075392.8090568,1.5179898738861084,-0.00022268295288085938,1181,-0.03262261673808098,1.4904156923294067,2.7262983322143555,3,1.238969779051571,1.3883394846931085,2.8989841892924004,2,1182,0,0.967377383261919,1.4904156923294067,2.7262983322143555,-27.1592395789652,10.207620763629821,-17.268585707804498,33.764239492538636,-19,6,-6,ok,140,248023.0,74,70.0,0,0,0,1,-3,0
1778075392.8763485,1.5852816104888916,0.0072629451751708984,1184,-0.08596422523260117,1.449188232421875,2.7499101161956787,3,1.2239755338935407,1.3771483754193583,2.8968036150061636,2,1185,0,0.9140357747673988,1.449188232421875,2.7499101161956787,-30.99397591261419,7.203985700251669,-14.689349881048486,35.04712474325103,-30,1,-4,ok,130,248028.00000000003,74,70.0,-1,0,0,1,-3,0
1778075392.9419558,1.6508889198303223,-0.00707697868347168,1188,-0.030993830412626266,1.489640474319458,2.7263545989990234,3,1.2124043646712839,1.3704529882892533,2.9044998082019244,2,1189,0,0.9690061695873737,1.489640474319458,2.7263545989990234,-24.339819508391013,11.918748603020468,-17.8145209202901,32.43209116881777,3,24,27,ok,130,248028.00000000003,74,70.0,-1,0,0,1,-3,0
1778075393.0107718,1.7197048664093018,0.0014443397521972656,1191,-0.05927862599492073,1.4718981981277466,2.742626905441284,3,1.1779479024726442,1.3258693414583376,2.927769499401039,2,1192,0,0.9407213740050793,1.4718981981277466,2.742626905441284,-23.722652846756496,14.602885666940901,-18.514259395975465,33.44826346570085,-19,16,22,ok,130,248029.0,74,70.0,-1,1,0,1,-2,0
1778075393.0763338,1.7852668762207031,0.007180452346801758,1194,-0.03632185235619545,1.4940906763076782,2.734395742416382,3,1.1257597153601713,1.3412232947064586,2.9245050121724834,2,1195,0,0.9636781476438046,1.4940906763076782,2.734395742416382,-16.208156771636673,15.28673816012196,-19.010926975610154,29.28829209739043,12,16,15,ok,130,248030.00000000003,74,70.0,0,0,0,1,-2,0
1778075393.1438391,1.8527722358703613,-0.005392551422119141,1198,-0.09047955274581909,1.4481481313705444,2.749279737472534,3,1.0981992002157361,1.3906224887386602,2.905023340403186,2,1199,0,0.9095204472541809,1.4481481313705444,2.749279737472534,-18.867875296155525,5.75256426318842,-15.574360293065181,25.132636398348534,-28,0,-28,ok,130,248030.00000000003,74,70.0,0,0,0,1,-2,0
1778075393.2139094,1.9228425025939941,0.00475311279296875,1201,-0.09191393107175827,1.4483016729354858,2.749091148376465,3,1.0955988107545958,1.3207150573872173,2.9347423464863596,2,1202,0,0.9080860689282417,1.4483016729354858,2.749091148376465,-18.751274182635402,12.758661554826855,-18.565119810989472,29.309681024183455,-18,24,30,ok,140,248023.0,74,70.0,0,0,0,1,-2,0
1778075393.2791114,1.9880445003509521,-0.010131120681762695,1205,-0.0644674152135849,1.4700983762741089,2.742448568344116,3,1.0419907768685763,1.3406391519224479,2.9372053103188103,2,1206,0,0.9355325847864151,1.4700983762741089,2.742448568344116,-10.645819208216123,12.945922435166102,-19.475674197469406,25.69498510910905,15,18,12,ok,140,248028.00000000003,74,70.0,-1,1,0,0,-2,0
1778075393.3481092,2.057042360305786,-0.0010099411010742188,1208,-0.09487282484769821,1.4478622674942017,2.7490768432617188,3,1.000321885697339,1.2970662892981064,2.9597701064630653,2,1209,0,0.9051271751523018,1.4478622674942017,2.7490768432617188,-9.519471054503725,15.079597819609525,-21.06932632013465,27.603099665490927,-8,21,21,ok,140,248028.00000000003,74,70.0,-1,1,0,0,-2,0
1778075393.4134696,2.1224026679992676,0.003993511199951172,1211,-0.09487282484769821,1.4478622674942017,2.7490768432617188,3,0.9465902268913724,1.3786119325886497,2.9200806160847064,2,1212,0,0.9051271751523018,1.4478622674942017,2.7490768432617188,-4.146305173907061,6.925033490555199,-17.100377282298762,18.90954358617466,11,-2,-24,ok,140,248037.0,74,70.0,-1,0,0,1,-2,0
1778075393.477172,2.1861050128936768,0.007719516754150391,1214,-0.07613237202167511,1.424825668334961,2.7691965103149414,3,0.9271508106962576,1.3662751949258491,2.92081554591373,2,1215,0,0.9238676279783249,1.424825668334961,2.7691965103149414,-0.3283182717932709,5.855047340911179,-15.161903559878853,16.256466153840798,6,5,2,ok,140,248040.0,74,70.0,-1,1,0,1,-2,0
1778075393.5470955,2.256028652191162,-0.0023415088653564453,1218,-0.040989700704813004,1.5294724702835083,2.698502540588379,3,0.9152308809717177,1.3600160001299653,2.930869214251073,2,1219,0,0.959010299295187,1.5294724702835083,2.698502540588379,4.377941832346933,16.945647015354304,-23.236667366269394,29.090617692772504,12,30,30,ok,140,248040.0,74,70.0,-1,1,0,1,-2,0
1778075393.6131861,2.3221192359924316,0.0038132667541503906,1221,-0.06942342221736908,1.4696816205978394,2.7416582107543945,3,0.8992657825283406,1.409124856410081,2.911935837999358,2,1222,0,0.9305765777826309,1.4696816205978394,2.7416582107543945,3.131079525429037,6.055676418775846,-17.027762724496355,18.341744172385198,-10,-9,-30,ok,140,248031.0,74,70.0,-1,1,0,1,-2,0
1778075393.6807098,2.3896429538726807,-0.00867462158203125,1225,-0.045368172228336334,1.486785650253296,2.7253642082214355,3,0.8812216358909002,1.3456373819309617,2.952347994909583,2,1226,0,0.9546318277716637,1.486785650253296,2.7253642082214355,7.341019188076348,14.114826832233419,-22.69837866881477,27.71886169049059,12,30,30,ok,140,248027.0,74,70.0,0,2,0,1,-2,0
1778075393.7481647,2.4570977687835693,-0.001298666000366211,1228,-0.07935778796672821,1.421905755996704,2.7689316272735596,3,0.8584865765296958,1.3572156567797855,2.89009764587974,0,1229,0,0.9206422120332718,1.421905755996704,2.7689316272735596,6.215563550357595,6.4690099216918595,-12.116601860618026,15.07625153226802,-7,-28,-21,ok,140,248029.0,74,70.0,0,2,0,1,-1,0
1778075393.8127866,2.5217196941375732,0.002633810043334961,1231,-0.09969931840896606,1.4429489374160767,2.748197555541992,3,0.8484051394171307,1.359734811966258,2.888532858918674,0,1232,0,0.9003006815910339,1.4429489374160767,2.748197555541992,5.189554217390324,8.321412544981865,-14.033530337668187,17.120670356538866,-8,19,15,ok,140,248029.0,74,70.0,0,2,0,1,-1,0
1778075393.881252,2.5901851654052734,-0.009967565536499023,1235,-0.0795990452170372,1.4187997579574585,2.768916130065918,3,0.771112665692956,1.3741163437307673,2.9132462115637066,0,1236,0,0.9204009547829628,1.4187997579574585,2.768916130065918,14.92882890900068,4.46834142266912,-14.433008149778859,21.240238508908938,30,14,-7,ok,140,248027.0,74,70.0,-1,2,0,1,-1,0
1778075393.9476078,2.656540870666504,-0.001840829849243164,1238,-0.09999892115592957,1.4399672746658325,2.7481677532196045,3,0.7241059434901435,1.4126862266148672,2.895200216392755,0,1239,0,0.9000010788440704,1.4399672746658325,2.7481677532196045,17.589513535392697,2.7281048050965317,-14.703246317315033,23.08720412927888,13,13,-1,ok,140,248025.0,73,70.0,0,1,0,1,-1,0
1778075394.01323,2.722163200378418,0.003590822219848633,1241,-0.07631143182516098,1.4079720973968506,2.760164260864258,3,0.7855775569919596,1.327884119007297,2.8994656628591837,0,1242,0,0.923688568174839,1.4079720973968506,2.760164260864258,13.811101118287938,8.008797838955362,-13.930140199492591,21.188113717420666,-12,9,27,ok,140,248025.0,73,70.0,0,1,0,1,-1,0
1778075394.083278,2.7922110557556152,-0.006328105926513672,1245,-0.07204250246286392,1.4520395994186401,2.732928991317749,3,0.7398081514947135,1.3710534421853176,2.893004847952691,0,1246,0,0.9279574975371361,1.4520395994186401,2.732928991317749,18.81493460424226,8.098615723332259,-16.007585663494204,25.996771714392203,23,21,9,ok,140,248036.0,73,70.0,0,1,0,0,0,0
1778075394.1465566,2.855489730834961,-0.002983570098876953,1248,-0.07214848697185516,1.4506173133850098,2.7329227924346924,3,0.7299417993668417,1.3323945845456888,2.907711250161847,0,1249,0,0.9278515130281448,1.4506173133850098,2.7329227924346924,19.790971366130318,11.822272883932094,-17.47884577271548,28.93023908134048,8,20,25,ok,140,248036.0,73,70.0,0,1,0,0,0,0
1778075394.2137551,2.9226882457733154,0.004067897796630859,1251,-0.08086848258972168,1.4031158685684204,2.7597157955169678,3,0.6825334126752219,1.3426204960375028,2.924041152711627,0,1252,0,0.9191315174102783,1.4031158685684204,2.7597157955169678,23.659810473505637,6.0495372530917635,-16.432535719465903,29.434873242300107,21,10,-14,ok,140,248026.00000000003,73,70.0,0,1,0,0,0,0
1778075394.280289,2.9892220497131348,0.010727882385253906,1254,-0.07740746438503265,1.3962539434432983,2.7513856887817383,3,0.6771121150953469,1.338367622099648,2.91383003959315,0,1255,0,0.9225925356149673,1.3962539434432983,2.7513856887817383,24.54804205196205,5.788632134365024,-16.244435081141173,29.999938361225187,11,13,6,ok,140,248039.0,73,70.0,-1,1,0,0,0,0
1778075394.3455455,3.054478645324707,-0.004179716110229492,1258,-0.10245875269174576,1.422774314880371,2.739520311355591,3,0.632687338310473,1.3839784077507709,2.9041401871184678,0,1259,0,0.8975412473082542,1.422774314880371,2.739520311355591,26.485390899778128,3.879590712960024,-16.461987576287697,31.424897615998464,16,15,-1,ok,140,248030.00000000003,73,70.0,-1,1,0,0,0,0
1778075394.4127777,3.121710777282715,0.002958059310913086,1261,-0.10108605772256851,1.4169374704360962,2.7310855388641357,3,0.6661395575806004,1.3406097466278233,2.9142668358444523,0,1262,0,0.8989139422774315,1.4169374704360962,2.7310855388641357,23.27743846968311,7.632772380827291,-18.31812969803166,30.588432970018463,-4,22,23,ok,140,248030.00000000003,73,70.0,-1,1,0,0,0,0
1778075394.4740608,3.1829938888549805,0.003932952880859375,1264,-0.10814842581748962,1.3739049434661865,2.7663183212280273,3,0.5949691001379275,1.4605668949337516,2.864477001789205,0,1265,0,0.8918515741825104,1.3739049434661865,2.7663183212280273,29.68824740445829,-8.666195146756506,-9.815868056117782,32.44759217515383,30,-21,-30,ok,140,248025.0,73,70.0,-1,1,1,1,0,0
1778075394.5402966,3.249229669570923,-0.009864091873168945,1268,-0.10108605772256851,1.4169374704360962,2.7310855388641357,3,0.622871438525376,1.4489145214752948,2.8539363980387207,0,1269,0,0.8989139422774315,1.4169374704360962,2.7310855388641357,27.604250375205552,-3.1977051039198567,-12.285085917458494,30.383273238872867,2,21,21,ok,140,248025.0,73,70.0,-1,1,1,1,0,0
1778075394.6079586,3.316891670227051,-0.0024864673614501953,1271,-0.10270938277244568,1.4149010181427002,2.731287717819214,3,0.6110547309297667,1.379231910909186,2.884388826306951,0,1272,0,0.8972906172275543,1.4149010181427002,2.731287717819214,28.623588629778762,3.566910723351424,-15.310110848773695,32.65627309349457,15,25,30,ok,140,248021.0,73,70.0,0,2,1,1,0,0
1778075394.6743262,3.3832592964172363,0.0044765472412109375,1274,-0.10270938277244568,1.4149010181427002,2.731287717819214,3,0.6131745310626591,1.4482798201110336,2.843841663289299,0,1275,0,0.8972906172275543,1.4149010181427002,2.731287717819214,28.411608616489524,-3.3378801968333427,-11.255394547008502,30.741581852497813,10,-4,-26,ok,140,248027.0,73,70.0,0,1,1,1,0,0
1778075394.736903,3.445836067199707,0.006911039352416992,1277,-0.10247247666120529,1.4100621938705444,2.7226474285125732,3,0.6049710650784874,1.3816938306043869,2.8848191709220394,0,1278,0,0.8975275233387947,1.4100621938705444,2.7226474285125732,29.25564582603073,2.836836326615755,-16.21717424094662,33.56988521582072,15,30,29,ok,140,248027.0,73,70.0,0,1,1,1,0,0
1778075394.8023446,3.511277675628662,0.01150202751159668,1280,-0.1094365268945694,1.363089680671692,2.748960018157959,3,0.5983267958089503,1.3843874063427244,2.8843111168607627,0,1281,0,0.8905634731054306,1.363089680671692,2.748960018157959,29.223667729648028,-2.1297725671032497,-13.53510987028037,32.276274350690144,11,2,-17,ok,140,248016.0,73,70.0,0,2,1,1,0,0
1778075394.8650494,3.5739824771881104,-0.00493931770324707,1284,-0.10230071097612381,1.405824899673462,2.714207410812378,3,0.6002738536237998,1.4098274954146541,2.8515886068163483,0,1285,0,0.8976992890238762,1.405824899673462,2.714207410812378,29.742543540007638,-0.40025957411922164,-13.738119600397036,32.764539278169885,14,14,9,ok,140,248034.0,73,70.0,0,1,0,1,0,0
1778075394.9270573,3.6359903812408447,-0.002886056900024414,1287,-0.10217275470495224,1.4072179794311523,2.7142205238342285,3,0.5948806784030626,1.3810236268792575,2.8760707858148415,0,1288,0,0.8978272452950478,1.4072179794311523,2.7142205238342285,30.29465668919852,2.619435255189484,-16.1850261980613,34.446810273296144,15,24,17,ok,140,248034.0,73,70.0,0,1,0,1,0,0
1778075394.9912157,3.700148820877075,0.001215219497680664,1290,-0.11040087789297104,1.356091022491455,2.73215389251709,3,0.5905754551196689,1.3439608269035483,2.8908279358499676,0,1291,0,0.889599122107029,1.356091022491455,2.73215389251709,29.902366698736003,1.2130195587906734,-15.867404333287771,33.873255983322956,11,13,-1,ok,140,248017.0,73,70.0,0,1,0,1,0,0
1778075395.0526297,3.7615628242492676,0.002516508102416992,1293,-0.07884476333856583,1.3771451711654663,2.7175452709198,3,0.5939403271957455,1.3755282270213642,2.8667844096281687,0,1294,0,0.9211552366614342,1.3771451711654663,2.7175452709198,32.72149094656886,0.16169441441020727,-14.923913870836891,35.96450083171178,26,10,0,ok,140,248017.0,73,70.0,0,1,0,1,0,0
1778075395.112378,3.8213109970092773,0.0022203922271728516,1296,-0.07873886078596115,1.3786009550094604,2.7175517082214355,3,0.5719004330398942,1.4804430860676523,2.812768989053571,0,1297,0,0.9212611392140388,1.3786009550094604,2.7175517082214355,34.93607061741446,-10.184213105819184,-9.521728083213565,37.615296522297506,24,-9,-30,ok,140,248023.0,73,70.0,0,1,0,1,0,0
1778075395.180423,3.8893561363220215,0.010366201400756836,1299,-0.07873886078596115,1.3786009550094604,2.7175517082214355,3,0.5874440880482403,1.339354412245186,2.8830746435238717,0,1300,0,0.9212611392140388,1.3786009550094604,2.7175517082214355,33.38170511657985,3.924654276427453,-16.55229353024361,37.46624572586795,9,30,30,ok,140,248021.99999999997,73,70.0,-1,1,0,1,0,0
1778075395.2434509,3.9523839950561523,-0.006862640380859375,1303,-0.1304313689470291,1.3845417499542236,2.7029645442962646,3,0.5838990158994013,1.342414395806885,2.8824160560946326,0,1304,0,0.8695686310529709,1.3845417499542236,2.7029645442962646,28.566961515356958,4.212735414733859,-17.94515117983679,33.997748171925096,-5,21,7,ok,140,248021.99999999997,73,70.0,-1,1,0,1,0,0
1778075395.3095539,4.018486976623535,-0.0006012916564941406,1306,-0.1304313689470291,1.3845417499542236,2.7029645442962646,3,0.5891445732517689,1.374196791963581,2.8581026169567387,0,1307,0,0.8695686310529709,1.3845417499542236,2.7029645442962646,28.042405780120195,1.0344957990642722,-15.513807266047408,32.06438708884461,10,4,-9,ok,140,248017.0,73,70.0,0,1,0,1,1,0
1778075395.3681247,4.077057838439941,-0.0020232200622558594,1309,-0.12234898656606674,1.4301986694335938,2.678191661834717,3,0.5918055452935599,1.3706198655701356,2.8483132284992116,0,1310,0,0.8776510134339333,1.4301986694335938,2.678191661834717,28.58454681403734,5.957880386345815,-17.012156666449485,33.79328527541704,15,21,26,ok,140,248017.0,73,70.0,-1,1,0,1,1,0
1778075395.4339895,4.142922639846802,0.003488779067993164,1312,-0.09857054799795151,1.4059748649597168,2.6896166801452637,3,0.5979536273894422,1.4059059425059868,2.8333966318472146,0,1313,0,0.9014294520020485,1.4059748649597168,2.6896166801452637,30.347582461260625,0.006892245373002481,-14.37799517019509,33.5812827905697,21,3,-20,ok,140,248017.0,73,70.0,-1,1,0,1,1,0
1778075395.4959304,4.204863548278809,0.0038902759552001953,1315,-0.09375305473804474,1.4091440439224243,2.690190553665161,3,0.5631984918758144,1.4156632559464963,2.8344275714089178,0,1316,0,0.9062469452619553,1.4091440439224243,2.690190553665161,34.304845338614086,-0.6519212024072019,-14.423701774375663,37.219492041623944,30,14,0,ok,140,248013.0,73,70.0,-1,0,0,1,1,0
1778075395.5587134,4.267646551132202,0.008601903915405273,1318,-0.06761464476585388,1.4279868602752686,2.6750147342681885,3,0.5653750232043625,1.411839188420839,2.8253473118744346,0,1319,0,0.9323853552341461,1.4279868602752686,2.6750147342681885,36.70103320297836,1.6147671854429557,-15.033257760624608,39.693477425474875,27,17,13,ok,140,248013.0,73,70.0,-1,0,0,1,1,0
1778075395.6216156,4.3305487632751465,0.01111745834350586,1321,-0.09586013853549957,1.40697181224823,2.6822597980499268,3,0.6347572892412839,1.3597657018343297,2.826109849880104,0,1322,0,0.9041398614645004,1.40697181224823,2.6822597980499268,26.93825722232165,4.720611041390033,-14.385005183017707,30.90116898914189,-28,11,19,ok,140,248019.0,73,70.0,-1,0,0,1,1,0
1778075395.6808138,4.389746904373169,-0.009973287582397461,1325,-0.09424926340579987,1.4090358018875122,2.6820878982543945,3,0.6362509941095242,1.3599605437492057,2.825980817339182,0,1326,0,0.9057507365942001,1.4090358018875122,2.6820878982543945,26.94997424846759,4.907525813830649,-14.389291908478752,30.942473127303387,12,14,7,ok,140,248021.0,73,70.0,-1,0,0,1,1,0
1778075395.748003,4.4569361209869385,-0.002401590347290039,1328,-0.09268539398908615,1.410395860671997,2.6822566986083984,3,0.6032472014620621,1.4014311254144984,2.8149791115597074,0,1329,0,0.9073146060109138,1.410395860671997,2.6822566986083984,30.406740454885174,0.8964735257498635,-13.272241295130893,33.189244023769184,28,9,-11,ok,140,248021.0,73,70.0,-1,0,0,1,1,0
1778075395.8167322,4.525665283203125,0.00631403923034668,1331,-0.09268539398908615,1.410395860671997,2.6822566986083984,3,0.6050321575230813,1.3959714102795693,2.806073694845236,0,1332,0,0.9073146060109138,1.410395860671997,2.6822566986083984,30.22824484878326,1.442445039242779,-12.381699623683762,32.69761336703886,14,10,6,ok,140,248023.0,73,70.0,-1,1,0,1,1,0
1778075395.8807788,4.589711904525757,0.010233879089355469,1334,-0.09035972505807877,1.406044602394104,2.67423415184021,3,0.6125740838865219,1.4243908226305804,2.783068510835386,0,1335,0,0.9096402749419212,1.406044602394104,2.67423415184021,29.706619105539932,-1.8346220236476363,-10.883435899517613,31.690664771036154,12,6,-10,ok,140,248026.00000000003,73,70.0,-1,0,0,1,1,0
1778075395.945584,4.65451717376709,-0.004822492599487305,1338,-0.08333543688058853,1.4475703239440918,2.649198532104492,3,0.641908721958527,1.3835878004080864,2.7860998600190503,0,1339,0,0.9166645631194115,1.4475703239440918,2.649198532104492,27.47558411608845,6.398252353600542,-13.690132791455811,31.357058081846585,4,25,30,ok,140,248026.00000000003,73,70.0,-1,0,0,1,1,0
1778075396.0060601,4.714993238449097,-0.004836320877075195,1341,-0.0873558521270752,1.4072381258010864,2.6746063232421875,3,0.6432631027441976,1.3856797280545599,2.786261832621992,0,1342,0,0.9126441478729248,1.4072381258010864,2.6746063232421875,26.93810451287272,2.155839774652657,-11.16555093798044,29.24001791430819,11,3,-11,ok,140,248017.99999999997,72,70.0,-1,0,0,1,1,0
1778075396.072334,4.781267166137695,0.0017085075378417969,1344,-0.05748014524579048,1.424759864807129,2.6598727703094482,3,0.6471499982889782,1.382049081171758,2.776859615251384,0,1345,0,0.9425198547542095,1.424759864807129,2.6598727703094482,29.536985646523128,4.271078363537084,-11.698684494193579,32.055184453767744,25,15,14,ok,140,248019.99999999997,72,70.0,-1,0,0,1,1,0
1778075396.1388996,4.847832679748535,0.008270502090454102,1347,-0.05609526485204697,1.424629807472229,2.660024881362915,3,0.6165395578555735,1.422876663044013,2.7658374441794944,0,1348,0,0.943904735147953,1.424629807472229,2.660024881362915,32.73651772923796,0.1753144428215947,-10.581256281657936,34.40455366210553,29,8,-11,ok,140,248019.99999999997,72,70.0,-1,0,0,1,1,0
1778075396.2043934,4.9133265018463135,-0.0062351226806640625,1351,-0.07677298039197922,1.443995714187622,2.642014265060425,3,0.6499757519891393,1.4154645266736896,2.7538555330729926,0,1352,0,0.9232270196080208,1.443995714187622,2.642014265060425,27.325126761888153,2.8531187513932466,-11.184126801256777,29.662898231113527,-6,15,16,ok,140,248025.0,72,70.5,-1,0,0,1,1,0
1778075396.268968,4.977901220321655,-0.002093791961669922,1354,-0.049571748822927475,1.4247469902038574,2.660743474960327,3,0.6487081804468389,1.3848274159240237,2.768622194857111,0,1355,0,0.9504282511770725,1.4247469902038574,2.660743474960327,30.172007073023366,3.9919574279833725,-10.787871989678388,32.29030685805093,27,11,10,ok,140,248025.0,72,70.5,-1,0,0,1,1,0
1778075396.3301942,5.039127349853516,-0.0007205009460449219,1357,-0.04707571491599083,1.4201487302780151,2.652984380722046,3,0.6526782097729111,1.3828179049822629,2.759408693912632,0,1358,0,0.9529242850840092,1.4201487302780151,2.652984380722046,30.024607531109805,3.733082529575227,-10.642431319058598,32.07295288791905,15,12,5,ok,140,248025.0,72,70.5,-1,0,0,1,1,0
1778075396.3884199,5.097352981567383,-0.003919363021850586,1360,-0.07557200640439987,1.3994038105010986,2.6602301597595215,3,0.6585905187099214,1.416764430288962,2.744535803748055,0,1361,0,0.9244279935956001,1.3994038105010986,2.6602301597595215,26.583747488567877,-1.7360619787863296,-8.430564398853369,27.94251165899981,0,2,-19,ok,140,248023.0,72,70.5,0,1,0,1,1,0
1778075396.4513307,5.160263776779175,5.1021575927734375e-05,1363,-0.042523808777332306,1.417333960533142,2.64579439163208,3,0.687697827902099,1.3787422524119517,2.7457435724335713,0,1364,0,0.9574761912226677,1.417333960533142,2.64579439163208,26.97783633205687,3.8591708121190393,-9.994918080149118,29.02749110662599,16,19,28,ok,140,248023.0,72,70.5,0,1,0,1,1,0
1778075396.5141675,5.223100662231445,0.003255605697631836,1366,-0.042523808777332306,1.417333960533142,2.64579439163208,3,0.6911946210059933,1.4060096704432774,2.724400882122868,0,1367,0,0.9574761912226677,1.417333960533142,2.64579439163208,26.62815702166744,1.1324290089864686,-7.860649049078772,27.78724429128866,13,3,-5,ok,140,248019.0,72,70.5,0,1,0,1,1,0
1778075396.58187,5.2908031940460205,0.010694026947021484,1369,-0.044657882302999496,1.4182735681533813,2.645604133605957,3,0.6628457405716215,1.4154259725304437,2.727632864603808,0,1370,0,0.9553421176970005,1.4182735681533813,2.645604133605957,29.2496377125379,0.2847595622937682,-8.20287309978509,30.379425955969197,26,13,0,ok,140,248023.99999999997,72,70.5,0,0,0,1,1,0
1778075396.6455476,5.354480743408203,-0.0061511993408203125,1373,-0.06795574724674225,1.4007470607757568,2.6613190174102783,3,0.6689934275003074,1.4413756294552984,2.706058868563917,0,1374,0,0.9320442527532578,1.4007470607757568,2.6613190174102783,26.30508252529503,-4.062856867954157,-4.473985115363854,26.990381905496662,3,-4,-15,ok,140,248023.99999999997,72,70.5,0,0,0,1,1,0
1778075396.714928,5.423861026763916,0.0039250850677490234,1376,-0.036803487688302994,1.4596575498580933,2.6208407878875732,3,0.7189320562250978,1.461422281262712,2.6774510458108587,1,1377,0,0.963196512311697,1.4596575498580933,2.6208407878875732,24.426445608659918,-0.17647314046187468,-5.6610257923285445,25.074481068678868,6,14,17,ok,140,248021.99999999997,72,70.5,0,0,0,1,1,0
1778075396.7810547,5.489987850189209,-0.009971857070922852,1380,-0.06143062934279442,1.4436448812484741,2.635866165161133,3,0.7176380169942194,1.4544978550489036,2.670922105347126,1,1381,0,0.9385693706572056,1.4436448812484741,2.635866165161133,22.093135366298622,-1.0852973800429488,-3.505594018599334,22.395840911650595,3,0,0,ok,140,248021.99999999997,72,70.5,0,0,0,1,1,0
1778075396.8488503,5.557783365249634,-0.0021300315856933594,1383,-0.03546874597668648,1.459497332572937,2.62105393409729,3,0.719281394887544,1.4526246634569122,2.6624624276062865,1,1384,0,0.9645312540233135,1.459497332572937,2.62105393409729,24.52498591357696,0.6872669116024799,-4.140849350899645,24.881597682138054,23,11,10,ok,140,248025.0,72,70.5,0,0,0,1,1,0
1778075396.916452,5.625385046005249,0.005294084548950195,1386,-0.015084193088114262,1.442212462425232,2.638580083847046,3,0.6971837268151085,1.4838818223699954,2.6768114462468677,1,1387,0,0.9849158069118857,1.442212462425232,2.638580083847046,28.77320800967772,-4.166935994476351,-3.8231362399821833,29.323663233977264,30,8,-17,ok,140,248021.99999999997,72,70.5,0,0,0,1,1,0
1778075396.983185,5.692118167877197,-0.007852554321289062,1390,-0.0341515876352787,1.4986704587936401,2.5966637134552,3,0.7129171914210083,1.4234685263702445,2.6785279469555854,0,1391,0,0.9658484123647213,1.4986704587936401,2.5966637134552,25.293122094371302,7.520193242339568,-8.186423350038519,27.628117180672284,1,28,30,ok,140,248021.99999999997,72,70.5,0,0,0,1,1,0
1778075397.0476656,5.756598711013794,-0.0033483505249023438,1393,-0.032568108290433884,1.460594892501831,2.6215124130249023,3,0.7105180336214434,1.4257466916854682,2.678638341207493,0,1394,0,0.9674318917095661,1.460594892501831,2.6215124130249023,25.69138580881227,3.484820081636286,-5.7125928182590435,26.54854030800641,16,1,-9,ok,140,248030.00000000003,72,70.5,0,0,0,1,1,0
1778075397.115217,5.824150085449219,0.004189252853393555,1396,0.012596861459314823,1.4601210355758667,2.62286639213562,3,0.7136368071984726,1.4242814562059039,2.6787491033247313,0,1397,0,1.0125968614593148,1.4601210355758667,2.62286639213562,29.896005426084226,3.583957936996285,-5.5882711189111145,30.62424968924255,30,9,6,ok,140,248017.0,72,70.5,0,0,0,1,1,0
1778075397.179685,5.888618230819702,0.008627653121948242,1399,-0.029642311856150627,1.461683750152588,2.6219992637634277,3,0.748169616205841,1.4121571620934201,2.6658798297874373,0,1400,0,0.9703576881438494,1.461683750152588,2.6219992637634277,22.21880719380084,4.952658805916776,-4.388056602400958,23.183167667706574,-15,5,12,ok,140,248017.0,72,70.5,0,0,0,1,1,0
1778075397.2449043,5.9538373947143555,-0.006268501281738281,1403,-0.029642311856150627,1.461683750152588,2.6219992637634277,3,0.7763592252051402,1.3516144405569914,2.683366592975581,0,1404,0,0.9703576881438494,1.461683750152588,2.6219992637634277,19.399846293870915,11.006930959559647,-6.1367329212153265,23.133656354339184,1,17,30,ok,140,248023.99999999997,72,70.0,0,1,0,0,1,0
1778075397.3129463,6.021879434585571,0.0013518333435058594,1406,-0.02854415774345398,1.4600651264190674,2.6222376823425293,3,0.7222425524181034,1.415579453601922,2.6704634309402726,0,1407,0,0.971455842256546,1.4600651264190674,2.6222376823425293,24.92132898384426,4.448567281714544,-4.822574859774331,25.770518377771612,30,4,-18,ok,140,248021.99999999997,72,70.0,0,1,0,0,1,0
1778075397.3785427,6.087475776672363,0.007400989532470703,1409,-0.006670658942312002,1.4001574516296387,2.6652302742004395,3,0.7503566795374698,1.4069348419985235,2.658204132809567,0,1410,0,0.993329341057688,1.4001574516296387,2.6652302742004395,24.297266152021823,-0.6777390368884806,0.7026141390872542,24.316869438576035,12,-14,-16,ok,140,248021.99999999997,72,70.0,0,1,0,0,1,0
1778075397.4445758,6.153508901596069,0.013461828231811523,1412,-0.006670658942312002,1.4001574516296387,2.6652302742004395,3,0.7545830901189157,1.3839511049558681,2.678035209647811,0,1413,0,0.993329341057688,1.4001574516296387,2.6652302742004395,23.874625093877235,1.6206346673770522,-1.2804935447371601,23.963802782872552,13,16,14,ok,140,248031.0,72,70.0,0,1,0,1,1,0
1778075397.502999,6.211932182312012,-0.008514165878295898,1416,-0.008100270293653011,1.4008738994598389,2.6653523445129395,3,0.7865283428514964,1.342922787179628,2.6763552985262358,0,1417,0,0.991899729706347,1.4008738994598389,2.6653523445129395,20.537138685485058,5.795111228021077,-1.1002954013296318,21.36745257400072,0,7,24,ok,140,248031.0,72,70.0,0,1,0,1,1,0
1778075397.568471,6.277404069900513,-0.0028569698333740234,1419,-0.008100270293653011,1.4008738994598389,2.6653523445129395,3,0.7605700087700575,1.4293946232769326,2.63892305726969,0,1420,0,0.991899729706347,1.4008738994598389,2.6653523445129395,23.132972093628943,-2.8520723817093696,2.6429287243249444,23.457488932044427,24,-9,-30,ok,140,248021.0,72,70.0,0,0,0,1,1,0
1778075397.6314282,6.3403613567352295,8.916854858398438e-05,1422,-0.026230107992887497,1.4650850296020508,2.6309309005737305,3,0.795129981807403,1.3764181831979088,2.664403755085424,0,1423,0,0.9737698920071125,1.4650850296020508,2.6309309005737305,17.86399101997095,8.866684640414203,-3.3472854511693573,20.222378484386297,-8,30,30,ok,140,248029.0,72,70.0,0,0,0,0,1,0
1778075397.6948009,6.403733968734741,0.0034894943237304688,1425,-0.029381828382611275,1.4660080671310425,2.630744218826294,3,0.795641153923266,1.3986696639973208,2.6460264475839406,0,1426,0,0.9706181716173887,1.4660080671310425,2.630744218826294,17.497701769412277,6.733840313372164,-1.528222875764662,18.810891465725383,9,0,0,ok,140,248029.0,72,70.0,0,0,0,0,1,0
1778075397.755157,6.46409010887146,0.003665447235107422,1428,-0.027896370738744736,1.423682451248169,2.656059741973877,3,0.7989374018872368,1.4003864925378302,2.6460984078176297,0,1429,0,0.9721036292612553,1.423682451248169,2.656059741973877,17.316622737401843,2.3295958710338738,0.9961334156247226,17.500992021413094,10,-3,-11,ok,140,248028.00000000003,72,70.0,0,0,0,0,1,0
1778075397.8200238,6.528956890106201,0.008574724197387695,1431,-0.0027105172630399466,1.4454913139343262,2.6480019092559814,3,0.8050773936662182,1.4043797682571282,2.644845671098275,0,1432,0,0.99728948273696,1.4454913139343262,2.6480019092559814,19.221208907074182,4.111154567719799,0.31562381577066034,19.658486262226624,20,9,13,ok,140,248028.00000000003,72,70.0,0,0,0,0,1,0
1778075397.8816879,6.590620994567871,-0.012027502059936523,1435,-0.005645202472805977,1.4448729753494263,2.647895097732544,3,0.6617672926705269,1.4689685751935753,2.6083203513282847,3,1436,0,0.994354797527194,1.4448729753494263,2.647895097732544,33.25875048566671,-2.4095599844148996,3.9574746404259287,33.579935507918165,30,-8,-22,ok,140,248029.0,71,70.0,0,0,0,0,1,0
1778075397.9512777,6.660210847854614,-0.00035071372985839844,1438,-0.005890492349863052,1.4434045553207397,2.647890567779541,3,0.7340871511997558,1.439268835124183,2.622333795867544,3,1439,0,0.994109507650137,1.4434045553207397,2.647890567779541,26.00223564503812,0.4135720196556836,2.55567719119969,26.130801485242493,-10,10,14,ok,140,248029.0,71,70.0,0,0,0,0,1,0
1778075398.016653,6.725586175918579,0.0049664974212646484,1441,-0.0031997328624129295,1.4425525665283203,2.6479945182800293,3,0.6722867409912636,1.3896927971903015,2.6047648728507866,3,1442,0,0.9968002671375871,1.4425525665283203,2.6479945182800293,32.45135261463234,5.285976933801884,4.322964542924268,33.162024381862935,30,-2,26,ok,140,248026.00000000003,71,70.0,0,0,0,0,1,0
1778075398.0817962,6.790729284286499,-0.00979924201965332,1445,-0.02875424735248089,1.4192029237747192,2.65602445602417,3,0.6738208841901183,1.4051518277485457,2.602178786671125,3,1446,0,0.9712457526475191,1.4192029237747192,2.65602445602417,29.74248684574008,1.4051096026173493,5.384566935304491,30.258608987281015,9,0,-9,ok,140,248025.0,71,70.0,0,0,0,0,1,0
1778075398.1509323,6.859865427017212,-0.002087831497192383,1448,-0.02681415155529976,1.4585270881652832,2.6306190490722656,3,0.7422529642004048,1.347586544087205,2.613708608574872,3,1449,0,0.9731858484447002,1.4585270881652832,2.6306190490722656,23.09328842442955,11.094054407807818,1.691044049739343,25.675623525738388,-8,19,30,ok,140,248025.0,71,70.0,0,0,0,0,1,0
1778075398.2169104,6.9258434772491455,0.0052263736724853516,1451,-0.02681415155529976,1.4585270881652832,2.6306190490722656,3,1.0617086692483908,1.534591207792796,2.624201917984412,3,1452,0,0.9731858484447002,1.4585270881652832,2.6306190490722656,-8.852282080369056,-7.606411962751269,0.64171310878538,11.688977572546527,-30,10,-30,ok,140,248030.00000000003,71,70.0,0,0,0,0,1,0
1778075398.2818432,6.990776300430298,-0.009786128997802734,1455,-0.006628383416682482,1.4390400648117065,2.6478769779205322,3,0.6697463642491439,1.4456278005863912,2.5997033162585863,3,1456,0,0.9933716165833175,1.4390400648117065,2.6478769779205322,32.36252523341736,-0.6587735774684633,4.817366166194592,32.725739699648386,30,-11,30,ok,140,248032.00000000003,71,70.0,0,0,0,0,1,0
1778075398.3470607,7.0559937953948975,-0.005050182342529297,1458,-0.006628383416682482,1.4390400648117065,2.6478769779205322,3,0.666024078252135,1.460336778627596,2.588206217305418,3,1459,0,0.9933716165833175,1.4390400648117065,2.6478769779205322,32.73475383311825,-2.129671381588949,5.967076061511412,33.342249555665425,23,0,-3,ok,140,248032.00000000003,71,70.0,0,0,0,0,1,0
1778075398.4162323,7.1251654624938965,0.0044367313385009766,1461,-0.006628383416682482,1.4390400648117065,2.6478769779205322,3,0.7348963078917632,1.4205134221578268,2.602136550403918,3,1462,0,0.9933716165833175,1.4390400648117065,2.6478769779205322,25.847530869155435,1.852664265387971,4.574042751661445,26.31442729770525,-9,9,20,ok,140,248021.99999999997,71,70.0,0,0,0,0,1,0
1778075398.476584,7.185517072677612,0.004758596420288086,1464,-0.029360488057136536,1.366512417793274,2.673151969909668,3,0.6553828127112787,1.488983543149801,2.5866465735853787,3,1465,0,0.9706395119428635,1.366512417793274,2.673151969909668,31.52566992315847,-12.247112535652715,8.650539632428922,34.909761750792626,30,-14,-30,ok,150,248032.00000000003,71,70.0,0,0,0,0,1,0
1778075398.5401723,7.249105453491211,0.008499860763549805,1467,-0.029360488057136536,1.366512417793274,2.673151969909668,3,0.8240256976950071,1.3858047753862186,2.612828939078961,3,1468,0,0.9706395119428635,1.366512417793274,2.673151969909668,14.661381424785635,-1.9292357592944676,6.032303083070678,15.970808883209822,-30,13,30,ok,150,248032.00000000003,71,70.0,0,0,0,0,1,0
1778075398.604161,7.313094139099121,-0.00757145881652832,1471,-0.008256958797574043,1.3347711563110352,2.67503023147583,3,0.8208492535649198,1.4084390631308936,2.6111198403782057,3,1472,0,0.991743041202426,1.3347711563110352,2.67503023147583,17.089378763750616,-7.366790681985846,6.391039109762442,19.676428852452805,21,1,-21,ok,150,248031.0,71,70.0,0,0,0,0,1,0
1778075398.671566,7.3804991245269775,-0.0014166831970214844,1474,-0.008256958797574043,1.3347711563110352,2.67503023147583,3,0.6713954792432772,1.402135381559285,2.587224842555688,3,1475,0,0.991743041202426,1.3347711563110352,2.67503023147583,32.03475619591487,-6.736422524824981,8.780538892014222,33.892519177524264,30,-7,1,ok,150,248031.0,71,70.0,0,0,0,0,1,0
1778075398.7391937,7.448126792907715,0.007096290588378906,1477,-0.03038976900279522,1.359432339668274,2.6654317378997803,3,0.8213276320699232,1.4322768561535577,2.6149325216328703,3,1478,0,0.9696102309972048,1.359432339668274,2.6654317378997803,14.828259892728157,-7.284451648528378,5.049921626691001,17.275480766154086,-30,17,-3,ok,150,248015.0,71,70.0,0,0,0,0,1,0
1778075398.8044107,7.513343811035156,0.009717941284179688,1480,-0.03038976900279522,1.359432339668274,2.6654317378997803,3,0.8178367882957642,1.4542373319553574,2.613017373838671,3,1481,0,0.9696102309972048,1.359432339668274,2.6654317378997803,15.177344270144054,-9.48049922870835,5.241436406110944,18.64683083849155,13,2,-11,ok,150,248026.00000000003,71,70.0,0,0,0,0,1,0
1778075398.8681507,7.5770838260650635,-0.0041751861572265625,1484,-0.05526399612426758,1.3742247819900513,2.6391632556915283,3,0.8328852139765375,1.4465647396674999,2.6142507439423586,3,1485,0,0.9447360038757324,1.3742247819900513,2.6391632556915283,11.185078989919495,-7.233995767744861,2.4912511749169752,13.551495090764497,-5,15,7,ok,150,248026.00000000003,71,70.0,0,0,0,0,1,0
1778075398.935024,7.643957138061523,0.002940654754638672,1487,-0.05526399612426758,1.3742247819900513,2.6391632556915283,3,0.8382232420710685,1.4543116698876886,2.6137854263129614,3,1488,0,0.9447360038757324,1.3742247819900513,2.6391632556915283,10.651276180466397,-8.00868878976373,2.537782937856692,13.565733398660559,7,5,-4,ok,150,248021.0,71,70.0,0,0,0,0,1,0
1778075398.9989126,7.707845687866211,0.006448507308959961,1490,-0.0569879412651062,1.3285887241363525,2.664142608642578,3,0.7301834240235876,1.5085441723880855,2.601007489326472,3,1491,0,0.9430120587348938,1.3285887241363525,2.664142608642578,21.282863471130618,-17.995544825173294,6.313511931610627,28.577269708567282,30,-13,-30,ok,150,248019.99999999997,71,70.0,0,0,0,0,0,0
1778075399.0576966,7.766629695892334,0.005647420883178711,1493,0.013387047685682774,1.2948932647705078,2.66782808303833,3,0.831079766652973,1.47988470776941,2.618655031403256,3,1494,0,1.0133870476856828,1.2948932647705078,2.66782808303833,18.230728103270977,-18.49914429989021,4.917305163507413,26.434024988158946,0,9,-11,ok,150,248019.99999999997,71,70.0,0,0,0,0,0,0
1778075399.1152425,7.824175596237183,0.002989530563354492,1496,0.013387047685682774,1.2948932647705078,2.66782808303833,3,0.831079766652973,1.47988470776941,2.618655031403256,3,1497,0,1.0133870476856828,1.2948932647705078,2.66782808303833,18.230728103270977,-18.49914429989021,4.917305163507413,26.434024988158946,14,3,-9,ok,150,248027.0,71,70.0,0,0,0,0,0,0
1778075399.1851473,7.894080400466919,-0.0070574283599853516,1500,-0.11561789363622665,1.2010818719863892,2.719841480255127,3,1.040334235388713,1.5413899403573317,2.6258225721574684,3,1501,0,0.8843821063637733,1.2010818719863892,2.719841480255127,-15.595212902493971,-34.030806837094254,9.401890809765856,38.596658278359996,-30,-16,-30,ok,150,248030.00000000003,71,71.0,0,0,0,0,0,0
1778075399.2481763,7.957109451293945,-0.0039141178131103516,1503,-0.17898233234882355,1.3436040878295898,2.613755702972412,3,1.040334235388713,1.5413899403573317,2.6258225721574684,3,1504,0,0.8210176676511765,1.3436040878295898,2.613755702972412,-21.93165677375366,-19.778585252774185,-1.2066869185056284,29.557504914357775,-30,30,30,ok,150,248030.00000000003,71,71.0,0,0,0,0,0,0
1778075399.3185694,8.027502536773682,0.006318092346191406,1506,-0.17898233234882355,1.3436040878295898,2.613755702972412,3,0.8240391155034651,1.4800754997009775,2.625673103255856,3,1507,0,0.8210176676511765,1.3436040878295898,2.613755702972412,-0.3021447852288639,-13.647141187138768,-1.191740028344368,13.70240848712731,30,7,16,ok,150,248023.99999999997,71,71.0,0,0,0,0,0,0
1778075399.3838403,8.0927734375,-0.009197473526000977,1510,-0.12253735959529877,1.327173113822937,2.561612606048584,3,1.0552370858713132,1.5445836037063074,2.626443961018436,3,1511,0,0.8774626404047012,1.327173113822937,2.561612606048584,-17.777444546661194,-21.74104898833704,-6.483135496985204,28.82259168768753,-30,30,-30,ok,150,248023.99999999997,71,71.0,0,0,0,0,0,0
1778075399.4491756,8.158108711242676,-0.0038933753967285156,1513,-0.1855003833770752,1.3743116855621338,2.5173702239990234,3,1.0611126489439557,1.5460755360092528,2.634366130239,3,1514,0,0.8144996166229248,1.3743116855621338,2.5173702239990234,-24.661303232103094,-17.176385044711907,-11.699590623997658,32.25040311498564,-30,30,9,ok,150,248026.00000000003,71,71.0,0,0,0,0,0,0
1778075399.5104418,8.219374895095825,-0.002045154571533203,1516,-0.07260261476039886,1.4231433868408203,2.6308469772338867,3,0.6773221308773234,1.4232372894505347,2.609144111388633,3,1517,0,0.9273973852396011,1.4231433868408203,2.6308469772338867,25.007525436227773,-0.009390260971442466,2.1702865845253605,25.10152506282339,30,-30,30,ok,150,248036.0,71,71.0,0,-1,0,0,0,0
1778075399.5773542,8.286287307739258,0.004891157150268555,1519,-0.07260261476039886,1.4231433868408203,2.6308469772338867,3,0.67688291861426,1.4161312553799597,2.6104507273062607,3,1520,0,0.9273973852396011,1.4231433868408203,2.6308469772338867,25.051446662534115,0.701213146086066,2.039624992762601,25.144119588347834,18,5,5,ok,150,248036.0,71,71.0,0,-1,0,0,0,0
1778075399.6432662,8.35219931602478,-0.009101152420043945,1523,-0.07260261476039886,1.4231433868408203,2.6308469772338867,3,0.7272832543869882,1.4843213535253301,2.615191122303141,3,1524,0,0.9273973852396011,1.4231433868408203,2.6308469772338867,20.0114130852613,-6.117796668450981,1.5655854930745505,20.984164212129166,-3,7,-27,ok,150,248030.00000000003,71,71.0,0,0,0,0,0,0
1778075399.7107284,8.419661521911621,-0.0017609596252441406,1526,-0.034537505358457565,1.4110653400421143,2.6551449298858643,3,0.6126075591753137,1.4428000508893308,2.5962474332808676,3,1527,0,0.9654624946415424,1.4110653400421143,2.6551449298858643,35.285493546622874,-3.1734710847216574,5.889749660499666,35.91414936508569,30,-13,11,ok,150,248023.99999999997,71,71.0,0,0,0,0,0,0
1778075399.7766824,8.485615491867065,0.003722667694091797,1529,-0.0073442840948700905,1.4342550039291382,2.647505521774292,3,0.8596717308592006,1.2193180474652,2.627965430515067,3,1530,0,0.9926557159051299,1.4342550039291382,2.647505521774292,13.298398504592935,21.493695646393828,1.9540091259225179,25.35043405922189,-30,20,30,ok,150,248023.99999999997,71,71.0,0,0,0,0,0,0
1778075399.8440986,8.55303168296814,-0.008346319198608398,1533,-0.005769155919551849,1.4355049133300781,2.6477386951446533,3,0.9223277322898245,1.5195055596345963,2.6403060359256654,3,1534,0,0.9942308440804482,1.4355049133300781,2.6477386951446533,7.19031117906237,-8.40006463045182,0.7432659218987947,11.082152538120607,-14,10,-30,ok,150,248017.99999999997,71,71.0,0,0,0,0,0,0
1778075399.9109712,8.619904279708862,-0.0014698505401611328,1536,-0.0029310956597328186,1.4820382595062256,2.6302690505981445,3,0.9781470210263894,1.4846081733483667,2.638801161266414,3,1537,0,0.9970689043402672,1.4820382595062256,2.6302690505981445,1.8921883313877785,-0.2569913842141114,-0.8532110668269421,2.0915043336212142,-15,13,30,ok,150,248021.99999999997,70,71.0,0,1,0,0,0,0
1778075399.9779932,8.686926364898682,0.005568981170654297,1539,-0.002590771298855543,1.4440070390701294,2.6555724143981934,3,0.9173353432171368,1.1728664811641303,2.623044472746678,3,1540,0,0.9974092287011445,1.4440070390701294,2.6555724143981934,8.007388548400762,27.114055790599913,3.25279416515154,28.458231896266295,30,-11,30,ok,150,248021.99999999997,70,71.0,0,1,0,0,0,0
1778075400.042808,8.751741170883179,-0.009851932525634766,1543,-0.030969560146331787,1.3823281526565552,2.6983346939086914,3,0.7158203403221373,1.385165402563129,2.6220869437410355,3,1544,0,0.9690304398536682,1.3823281526565552,2.6983346939086914,25.321009953153094,-0.28372499065738577,7.624775016765595,26.445627974663307,30,-14,-30,ok,150,248016.0,70,71.0,0,0,0,0,0,0
1778075400.1111534,8.820086479187012,-0.0013325214385986328,1546,-0.004420366603881121,1.4501399993896484,2.664095163345337,3,0.7704639492388469,1.4670130724518082,2.625531551494265,3,1547,0,0.9955796333961189,1.4501399993896484,2.664095163345337,22.5115684157272,-1.6873073062159794,3.8563611851071933,22.90173006721496,5,19,-4,ok,150,248023.0,70,71.0,0,0,0,0,0,0
1778075400.1698472,8.878780364990234,-0.002571582794189453,1549,-0.0014591400977224112,1.4077537059783936,2.6904048919677734,3,0.6356577938254573,1.429893630090289,2.6048674112679926,3,1550,0,0.9985408599022776,1.4077537059783936,2.6904048919677734,36.28830660768203,-2.213992411189536,8.553748069978084,37.34848812059998,30,-18,-1,ok,150,248023.0,70,71.0,0,0,0,0,0,0
1778075400.228425,8.937358140945435,-0.00424504280090332,1552,0.0010710111819207668,1.45497727394104,2.6721503734588623,3,0.579654367267536,1.3814610651697878,2.58271167214507,3,1553,0,1.0010710111819208,1.45497727394104,2.6721503734588623,42.14166439143847,7.35162087712522,8.943870131379228,43.70307792511409,30,0,30,ok,150,248021.99999999997,70,70.0,0,0,0,0,0,0
1778075400.2955124,9.004445552825928,0.003015279769897461,1555,0.025824278593063354,1.4740058183670044,2.6557204723358154,3,0.6166659363829743,1.4221136482191676,2.5960260123371093,3,1556,0,1.0258242785930634,1.4740058183670044,2.6557204723358154,40.91583422100891,5.189217014783676,5.969445999870615,41.67334578328185,24,14,-2,ok,150,248021.99999999997,70,70.0,0,0,0,0,0,0
1778075400.3574674,9.066400527954102,0.004667758941650391,1558,0.025824278593063354,1.4740058183670044,2.6557204723358154,3,0.7229052635282707,1.443702848263653,2.616916533261163,3,1559,0,1.0258242785930634,1.4740058183670044,2.6557204723358154,30.29190150647927,3.030297010335148,3.8803939074652405,30.68940295486669,-20,12,-3,ok,150,248023.99999999997,70,70.0,0,0,0,0,0,0
1778075400.4180624,9.12699556350708,0.005378007888793945,1561,0.003003388876095414,1.4577196836471558,2.672429084777832,3,0.7924044578357826,1.354471288202527,2.624293762331819,3,1562,0,1.0030033888760954,1.4577196836471558,2.672429084777832,21.05989310403128,10.324839544462883,4.813532244601282,23.943506465051126,-17,0,30,ok,150,248027.0,70,70.0,0,1,0,0,0,0
1778075400.4871736,9.196106672286987,-0.0055539608001708984,1565,-0.023066913709044456,1.440933108329773,2.689310073852539,3,0.8274497878240828,1.517096045850419,2.584809796932232,1,1566,0,0.9769330862909555,1.440933108329773,2.689310073852539,14.948329846687269,-7.616293752064607,10.450027692030694,19.765211217877436,-9,-21,-30,ok,150,248027.0,70,70.0,0,1,0,0,0,0
1778075400.5501323,9.259065389633179,-0.003307819366455078,1568,0.003077825764194131,1.4223841428756714,2.7070133686065674,3,0.7801302611371795,1.5297192860822573,2.6047534297750325,1,1569,0,1.0030778257641941,1.4223841428756714,2.7070133686065674,22.29475646270146,-10.733514320658589,10.225993883153484,26.773782816427786,30,0,-16,ok,150,248019.99999999997,70,70.0,0,2,0,0,0,0
1778075400.6155143,9.324447393417358,0.002671480178833008,1571,0.026926733553409576,1.5279817581176758,2.6455307006835938,3,0.8065110313371281,1.5554041197801878,2.5839823627182876,1,1572,0,1.0269267335534096,1.5279817581176758,2.6455307006835938,22.04157022162815,-2.7422361662511996,6.154833796530612,23.048484897914143,17,17,30,ok,150,248017.0,70,70.0,0,1,0,0,0,0
1778075400.6853726,9.39430570602417,-0.007420539855957031,1575,0.0053966655395925045,1.5118995904922485,2.6629960536956787,3,0.8484173193812331,1.4984536070444772,2.565515164900928,1,1576,0,1.0053966655395925,1.5118995904922485,2.6629960536956787,15.69793461583594,1.344598344777137,9.74808887947507,18.52723219247773,-8,-12,18,ok,150,248017.0,70,70.0,0,1,0,0,0,0
1778075400.7512617,9.460194826126099,-0.0017061233520507812,1578,0.004110854119062424,1.4337514638900757,2.723722219467163,3,0.811246568016983,1.5599084374973586,2.578572843961766,1,1579,0,1.0041108541190624,1.4337514638900757,2.723722219467163,19.28642861020794,-12.615697360728294,14.514937550539697,27.236107661158222,30,-20,-30,ok,150,248025.0,70,70.0,0,0,0,0,0,0
1778075400.8174572,9.526390314102173,0.0046596527099609375,1581,0.24314458668231964,1.5944064855575562,2.649514675140381,3,0.8060692681293392,1.5090262148783362,2.584176849922992,1,1582,0,1.2431445866823196,1.5944064855575562,2.649514675140381,43.70753185529804,8.538027067921995,6.533782521738907,45.01040503190171,30,30,30,ok,150,248025.0,70,70.0,0,0,0,0,0,0
1778075400.8791106,9.588043689727783,0.006018877029418945,1584,0.0056153214536607265,1.5174565315246582,2.670952081680298,3,0.7847498212711705,1.5427101259376579,2.5867140690108017,1,1585,0,1.0056153214536607,1.5174565315246582,2.670952081680298,22.086550018249017,-2.525359441299968,8.423801266949615,23.77295858326095,-30,-6,-30,ok,150,248027.0,70,70.0,0,0,0,0,0,0
1778075400.9462807,9.655213832855225,-0.007245779037475586,1588,-0.020045004785060883,1.499699592590332,2.6874630451202393,3,0.7829098189892948,1.5415397382081493,2.587272187862893,1,1589,0,0.9799549952149391,1.499699592590332,2.6874630451202393,19.70451762256443,-4.184014561781724,10.019085725734644,22.497912600300797,8,-6,-6,ok,150,248017.99999999997,70,70.0,0,0,0,0,0,0
1778075401.0100875,9.71902060508728,-0.002862691879272461,1591,0.004982094746083021,1.4810197353363037,2.705172538757324,3,0.8484671781196407,1.5044406386592972,2.552470493368783,1,1592,0,1.004982094746083,1.4810197353363037,2.705172538757324,15.651491662644235,-2.3420903322993514,15.270204538854104,21.99167399378484,-1,-24,8,ok,150,248017.99999999997,70,70.0,0,0,0,0,0,0
1778075401.0690353,9.777968406677246,-0.005431175231933594,1594,-0.016997797414660454,1.5002310276031494,2.6875686645507812,3,0.8303717935802998,1.53471674960491,2.564237288950988,1,1595,0,0.9830022025853395,1.5002310276031494,2.6875686645507812,15.263040900503977,-3.4485722001760477,12.333137559979335,19.92383873212332,13,9,-4,ok,150,248023.99999999997,70,70.0,0,1,0,0,0,0
1778075401.135839,9.844772100448608,0.002593994140625,1597,-0.016997797414660454,1.5002310276031494,2.6875686645507812,3,0.8108474132336541,1.5613933284472337,2.5669809337337246,1,1598,0,0.9830022025853395,1.5002310276031494,2.6875686645507812,17.215478935168548,-6.116230084408425,12.058773081705665,21.89052291857652,23,0,-11,ok,150,248021.0,70,70.0,0,1,0,0,0,0
1778075401.2009773,9.909910440444946,0.0077631473541259766,1600,-0.016997797414660454,1.5002310276031494,2.6875686645507812,3,0.7630123418597689,1.5739950810909644,2.588613020959355,1,1601,0,0.9830022025853395,1.5002310276031494,2.6875686645507812,21.99898607255707,-7.376405348781501,9.895564359142606,25.224768345339182,30,7,-7,ok,150,248021.0,70,70.0,0,1,0,0,0,0
1778075401.2684157,9.977348804473877,-0.004940509796142578,1604,-0.016997797414660454,1.5002310276031494,2.6875686645507812,3,0.761726392449054,1.5728513370318102,2.5899560497279537,1,1605,0,0.9830022025853395,1.5002310276031494,2.6875686645507812,22.12758101362855,-7.262030942866082,9.761261482282757,25.251715994271283,19,0,-2,ok,150,248017.99999999997,70,71.0,0,0,0,0,0,0
1778075401.330785,10.03971815109253,-0.0023927688598632812,1607,-0.016997797414660454,1.5002310276031494,2.6875686645507812,3,0.7793474247618485,1.5375067420207635,2.581103625317787,1,1608,0,0.9830022025853395,1.5002310276031494,2.6875686645507812,20.365477782349107,-3.7275714417614125,10.646503923299422,23.28079723604027,11,-4,14,ok,150,248017.99999999997,70,71.0,0,0,0,0,0,0
1778075401.3907833,10.099716424942017,-0.00240325927734375,1610,0.2642953097820282,1.683925747871399,2.6594114303588867,3,0.8021330271004685,1.5111348877887734,2.5771348673081778,1,1611,0,1.2642953097820282,1.683925747871399,2.6594114303588867,46.216228268155966,17.279086008262556,8.227656305070896,50.02200412707998,30,10,30,ok,150,248021.99999999997,70,71.0,1,0,0,0,0,0
1778075401.4506872,10.15962028503418,-0.0025207996368408203,1613,0.34035900235176086,1.6845651865005493,2.649648666381836,3,0.8268833756315798,1.5282949375106931,2.5687676552632546,1,1614,0,1.3403590023517609,1.6845651865005493,2.649648666381836,51.34756267201811,15.62702489898562,8.088101111858137,54.27884927986209,30,1,6,ok,150,248010.0,70,71.0,0,1,0,0,0,0
1778075401.5161033,10.225036382675171,0.0026760101318359375,1616,0.34035900235176086,1.6845651865005493,2.649648666381836,3,0.7791259611672599,1.536799284363882,2.5919246595631926,1,1617,0,1.3403590023517609,1.6845651865005493,2.649648666381836,56.1233041184501,14.77659021366673,5.772400681864331,58.32232414047521,30,10,10,ok,150,248010.0,70,71.0,0,1,0,0,0,0
1778075401.5831335,10.29206657409668,0.009633779525756836,1619,0.34035900235176086,1.6845651865005493,2.649648666381836,3,0.726193071679051,1.5470551447648055,2.615556512913611,1,1620,0,1.3403590023517609,1.6845651865005493,2.649648666381836,61.41659306727099,13.751004173574376,3.409215346822503,63.02944366764971,30,12,8,ok,150,248016.0,70,71.0,0,2,0,0,0,0
1778075401.6474383,10.356371402740479,-0.005933046340942383,1623,0.18472066521644592,1.579638957977295,2.695930242538452,3,0.8014905551167509,1.5039989870348085,2.589342383243046,1,1624,0,1.184720665216446,1.579638957977295,2.695930242538452,38.3230110099695,7.563997094248642,10.658785929540615,40.490454954270625,-30,-27,-14,ok,150,248023.0,70,71.0,0,2,0,0,0,0
