timestamp,phase,command,axis,repeat,t_send,t_since_cmd,marker_id,pos_x,pos_y,pos_z,marker_dist,tello_height_cm,tello_baro_cm,tello_battery,tello_temp_c,tello_pitch,tello_roll,tello_yaw,tello_vgx,tello_vgy,tello_vgz,tello_agx,tello_agy,tello_agz
1776457795.1423512,init_hover,none,-,0,,,,,,,,0,252907.00000000003,88,60.0,0,0,0,0,0,0,-12.0,0.0,-999.0
1776457795.4444458,init_hover,none,-,0,,,,,,,,0,252910.0,88,60.0,0,0,0,0,0,0,-6.0,-14.0,-1001.0
1776457795.497209,init_hover,none,-,0,,,,,,,,0,252910.0,88,60.0,0,0,0,0,0,0,-6.0,-14.0,-1001.0
1776457795.546458,init_hover,none,-,0,,,,,,,,0,252910.0,88,60.0,0,0,0,0,0,0,-27.0,-2.0,-989.0
1776457795.595712,init_hover,none,-,0,,,,,,,,0,252910.0,88,60.0,0,0,0,0,0,0,-27.0,-2.0,-989.0
1776457795.6448698,init_hover,none,-,0,,,,,,,,0,252910.0,88,60.0,0,0,0,0,0,0,33.0,-29.0,-984.0
1776457795.695275,init_hover,none,-,0,,,,,,,,0,252910.0,88,60.0,0,0,0,0,0,0,33.0,-29.0,-984.0
1776457795.745301,init_hover,none,-,0,,,,,,,,0,252910.0,88,60.0,0,0,0,0,0,0,-12.0,-14.0,-985.0
1776457795.8029141,init_hover,none,-,0,,,,,,,,0,252910.0,88,60.0,0,0,0,0,0,0,-12.0,-14.0,-985.0
1776457795.851616,init_hover,none,-,0,,,,,,,,0,252910.0,88,60.0,0,0,0,0,0,0,-1.0,10.0,-1050.0
1776457795.902538,init_hover,none,-,0,,,,,,,,0,252910.0,88,60.0,0,0,0,0,0,0,-1.0,10.0,-1050.0
1776457795.9524312,init_hover,none,-,0,,,,,,,,0,252910.0,88,60.0,0,0,0,0,0,0,0.0,24.0,-1169.0
1776457796.002435,init_hover,none,-,0,,,,,,,,0,252910.0,88,60.0,0,0,0,0,0,0,0.0,24.0,-1169.0
1776457796.05139,init_hover,none,-,0,,,,,,,,0,252910.0,88,60.0,0,0,1,0,0,-2,-8.0,7.0,-1354.0
1776457796.1004071,init_hover,none,-,0,,,,,,,,0,252910.0,88,60.0,0,0,1,0,0,-2,-8.0,7.0,-1354.0
1776457796.1495569,init_hover,none,-,0,,,,,,,,0,252910.0,88,60.0,0,0,1,0,0,-5,-2.0,16.0,-1239.0
1776457796.1994529,init_hover,none,-,0,,,,,,,,0,252910.0,88,60.0,0,0,1,0,0,-5,-2.0,16.0,-1239.0
1776457796.249591,init_hover,none,-,0,,,,,,,,0,252938.0,88,60.0,0,-1,1,0,0,-6,23.0,6.0,-1095.0
1776457796.300132,init_hover,none,-,0,,,,,,,,0,252938.0,88,60.0,0,-1,1,0,0,-6,23.0,6.0,-1095.0
1776457796.3492858,init_hover,none,-,0,,,,,,,,10,252961.0,88,60.0,0,-1,1,0,0,-7,15.0,9.0,-1045.0
1776457796.398731,init_hover,none,-,0,,,,,,,,10,252961.0,88,60.0,0,-1,1,0,0,-7,15.0,9.0,-1045.0
1776457796.448513,init_hover,none,-,0,,,,,,,,10,252965.0,88,60.0,0,-1,1,0,0,-7,15.0,-2.0,-1011.0
1776457796.4976819,init_hover,none,-,0,,,,,,,,10,252965.0,88,60.0,0,-1,1,0,0,-7,15.0,-2.0,-1011.0
1776457796.54806,init_hover,none,-,0,,,0,0.6477667951598931,0.5837507394133324,2.7376197695370026,2.813259295184353,20,252977.0,88,60.0,0,-1,1,0,0,-7,11.0,6.0,-965.0
1776457796.602221,init_hover,none,-,0,,,2,-1.1099952947616483,0.9129845981101055,2.6550089934739565,2.8790161496571445,20,252977.0,88,60.0,0,-1,1,0,0,-7,11.0,6.0,-965.0
1776457796.652265,init_hover,none,-,0,,,0,0.6910785534755629,0.568101357512353,2.710860029285625,2.797743588830987,30,252979.0,88,60.0,0,-1,1,0,0,-7,-11.0,22.0,-947.0
1776457796.70296,init_hover,none,-,0,,,0,-0.6720669907546408,0.5416716124862719,2.7016083119703493,2.784558082022932,30,252979.0,88,60.0,0,-1,1,0,0,-7,-11.0,22.0,-947.0
1776457796.752529,init_hover,none,-,0,,,0,0.8055736066188204,0.6080196390930682,2.647111564479304,2.7669862278464823,40,252985.0,88,60.0,0,-1,1,0,0,-6,0.0,23.0,-911.0
1776457796.803427,init_hover,none,-,0,,,0,-0.67042915716509,0.565145126312795,2.7092318750292423,2.791169552297264,40,252985.0,88,60.0,0,-1,1,0,0,-6,0.0,23.0,-911.0
1776457796.8528562,init_hover,none,-,0,,,0,-0.5856306889097562,0.37444645389188347,2.7309456795923577,2.8021245530559535,40,252992.0,88,60.0,0,-1,1,0,0,-5,-12.0,13.0,-874.0
1776457796.9038432,init_hover,none,-,0,,,0,0.7407686807373373,0.6762558918181706,2.6826119134403448,2.7840545751709658,40,252992.0,88,60.0,0,-1,1,0,0,-5,-12.0,13.0,-874.0
1776457796.9549482,init_hover,none,-,0,,,0,0.5865611249154815,0.74771674432322,2.7290796228045755,2.7953085299162828,40,252992.0,88,60.0,0,-1,1,0,0,-5,-12.0,13.0,-874.0
1776457797.006877,init_hover,none,-,0,,,0,0.5359121753135332,0.9236465379911509,2.725138330279525,2.7961272968807442,50,252994.0,88,60.0,0,-2,1,0,0,-4,-12.0,11.0,-891.0
1776457797.05844,init_hover,none,-,0,,,0,0.5709423080651949,0.9296843875752565,2.7036539766521113,2.782878319297568,50,252994.0,88,60.5,0,-1,1,0,0,-3,3.0,12.0,-888.0
1776457797.109927,init_hover,none,-,0,,,3,1.9090198750144634,1.2501374823074878,2.719302756835457,2.87810586611392,50,252994.0,88,60.5,0,-1,1,0,0,-3,3.0,12.0,-888.0
1776457797.161682,init_hover,none,-,0,,,3,0.21255670497652213,0.723757732392304,2.7651756802743366,2.888351307592467,50,252994.0,88,60.5,0,-1,1,0,0,-3,3.0,12.0,-888.0
1776457797.213226,init_hover,none,-,0,,,3,0.21255670497652213,0.723757732392304,2.7651756802743366,2.888351307592467,50,252994.0,88,60.5,0,-1,1,0,0,-3,3.0,12.0,-888.0
1776457797.265447,init_hover,none,-,0,,,1,1.417443335563587,0.4785386018248381,2.7844258992760285,2.818162415158544,60,253004.0,88,60.5,0,-1,0,0,0,-1,10.0,10.0,-924.0
1776457797.316761,init_hover,none,-,0,,,1,1.2296721515887512,0.24085561310290854,2.775946631917001,2.8084895746835943,60,253004.0,88,60.5,0,-1,0,0,0,-1,10.0,10.0,-924.0
1776457797.36808,init_hover,none,-,0,,,1,1.2296721515887512,0.24085561310290854,2.775946631917001,2.8084895746835943,60,253004.0,88,60.5,0,-1,0,0,0,-1,10.0,10.0,-924.0
1776457797.419698,init_hover,none,-,0,,,1,1.626387878841884,0.409473201416962,2.7131359127351677,2.7910157141642227,60,253013.0,88,60.5,0,-1,0,0,0,-1,7.0,17.0,-930.0
1776457797.470165,init_hover,none,-,0,,,1,1.626387878841884,0.409473201416962,2.7131359127351677,2.7910157141642227,60,253013.0,88,60.5,0,-1,0,0,0,-1,7.0,17.0,-930.0
1776457797.522083,init_hover,none,-,0,,,1,0.6201669381984409,0.5205731586258343,2.7851806786130977,2.8120834252361613,60,253013.0,88,60.5,0,-1,0,0,0,-1,7.0,17.0,-930.0
1776457797.5726268,init_hover,none,-,0,,,1,0.6201669381984409,0.5205731586258343,2.7851806786130977,2.8120834252361613,60,253013.0,88,60.5,0,-1,0,0,0,-1,7.0,17.0,-930.0
1776457797.6238458,init_hover,none,-,0,,,1,0.6201669381984409,0.5205731586258343,2.7851806786130977,2.8120834252361613,60,253017.0,88,60.5,0,-1,0,0,0,0,7.0,5.0,-971.0
1776457797.676001,init_hover,none,-,0,,,1,1.507684812563755,0.5373982619819951,2.7391279601978726,2.7864825190279823,60,253017.0,88,60.5,0,-1,0,0,0,0,7.0,5.0,-971.0
1776457797.726939,init_hover,none,-,0,,,1,1.2761342528057467,0.3309386891349426,2.770726705099968,2.7974221327735176,60,253017.0,88,60.5,0,-1,0,0,0,0,7.0,5.0,-971.0
1776457797.7785778,init_hover,none,-,0,,,1,1.2761342528057467,0.3309386891349426,2.770726705099968,2.7974221327735176,70,253015.0,88,60.5,0,-1,0,0,0,0,-9.0,21.0,-962.0
1776457797.8316858,init_hover,none,-,0,,,1,1.5270166113697416,0.5355969727244556,2.733954885002548,2.7850320593866056,70,253008.0,88,60.5,0,-1,0,0,0,0,-6.0,27.0,-1010.0
1776457797.8817432,init_hover,none,-,0,,,1,1.4373543300287792,0.6958265018613179,2.76986598894132,2.80581879763248,70,253016.0,88,60.5,0,-1,0,0,0,0,-17.0,26.0,-1002.0
1776457797.933328,init_hover,none,-,0,,,1,1.6501281710845535,0.4236167454079649,2.698086328680699,2.780907680659665,70,253016.0,88,60.5,0,-1,0,0,0,0,-17.0,26.0,-1002.0
1776457797.983705,init_hover,none,-,0,,,1,0.6142146244763536,0.5140077977425836,2.7810239772401326,2.8089712310384254,70,253012.0,88,60.5,0,-1,0,0,0,0,-25.0,24.0,-1022.0
1776457798.0353322,init_hover,none,-,0,,,1,0.9471389103350951,0.17326244555431713,2.773663469361169,2.8067967999916705,70,253012.0,88,60.5,0,-1,0,0,0,0,-25.0,24.0,-1022.0
1776457798.08768,init_hover,none,-,0,,,1,1.1146934302490028,1.029153195774433,2.7693934088593055,2.804793557718474,70,253028.00000000003,88,61.0,0,-1,0,0,0,0,7.0,19.0,-990.0
1776457798.139356,init_hover,none,-,0,,,1,1.5214674482921544,0.5346414804159169,2.733959644903441,2.7840142556515586,70,253009.0,88,61.0,0,-1,0,0,0,0,5.0,16.0,-1012.0
1776457798.19112,init_hover,none,-,0,,,1,1.29907015146759,0.3529395699713941,2.7678753540789254,2.794926794623126,70,253009.0,88,61.0,0,-1,0,0,0,0,5.0,16.0,-1012.0
1776457798.2422478,init_hover,none,-,0,,,1,0.5427216147182108,0.8382028275884857,2.7493580915136877,2.7972869041428083,70,253013.0,88,61.0,0,-1,0,0,0,0,21.0,9.0,-1003.0
1776457798.294034,init_hover,none,-,0,,,1,0.593844726820988,0.5219483623755644,2.774622593228845,2.8052780074215344,70,253013.0,88,61.0,0,-1,0,0,0,0,21.0,9.0,-1003.0
1776457798.345387,init_hover,none,-,0,,,1,0.44923571592038347,0.6410283697531429,2.7524978882252973,2.80735983593608,70,253013.0,88,61.0,0,-1,0,0,0,0,21.0,9.0,-1003.0
1776457798.395221,init_hover,none,-,0,,,1,0.5811932706443417,0.5246036422981355,2.770088646643904,2.8025835933248713,70,253019.99999999997,88,61.0,0,-1,0,0,0,0,0.0,13.0,-1018.0
1776457798.446165,init_hover,none,-,0,,,1,1.5453741693068714,0.5401055068430513,2.7220933183209666,2.7768349552152607,70,253015.0,88,61.0,0,-1,0,0,0,0,-22.0,28.0,-1036.0
1776457798.4970229,init_hover,none,-,0,,,3,0.13422941041219216,0.8649100962322751,2.7073737033227263,2.845642346701111,70,253015.0,88,61.0,0,-1,0,0,0,0,-22.0,28.0,-1036.0
1776457798.547969,init_hover,none,-,0,,,1,1.4805381919675666,0.6850082322880059,2.752209901855358,2.795139119501366,70,253015.0,88,61.0,0,-1,0,0,0,0,-22.0,28.0,-1036.0
1776457798.599566,init_hover,none,-,0,,,1,0.5637465878113618,0.5252408285149431,2.7629965687658635,2.7982237245044033,70,253008.0,88,61.0,0,-1,0,0,0,0,10.0,18.0,-1002.0
1776457798.649812,init_hover,none,-,0,,,3,0.14428585441598152,0.8871732284249065,2.7390760415291395,2.871848558092085,70,253012.0,88,61.0,0,-1,0,0,0,0,-3.0,15.0,-975.0
1776457798.700806,init_hover,none,-,0,,,1,1.2719644197546376,0.5014080920287535,2.8053235008603195,2.8201994529481573,70,253012.0,88,61.0,0,-1,0,0,0,0,-3.0,15.0,-975.0
1776457798.751553,init_hover,none,-,0,,,1,0.5518859777392169,0.5272738329358544,2.7584519130797522,2.79555937677881,70,253014.0,88,61.0,0,-1,0,0,0,0,0.0,20.0,-980.0
1776457798.803322,init_hover,none,-,0,,,1,1.6113098481819381,0.5159317923483164,2.724869361325073,2.79386474803454,70,253014.0,88,61.0,0,-1,0,0,0,0,0.0,20.0,-980.0
1776457798.8541372,init_hover,none,-,0,,,1,0.5499348479954989,0.5325909556500147,2.75893946474698,2.796220590448358,70,253010.0,88,61.0,0,-1,0,0,0,0,1.0,11.0,-1006.0
1776457798.90548,init_hover,none,-,0,,,1,1.6167651099787417,0.5154462999824018,2.7224597446410126,2.792729057797151,70,253010.0,88,61.0,0,-1,0,0,0,0,1.0,11.0,-1006.0
1776457798.956199,init_hover,none,-,0,,,1,1.2936914546467544,0.5020946989507662,2.8010918110093668,2.8181475213710514,70,253010.0,88,61.0,0,-1,0,0,0,0,1.0,11.0,-1006.0
1776457799.0081348,init_hover,none,-,0,,,1,1.298298932203093,0.50833844696609,2.7994444506294918,2.8167842170493556,70,253011.0,88,61.0,0,-1,0,0,0,0,0.0,18.0,-996.0
1776457799.059802,init_hover,none,-,0,,,1,1.4709625593973326,0.6443009085639337,2.779059802137281,2.8190320478329047,70,253015.0,88,61.5,0,-1,1,0,0,0,-3.0,16.0,-986.0
1776457799.109482,init_hover,none,-,0,,,3,0.14737809122929268,0.8745013662106605,2.731495769452783,2.864224705734039,70,253015.0,88,61.5,0,-1,1,0,0,0,-3.0,16.0,-986.0
1776457799.161101,init_hover,none,-,0,,,1,0.40573753825256764,0.6411887560846906,2.7309203503304604,2.7951333325834327,70,253012.0,88,61.5,0,-1,1,0,0,0,2.0,8.0,-1008.0
1776457799.212037,init_hover,none,-,0,,,1,1.3042658902251996,0.5022904231349877,2.798930576381097,2.817115060619053,70,253012.0,88,61.5,0,-1,1,0,0,0,2.0,8.0,-1008.0
1776457799.263297,init_hover,none,-,0,,,1,1.299785377854003,0.496098344814337,2.8005553477054095,2.818470699206709,70,253012.0,88,61.5,0,0,1,0,0,0,-1.0,16.0,-1013.0
1776457799.314336,init_hover,none,-,0,,,1,1.299785377854003,0.496098344814337,2.8005553477054095,2.818470699206709,70,253012.0,88,61.5,0,0,1,0,0,0,-1.0,16.0,-1013.0
1776457799.365323,init_hover,none,-,0,,,1,0.30024457765397516,0.5608611890715588,2.7081565595908237,2.7973740273474985,70,253017.99999999997,88,61.5,0,0,1,0,0,0,13.0,0.0,-965.0
1776457799.416116,init_hover,none,-,0,,,3,0.1549474152451954,0.8760117390922401,2.7340903679548725,2.864391226768319,70,253017.99999999997,88,61.5,0,0,1,0,0,0,13.0,0.0,-965.0
1776457799.467555,init_hover,none,-,0,,,1,1.3058411412667792,0.4903475778426647,2.800004613710981,2.8187919920028004,70,253017.99999999997,88,61.5,0,0,1,0,0,0,13.0,0.0,-965.0
1776457799.517749,init_hover,none,-,0,,,1,1.3058411412667792,0.4903475778426647,2.800004613710981,2.8187919920028004,70,253021.99999999997,88,61.5,0,-1,1,0,0,0,20.0,1.0,-993.0
1776457799.56912,init_hover,none,-,0,,,1,1.483209397484846,0.717187045152669,2.775794393169345,2.819974935796355,70,253013.0,88,61.5,0,-1,1,0,0,0,12.0,8.0,-992.0
1776457799.619711,init_hover,none,-,0,,,1,1.4752795703187571,0.6345110986519389,2.7797134267588937,2.82026389204915,70,253013.0,88,61.5,0,-1,1,0,0,0,12.0,8.0,-992.0
1776457799.6696022,init_hover,none,-,0,,,1,0.28032845052352984,0.7548978666420839,2.692510898416854,2.7913321956208774,70,253019.0,88,61.5,0,-1,1,0,0,0,1.0,13.0,-998.0
1776457799.720594,init_hover,none,-,0,,,1,0.20190751463408507,0.6388461247568062,2.6798777226175154,2.79646298827426,70,253019.0,88,61.5,0,-1,1,0,0,0,1.0,13.0,-998.0
1776457799.7722461,init_hover,none,-,0,,,1,1.6057387907911207,0.5442821256030953,2.754541558969224,2.8209082162106944,70,253019.99999999997,88,61.5,0,-1,1,0,0,0,-3.0,6.0,-1000.0
1776457799.822569,init_hover,none,-,0,,,1,1.4752795703187571,0.6345110986519389,2.7797134267588937,2.82026389204915,70,253019.99999999997,88,61.5,0,-1,1,0,0,0,-3.0,6.0,-1000.0
1776457799.873517,init_hover,none,-,0,,,1,1.497023295854092,0.6342186358149768,2.773479556533936,2.8178701038497818,70,253017.99999999997,88,61.5,0,-1,0,0,0,0,-13.0,24.0,-986.0
1776457799.9233751,init_hover,none,-,0,,,1,1.376348288202944,0.6047783047905577,2.8134267130086235,2.8384909257738467,70,253017.99999999997,88,61.5,0,-1,0,0,0,0,-13.0,24.0,-986.0
1776457799.97364,init_hover,none,-,0,,,1,1.8214398416230697,0.5425398774874023,2.6653883108973617,2.789688141522846,70,253017.99999999997,88,61.5,0,-1,0,0,0,0,-13.0,24.0,-986.0
1776457800.024339,init_hover,none,-,0,,,1,0.2966622448212467,0.5615304050063138,2.7018591254768047,2.792168806057605,70,253021.0,87,61.5,0,-1,1,0,0,0,-1.0,6.0,-991.0
1776457800.074014,init_hover,none,-,0,,,1,1.5546566074453605,0.4030350767049746,2.7722276610404153,2.8340228188617367,70,253021.0,87,61.5,0,-1,1,0,0,0,-1.0,6.0,-991.0
1776457800.1256151,init_hover,none,-,0,,,1,1.6177368689129188,0.5480040666482157,2.747553012983741,2.8166203108433865,70,253017.0,87,61.0,0,-1,0,0,0,0,13.0,3.0,-1002.0
1776457800.177174,pre_hover,right,x,1,,,1,1.6177368689129188,0.5480040666482157,2.747553012983741,2.8166203108433865,70,253017.0,87,61.0,0,-1,0,0,0,0,13.0,3.0,-1002.0
1776457800.2287538,pre_hover,right,x,1,,,1,1.6177368689129188,0.5480040666482157,2.747553012983741,2.8166203108433865,70,253014.0,87,61.0,0,-1,0,0,0,0,-18.0,24.0,-1000.0
1776457800.280071,pre_hover,right,x,1,,,1,1.6207717012958804,0.5503653853994952,2.7453065585086334,2.8150540315039847,70,253014.0,87,61.0,0,-1,0,0,0,0,-18.0,24.0,-1000.0
1776457800.3303292,pre_hover,right,x,1,,,1,1.6207717012958804,0.5503653853994952,2.7453065585086334,2.8150540315039847,70,253019.0,87,61.0,0,-1,0,0,0,0,27.0,-2.0,-964.0
1776457800.3796349,pre_hover,right,x,1,,,1,0.4873131937813353,0.5283374977721459,2.792537733289781,2.8401144813798407,70,253019.0,87,61.0,0,-1,0,0,0,0,27.0,-2.0,-964.0
1776457800.431255,pre_hover,right,x,1,,,1,1.6713343535276135,0.4992004779909964,2.7247328347753395,2.8080276670229654,70,253017.0,87,61.0,0,-1,0,0,0,0,-21.0,25.0,-1010.0
1776457800.4825118,pre_hover,right,x,1,,,1,1.5297131708548357,0.37532700089961535,2.7471336806701316,2.806744993649062,70,253017.0,87,61.0,0,-1,0,0,0,0,-21.0,25.0,-1010.0
1776457800.534208,pre_hover,right,x,1,,,1,1.7280764205186658,0.44045537936679846,2.7103019774054484,2.810922725514906,70,253013.0,87,61.0,0,-1,0,0,0,0,-16.0,26.0,-1008.0
1776457800.585472,pre_hover,right,x,1,,,1,1.7514092658667928,0.45106439522702313,2.703503681451436,2.809934137096639,70,253013.0,87,61.0,0,-1,0,0,0,0,-16.0,26.0,-1008.0
1776457800.637512,pre_hover,right,x,1,,,3,0.2925601757042797,0.9030042342922942,2.7850376348319683,2.8751198081115206,70,253016.0,87,61.0,0,-1,0,0,0,0,8.0,0.0,-973.0
1776457800.689098,pre_hover,right,x,1,,,1,1.4168680679099097,0.4547609392527223,2.797828879386148,2.8324406099928807,70,253017.99999999997,87,61.0,0,-1,0,0,0,0,2.0,14.0,-1005.0
1776457800.739861,pre_hover,right,x,1,,,1,1.4168680679099097,0.4547609392527223,2.797828879386148,2.8324406099928807,70,253017.99999999997,87,61.0,0,-1,0,0,0,0,2.0,14.0,-1005.0
1776457800.791135,pre_hover,right,x,1,,,1,1.4028388537563563,0.45229190173665035,2.7992324965237967,2.831925033256205,70,253017.99999999997,87,61.0,0,-1,0,0,0,0,2.0,14.0,-1005.0
1776457800.8418188,pre_hover,right,x,1,,,1,1.5165920489984361,0.6404254245631446,2.7637349415736767,2.8118912474195668,70,253019.0,87,61.0,0,-1,0,0,0,0,-20.0,25.0,-1003.0
1776457800.892749,pre_hover,right,x,1,,,1,1.3934793940478725,0.6048018654159257,2.8069505588716526,2.834399501023389,70,253019.0,87,61.0,0,-1,0,0,0,0,-20.0,25.0,-1003.0
1776457800.943788,pre_hover,right,x,1,,,1,1.4966622178075804,0.7211253725636262,2.765201901306965,2.8120608580661752,70,253019.99999999997,87,61.0,0,-1,0,0,0,0,-4.0,22.0,-1001.0
1776457800.994956,pre_hover,right,x,1,,,1,1.7517307059239702,0.4601203600283996,2.675777800351794,2.782885589592756,70,253019.99999999997,87,61.0,0,-1,0,0,0,0,-4.0,22.0,-1001.0
1776457801.0453591,pre_hover,right,x,1,,,1,1.4966622178075804,0.7211253725636262,2.765201901306965,2.8120608580661752,70,253023.0,87,61.0,0,-1,0,0,0,0,4.0,12.0,-987.0
1776457801.096642,pre_hover,right,x,1,,,1,1.4982154481161767,0.6357045317746777,2.7701840752419677,2.8148558146120104,70,253023.0,87,61.0,0,-1,0,0,0,0,4.0,12.0,-987.0
1776457801.14836,pre_hover,right,x,1,,,1,1.339174906351243,0.5078831134725784,2.790582217675669,2.812627641812819,70,253016.0,87,61.5,0,-1,0,0,0,0,7.0,9.0,-978.0
1776457801.2001228,pre_hover,right,x,1,,,1,1.4937249680329305,0.6331037382550194,2.77269267031624,2.816502236031595,70,253026.00000000003,87,61.5,0,-1,0,0,0,0,8.0,12.0,-977.0
1776457801.2515972,pre_hover,right,x,1,,,3,0.29046648181718493,0.8909398708845108,2.78838186918886,2.879306404953931,70,253026.00000000003,87,61.5,0,-1,0,0,0,0,8.0,12.0,-977.0
1776457801.304019,pre_hover,right,x,1,,,1,1.7258718008559075,0.6019902621224598,2.695038832927713,2.7910801033667028,70,253021.0,87,61.5,0,-1,0,0,0,0,3.0,14.0,-992.0
1776457801.355652,pre_hover,right,x,1,,,3,0.13194798895083504,0.7585623287642167,2.7038012650427583,2.8499732847563815,70,253021.0,87,61.5,0,-1,0,0,0,0,3.0,14.0,-992.0
1776457801.406023,pre_hover,right,x,1,,,3,0.2951126874811124,0.8837011901970508,2.7922355294903434,2.8821816023040427,70,253015.0,87,61.5,0,-1,0,0,0,0,-16.0,21.0,-1004.0
1776457801.456558,pre_hover,right,x,1,,,1,1.7875544606986127,0.5460099829472413,2.6554666120073134,2.770317649294615,70,253015.0,87,61.5,0,-1,0,0,0,0,-16.0,21.0,-1004.0
1776457801.507413,pre_hover,right,x,1,,,1,1.7854218240534259,0.5442358771540193,2.6576990976860335,2.771887727332647,70,253004.0,87,61.5,0,0,0,0,0,0,-15.0,20.0,-1015.0
1776457801.558227,pre_hover,right,x,1,,,1,1.3237466916479703,0.47437048901092493,2.798284800337896,2.8197504354439706,70,253004.0,87,61.5,0,0,0,0,0,0,-15.0,20.0,-1015.0
1776457801.6088839,pre_hover,right,x,1,,,1,1.619694469221375,0.4970583809165361,2.7229126897625866,2.7944358515079943,70,253012.0,87,61.5,0,-1,0,0,0,0,-1.0,9.0,-993.0
1776457801.6599889,pre_hover,right,x,1,,,3,0.08422127203893182,0.9949903107142378,2.685224706937355,2.837094905412848,70,253012.0,87,61.5,0,-1,0,0,0,0,-1.0,9.0,-993.0
1776457801.710231,pre_hover,right,x,1,,,1,1.619694469221375,0.4970583809165361,2.7229126897625866,2.7944358515079943,70,253014.0,87,61.5,0,-1,0,0,0,0,-9.0,14.0,-1016.0
1776457801.761255,pre_hover,right,x,1,,,1,1.7190074954010008,0.6310590762488395,2.702567512140244,2.796749470784997,70,253019.99999999997,87,61.5,0,-1,0,0,0,0,11.0,3.0,-998.0
1776457801.811878,pre_hover,right,x,1,,,1,1.7190074954010008,0.6310590762488395,2.702567512140244,2.796749470784997,70,253019.99999999997,87,61.5,0,-1,0,0,0,0,11.0,3.0,-998.0
1776457801.863811,pre_hover,right,x,1,,,3,1.8942158551807453,1.0100768247192204,2.696430873916939,2.840856032231398,70,253019.99999999997,87,61.5,0,-1,0,0,0,0,-2.0,12.0,-994.0
1776457801.9151418,pre_hover,right,x,1,,,3,0.3471481807876885,0.891938660776541,2.784539500486974,2.8620889190687007,70,253019.99999999997,87,61.5,0,-1,0,0,0,0,-2.0,12.0,-994.0
1776457801.9669602,pre_hover,right,x,1,,,1,0.303716955410668,0.5822015822704387,2.7147531813061248,2.8026793782500325,70,253017.99999999997,86,61.5,0,-1,0,0,0,0,-15.0,20.0,-1006.0
1776457802.0182421,pre_hover,right,x,1,,,1,1.6896627396017583,0.5991522698060466,2.6915416732663875,2.7784945549651723,70,253017.99999999997,86,61.5,0,-1,0,0,0,0,-15.0,20.0,-1006.0
1776457802.0703192,pre_hover,right,x,1,,,1,1.632257085926677,0.4845185780196133,2.724221800999866,2.7990122190819493,70,253015.0,86,61.0,0,0,0,0,0,0,-27.0,25.0,-1013.0
1776457802.120512,pre_hover,right,x,1,,,1,1.5941007545981352,0.7299232635558087,2.7099599718798446,2.7773582430464514,70,253015.0,86,61.0,0,0,0,0,0,0,-27.0,25.0,-1013.0
1776457802.170418,pre_hover,right,x,1,,,1,1.449729551959267,0.5702462290334617,2.7431847557220177,2.779964848845733,70,253013.0,86,61.0,0,0,0,0,0,0,-14.0,25.0,-999.0
1776457802.2211041,pre_hover,right,x,1,,,1,1.3771337734271274,0.3549806848086188,2.757483709822036,2.7939185309901458,70,253013.0,86,61.0,0,0,0,0,0,0,-14.0,25.0,-999.0
1776457802.270869,pre_hover,right,x,1,,,1,1.0509334646518989,0.27907537246442166,2.7993653222721404,2.818161287421304,70,253013.0,86,61.0,0,0,0,0,0,0,-14.0,25.0,-999.0
1776457802.321759,pre_hover,right,x,1,,,1,1.2506786521360391,0.3399315252552906,2.778500693522021,2.8018817787506904,70,253021.99999999997,86,61.0,0,-1,0,0,0,0,-17.0,30.0,-998.0
1776457802.3714502,pre_hover,right,x,1,,,3,0.18948476053870222,0.9032483218964383,2.6948067673857334,2.815720041865456,70,253021.99999999997,86,61.0,0,-1,0,0,0,0,-17.0,30.0,-998.0
1776457802.4222898,pre_hover,right,x,1,,,1,1.597087221229746,0.7124544825194836,2.714724962226235,2.7818861912250865,70,253014.0,86,61.0,0,-1,0,0,0,0,-9.0,17.0,-994.0
1776457802.472161,pre_hover,right,x,1,,,1,1.0523690460813526,0.2643892274948471,2.798386921306572,2.8189264745552784,70,253014.0,86,61.0,0,-1,0,0,0,0,-9.0,17.0,-994.0
1776457802.5239549,pre_hover,right,x,1,,,1,1.4565945051546834,0.5410619896657008,2.7472849974685563,2.785592771478886,70,253005.00000000003,86,61.0,0,-1,0,0,0,0,-8.0,26.0,-993.0
1776457802.573705,pre_hover,right,x,1,,,1,0.31507515449092505,0.6212248907504754,2.676325958630394,2.762660525077574,70,253005.00000000003,86,61.0,0,-1,0,0,0,0,-8.0,26.0,-993.0
1776457802.6250281,pre_hover,right,x,1,,,1,1.4555227203800272,0.5329703300314922,2.749348694601209,2.7876355877237398,70,253015.0,86,61.0,0,-1,0,0,0,0,-9.0,7.0,-994.0
1776457802.675238,pre_hover,right,x,1,,,1,1.4555227203800272,0.5329703300314922,2.749348694601209,2.7876355877237398,70,253015.0,86,61.0,0,-1,0,0,0,0,-9.0,7.0,-994.0
1776457802.7253308,pre_hover,right,x,1,,,3,0.2947234920529236,0.9549768621597599,2.732115095064779,2.822037371879371,70,253011.0,86,61.0,0,-1,0,0,0,0,-10.0,8.0,-995.0
1776457802.77489,pre_hover,right,x,1,,,1,1.7657862528584372,0.49270737536189824,2.628285215672339,2.739675796018662,70,253011.0,86,61.0,0,-1,0,0,0,0,-10.0,8.0,-995.0
1776457802.826205,pre_hover,right,x,1,,,1,1.7636940214551982,0.49062280967257166,2.6304196019995896,2.74122221112299,70,252998.0,86,61.0,0,-1,0,0,0,0,-15.0,28.0,-1014.0
1776457802.8772612,pre_hover,right,x,1,,,1,0.43673557520679873,0.5446176386133578,2.708230609608247,2.766739426293961,70,252998.0,86,61.0,0,-1,0,0,0,0,-15.0,28.0,-1014.0
1776457802.92903,pre_hover,right,x,1,,,1,1.3015419221145081,0.7819057006598331,2.7655314721723654,2.7878632567435777,70,253010.0,86,61.0,0,-1,0,0,0,0,9.0,1.0,-1000.0
1776457802.979549,pre_hover,right,x,1,,,1,1.4649538681354959,0.5557236914451145,2.726203825499,2.765922954306354,70,253010.0,86,61.0,0,-1,0,0,0,0,9.0,1.0,-1000.0
1776457803.028885,pre_hover,right,x,1,,,1,1.461019650790869,0.5521660314248278,2.7283952996513245,2.767484077302781,70,253014.0,86,61.0,0,-1,0,0,0,0,19.0,3.0,-973.0
1776457803.0791512,pre_hover,right,x,1,,,1,0.5947712846310704,0.6570830637740871,2.742096249709831,2.772464721254738,70,253014.0,86,61.0,0,-1,0,0,0,0,19.0,3.0,-973.0
1776457803.129864,pre_hover,right,x,1,,,1,1.6355990606123365,0.5843392467738208,2.676027938407592,2.750519396801426,70,253010.0,86,61.5,0,-1,0,0,0,0,-5.0,3.0,-1012.0
1776457803.180415,response,right,x,1,1776457803.180159,0.00025582313537597656,1,0.586029277653473,0.6636275443837371,2.7428236171636127,2.7746173823132616,70,253010.0,86,61.5,0,-1,0,0,0,0,-5.0,3.0,-1012.0
1776457803.231099,response,right,x,1,1776457803.180159,0.05093979835510254,1,1.557578236735048,0.4356252493327809,2.68523269254099,2.747432831176844,70,253016.0,86,61.5,0,0,0,0,0,0,3.0,1.0,-997.0
1776457803.282114,response,right,x,1,1776457803.180159,0.10195493698120117,1,1.746827895980695,0.4531474608102023,2.6166369438153882,2.725088341727838,70,253016.0,86,61.5,0,0,0,0,0,0,3.0,1.0,-997.0
1776457803.331954,response,right,x,1,1776457803.180159,0.1517949104309082,1,1.4410784054106616,0.5329271966226314,2.739172015657012,2.7752679604014836,70,253013.0,86,61.5,1,0,0,0,0,0,0.0,7.0,-990.0
1776457803.3815958,response,right,x,1,1776457803.180159,0.20143675804138184,1,1.530308360767445,0.6674463945726662,2.703079616902639,2.7554337932447632,70,253013.0,86,61.5,1,0,0,0,0,0,0.0,7.0,-990.0
1776457803.43202,response,right,x,1,1776457803.180159,0.2518608570098877,1,1.549228841218492,0.4255506164548333,2.690795526890083,2.75181130802553,70,253010.0,86,61.5,0,0,0,0,0,0,10.0,8.0,-983.0
1776457803.481601,response,right,x,1,1776457803.180159,0.30144190788269043,1,1.3785938640707829,0.45626285483053874,2.725893975902324,2.755810524813724,70,253010.0,86,61.5,0,0,0,0,0,0,10.0,8.0,-983.0
1776457803.5318,response,right,x,1,1776457803.180159,0.3516409397125244,3,0.2410086498823205,1.0108898251603589,2.6898063751770485,2.794860424741918,70,253005.00000000003,86,61.5,0,5,0,0,0,0,-26.0,25.0,-1002.0
1776457803.5835679,response,right,x,1,1776457803.180159,0.4034087657928467,1,0.3674043193198141,0.6712450763017738,2.6618630099190033,2.7369267143435767,70,253005.00000000003,86,61.5,0,5,0,0,0,0,-26.0,25.0,-1002.0
1776457803.633684,response,right,x,1,1776457803.180159,0.4535248279571533,1,1.423068525351586,0.4194898056530749,2.7222069284810844,2.760793630258653,70,253012.0,86,61.5,0,4,0,0,1,0,-4.0,1.0,-1021.0
1776457803.68342,response,right,x,1,1776457803.180159,0.5032608509063721,1,0.3534184057252825,0.7079486401109951,2.6631054705923174,2.7425993900778467,70,253012.0,86,61.5,0,4,0,0,1,0,-4.0,1.0,-1021.0
1776457803.734828,response,right,x,1,1776457803.180159,0.5546689033508301,1,1.600540283826232,0.5863739305465631,2.6788187820085003,2.7453423045420666,70,253013.0,86,61.5,0,1,0,0,2,0,9.0,-18.0,-999.0
1776457803.7861571,response,right,x,1,1776457803.180159,0.6059980392456055,1,1.6156425099372538,0.5170272927176855,2.6757769859696507,2.746940597981767,70,253013.0,86,61.5,0,1,0,0,2,0,9.0,-18.0,-999.0
1776457803.838166,response,right,x,1,1776457803.180159,0.6580069065093994,1,1.629993316950502,0.48482892178862447,2.675564683374281,2.7511456398341374,70,253021.99999999997,86,61.5,0,0,0,0,2,0,24.0,-25.0,-980.0
1776457803.888175,response,right,x,1,1776457803.180159,0.7080159187316895,1,1.7615228456115308,0.42951509306050184,2.636746820092817,2.74980289132731,70,253021.99999999997,86,61.5,0,0,0,0,2,0,24.0,-25.0,-980.0
1776457803.939393,response,right,x,1,1776457803.180159,0.7592339515686035,1,1.4517636625049812,0.41685541798377646,2.7369819538326405,2.780054416785281,70,253011.0,86,61.5,0,0,0,0,2,0,-9.0,-9.0,-1013.0
1776457803.991095,response,right,x,1,1776457803.180159,0.8109359741210938,1,1.4768211268279745,0.4018996934016784,2.7340680476604056,2.7823964864306143,70,253011.0,86,61.5,0,0,0,0,2,0,-9.0,-9.0,-1013.0
1776457804.0424268,response,right,x,1,1776457803.180159,0.8622677326202393,1,1.7175205163632392,0.4468990302513971,2.6669461064193505,2.7660218966749817,70,253015.0,85,61.5,0,0,0,0,2,0,21.0,-4.0,-1000.0
1776457804.09294,response,right,x,1,1776457803.180159,0.9127810001373291,1,1.7505512463384099,0.42417576528656875,2.6606618609596797,2.7700835498695935,70,253015.0,85,61.5,0,0,0,0,2,0,21.0,-4.0,-1000.0
1776457804.143501,response,right,x,1,1776457803.180159,0.9633419513702393,1,1.8316918251463672,0.4909796682498747,2.648565916894984,2.77821851928317,70,253012.0,85,62.5,0,0,0,0,2,0,20.0,-7.0,-976.0
1776457804.1946812,response,right,x,1,1776457803.180159,1.0145220756530762,1,0.2506380420417874,0.6811055858449101,2.6859227134892096,2.7896778098783113,70,253012.0,85,62.5,0,0,0,0,2,0,20.0,-7.0,-976.0
1776457804.244763,response,right,x,1,1776457803.180159,1.0646038055419922,1,1.9233167771955455,0.5349332878275086,2.6088210517604122,2.7681572983109195,70,253016.0,85,62.5,0,0,0,0,2,0,1.0,-1.0,-995.0
1776457804.295876,response,right,x,1,1776457803.180159,1.1157169342041016,1,1.950599099558012,0.5109692291914537,2.6066226679525686,2.775976739692794,70,253016.0,85,62.5,0,0,0,0,2,0,1.0,-1.0,-995.0
1776457804.346315,response,right,x,1,1776457803.180159,1.1661558151245117,1,1.8440169279823748,0.4694191556871947,2.665819450819193,2.7992872800032864,70,253017.99999999997,85,62.5,0,0,0,0,2,0,-20.0,3.0,-1014.0
1776457804.397773,response,right,x,1,1776457803.180159,1.217613935470581,1,1.9300840476715515,0.5334171954542875,2.6227984762805083,2.7836237987151975,70,253017.99999999997,85,62.5,0,0,0,0,2,0,-20.0,3.0,-1014.0
1776457804.4486248,response,right,x,1,1776457803.180159,1.2684657573699951,1,1.8976911142019683,0.4693741442189383,2.655712973257146,2.806372007956539,70,253010.0,85,62.5,0,0,0,0,2,0,-6.0,23.0,-1000.0
1776457804.499213,response,right,x,1,1776457803.180159,1.3190538883209229,1,1.9929705071338841,0.5154541033121213,2.632893299740283,2.815184818888763,70,253010.0,85,62.5,0,0,0,0,2,0,-6.0,23.0,-1000.0
1776457804.550146,response,right,x,1,1776457803.180159,1.3699870109558105,1,2.0539096148457743,0.5716243501919092,2.5914179721400936,2.797673633592216,70,253010.0,85,62.5,0,-4,0,0,2,0,-17.0,-5.0,-1033.0
1776457804.6016052,response,right,x,1,1776457803.180159,1.4214460849761963,1,0.03603410442498456,0.7907054183287462,2.645030782947937,2.8216638083148493,70,253010.0,85,62.5,0,-4,0,0,2,0,-17.0,-5.0,-1033.0
1776457804.6532311,response,right,x,1,1776457803.180159,1.4730720520019531,1,1.9340148145715252,0.45922841996810415,2.684661880110663,2.8459813284881323,70,253002.0,85,62.5,0,-6,0,0,1,0,4.0,-1.0,-997.0
1776457804.705163,response,right,x,1,1776457803.180159,1.5250039100646973,1,2.063137242352903,0.4815632349445048,2.6177404979641286,2.8278708206132808,70,253002.0,85,62.5,0,-6,0,0,1,0,4.0,-1.0,-997.0
1776457804.75633,response,right,x,1,1776457803.180159,1.5761709213256836,1,1.8831131962445564,0.5344924309922777,2.7178028782415713,2.8584318505006814,70,253011.0,85,62.5,0,-3,0,0,1,0,3.0,-8.0,-970.0
1776457804.8065112,response,right,x,1,1776457803.180159,1.626352071762085,1,1.960479375245276,0.45748401322726007,2.6574197748800965,2.8292598496216548,70,253011.0,85,62.5,0,-3,0,0,1,0,3.0,-8.0,-970.0
1776457804.857632,response,right,x,1,1776457803.180159,1.6774728298187256,1,2.121075088068358,0.5216790011482411,2.576765045992184,2.811167308111653,70,253017.0,85,62.5,0,-2,0,0,0,0,5.0,0.0,-991.0
1776457804.9072,response,right,x,1,1776457803.180159,1.7270410060882568,1,1.9814310961859753,0.45231794827226723,2.6520124084971655,2.8316403019780347,70,253017.0,85,62.5,0,-2,0,0,0,0,5.0,0.0,-991.0
1776457804.958326,response,right,x,1,1776457803.180159,1.7781670093536377,1,2.093794359322276,0.5764289934807926,2.5916310679936503,2.8130931881868873,70,253015.0,85,62.5,0,-1,0,0,0,0,15.0,14.0,-992.0
1776457805.009054,response,right,x,1,1776457803.180159,1.828894853591919,1,2.100224945883644,0.5750368945441064,2.5893125098139937,2.8134778054319023,70,253015.0,85,62.5,0,-1,0,0,0,0,15.0,14.0,-992.0
1776457805.0603478,response,right,x,1,1776457803.180159,1.8801887035369873,1,2.0698285715223323,0.5070767514973233,2.6261020773131527,2.8371781796401616,70,253008.0,85,62.5,0,0,0,0,0,0,5.0,0.0,-998.0
1776457805.109633,response,right,x,1,1776457803.180159,1.929473876953125,1,2.0625852378615432,0.5171610791353524,2.6051316714526855,2.8147221355112757,70,253008.0,85,62.5,0,0,0,0,0,0,5.0,0.0,-998.0
1776457805.1607978,response,right,x,1,1776457803.180159,1.9806387424468994,1,2.007746053926033,0.5710752249819736,2.658680445908011,2.843408248083091,70,253013.0,85,62.5,0,-1,0,0,0,0,0.0,0.0,-971.0
1776457805.2116952,response,right,x,1,1776457803.180159,2.031536102294922,1,2.0411480770313117,0.44357203905686027,2.6346041960832824,2.837181399785792,70,253013.0,85,62.5,0,-1,0,0,0,0,0.0,0.0,-971.0
1776457805.261024,response,right,x,1,1776457803.180159,2.080864906311035,1,2.090964513621431,0.6236055848162786,2.599700964066656,2.819433612657845,70,253019.0,85,62.5,0,-1,0,0,0,0,1.0,7.0,-1005.0
1776457805.312295,response,right,x,1,1776457803.180159,2.1321358680725098,1,2.0977916769437077,0.5089501815928094,2.595223381281508,2.8193298909757054,70,253019.0,85,62.5,0,-1,0,0,0,0,1.0,7.0,-1005.0
1776457805.363539,response,right,x,1,1776457803.180159,2.183379888534546,1,2.107173759155624,0.5066865152943011,2.5927320266325484,2.8207801228236207,70,253013.0,85,62.5,0,-2,0,0,0,0,-2.0,-2.0,-1007.0
1776457805.413959,response,right,x,1,1776457803.180159,2.233799934387207,1,2.063788375639571,0.5548106210226647,2.639875474706034,2.846511955020151,70,253025.0,85,62.5,0,-2,0,0,0,0,-14.0,15.0,-981.0
1776457805.465583,response,right,x,1,1776457803.180159,2.285423994064331,1,2.1171270235386666,0.6112843534429432,2.5954724260728996,2.825699424542131,70,253025.0,85,62.5,0,-2,0,0,0,0,-14.0,15.0,-981.0
1776457805.516246,response,right,x,1,1776457803.180159,2.3360869884490967,1,2.065571823185291,0.5428067576617068,2.6169262005443987,2.8261311215920846,70,253007.00000000003,85,62.5,0,-2,0,0,0,0,7.0,-5.0,-1011.0
1776457805.56628,response,right,x,1,1776457803.180159,2.3861207962036133,1,2.0114434389659492,0.47355968953883865,2.6632802187469546,2.8516778404836702,70,253007.00000000003,85,62.5,0,-2,0,0,0,0,7.0,-5.0,-1011.0
1776457805.617616,response,right,x,1,1776457803.180159,2.4374568462371826,1,2.0754041105028245,0.5402860200974442,2.6145284288522808,2.827687865652599,70,253017.99999999997,85,62.5,0,-1,0,0,0,0,-3.0,16.0,-997.0
1776457805.668742,response,right,x,1,1776457803.180159,2.4885828495025635,1,2.082393411472721,0.5395282037471384,2.6122468906804412,2.8282620375791274,70,253017.99999999997,85,62.5,0,-1,0,0,0,0,-3.0,16.0,-997.0
1776457805.7200608,response,right,x,1,1776457803.180159,2.5399017333984375,1,2.0851917073079127,0.5378568158215408,2.6121374430571365,2.829269311743012,70,253007.00000000003,85,62.5,0,-1,0,0,0,0,-15.0,17.0,-962.0
1776457805.771161,response,right,x,1,1776457803.180159,2.5910019874572754,1,2.063341462763251,0.5319101932070409,2.597272753514806,2.8073398519543327,70,253007.00000000003,85,62.5,0,-1,0,0,0,0,-15.0,17.0,-962.0
1776457805.822815,response,right,x,1,1776457803.180159,2.642655849456787,1,2.0260321152121765,0.5744643421871062,2.61078863885793,2.8052827465438046,70,253015.0,85,62.5,0,-1,0,0,0,0,0.0,0.0,-1004.0
1776457805.872229,response,right,x,1,1776457803.180159,2.6920700073242188,1,2.0864825797961846,0.5116439069918646,2.5846655673248424,2.8051287475420597,70,253015.0,85,62.5,0,-1,0,0,0,0,0.0,0.0,-1004.0
1776457805.9227252,response,right,x,1,1776457803.180159,2.7425661087036133,1,2.0763053612941285,0.5210747076717568,2.56621145430097,2.783900799364999,70,253017.0,85,62.5,0,-1,0,0,0,0,-6.0,6.0,-1000.0
1776457805.9724212,response,right,x,1,1776457803.180159,2.792262077331543,1,2.1287568011375884,0.5830660510759343,2.5471464103919783,2.7860964647178434,70,253017.0,85,62.5,0,-1,0,0,0,0,-6.0,6.0,-1000.0
1776457806.023304,response,right,x,1,1776457803.180159,2.8431448936462402,1,1.9755388942290741,0.5144555094815113,2.6306251150734887,2.8069881528191667,70,253013.0,84,62.5,0,-1,0,0,0,0,-14.0,23.0,-991.0
1776457806.074667,response,right,x,1,1776457803.180159,2.894507884979248,1,2.2160646223695073,0.5633118046983603,2.4800306467960267,2.762374195959103,70,253013.0,84,62.5,0,-1,0,0,0,0,-14.0,23.0,-991.0
1776457806.125895,response,right,x,1,1776457803.180159,2.9457359313964844,1,2.1721867572648748,0.5188857714248518,2.4997857613893104,2.7621604162012776,70,253013.0,84,62.5,0,-1,0,0,0,0,-5.0,13.0,-1008.0
1776457806.176233,response,right,x,1,1776457803.180159,2.9960739612579346,1,2.1719671319469454,0.6139249411956993,2.502831807034025,2.763669284963824,70,253013.0,84,62.5,0,-1,0,0,0,0,-5.0,13.0,-1008.0
1776457806.227548,response,right,x,1,1776457803.180159,3.047388792037964,1,2.207027116991632,0.5695233320669403,2.4626780929433676,2.7427407237842614,70,253023.0,84,62.5,0,-1,0,0,0,0,-14.0,16.0,-991.0
1776457806.278305,response,right,x,1,1776457803.180159,3.0981459617614746,1,2.0846529801345257,0.6249875944917033,2.544987102599742,2.766596432368157,70,253023.0,84,62.5,0,-1,0,0,0,0,-14.0,16.0,-991.0
1776457806.3292742,response,right,x,1,1776457803.180159,3.1491150856018066,1,2.112738505165986,0.5628001656150552,2.508394870926708,2.744378916448805,70,253017.0,84,62.5,0,-1,0,0,0,0,1.0,1.0,-979.0
1776457806.3782551,response,right,x,1,1776457803.180159,3.1980960369110107,1,2.0269411721829993,0.568674430484706,2.596385553393641,2.7922763839386056,70,253017.0,84,62.5,0,-1,0,0,0,0,1.0,1.0,-979.0
1776457806.4292212,response,right,x,1,1776457803.180159,3.2490620613098145,1,2.111531676158217,0.5604493594949516,2.5104378328907733,2.7457904204576096,70,253017.99999999997,84,62.5,0,-1,0,0,0,0,-25.0,19.0,-1003.0
1776457806.479811,response,right,x,1,1776457803.180159,3.299651861190796,1,2.2358222380141832,0.5955833479316536,2.4255400192425873,2.7222271205270894,70,253017.99999999997,84,62.5,0,-1,0,0,0,0,-25.0,19.0,-1003.0
1776457806.531252,response,right,x,1,1776457803.180159,3.35109281539917,1,1.997738298119916,0.5642734890354072,2.5844611559740893,2.770595163833911,70,253007.00000000003,84,62.5,0,-1,0,0,0,0,-18.0,23.0,-1013.0
1776457806.582718,response,right,x,1,1776457803.180159,3.4025588035583496,1,2.148239244769905,0.4934758156580722,2.49005265346591,2.744114243633471,70,253007.00000000003,84,62.5,0,-1,0,0,0,0,-18.0,23.0,-1013.0
1776457806.6354969,response,right,x,1,1776457803.180159,3.4553377628326416,1,2.191610389302649,0.5463519753046879,2.4453902585039486,2.720798953769596,70,253019.99999999997,84,62.5,0,-1,0,0,0,0,2.0,13.0,-1011.0
1776457806.68677,response,right,x,1,1776457803.180159,3.506610870361328,1,2.191610389302649,0.5463519753046879,2.4453902585039486,2.720798953769596,70,253019.99999999997,84,62.5,0,-1,0,0,0,0,2.0,13.0,-1011.0
1776457806.737984,response,right,x,1,1776457803.180159,3.5578248500823975,1,2.0005231052429706,0.5550207920215944,2.5561296723303544,2.7453357745534666,70,253013.0,84,62.5,0,0,0,0,0,0,1.0,13.0,-975.0
1776457806.789432,response,right,x,1,1776457803.180159,3.6092729568481445,1,2.093335306806703,0.5444103537745942,2.5184606690704814,2.7461093284012765,70,253013.0,84,62.5,0,0,0,0,0,0,1.0,13.0,-975.0
1776457806.840659,response,right,x,1,1776457803.180159,3.6604998111724854,1,1.9974775798935624,0.5496509215573703,2.560247066759678,2.7481560354066277,70,253019.0,84,62.5,0,0,0,0,0,0,-35.0,29.0,-1001.0
1776457806.891366,response,right,x,1,1776457803.180159,3.7112069129943848,1,1.9959457983740467,0.5469472867456969,2.562305772904683,2.749569693159864,70,253019.0,84,62.5,0,0,0,0,0,0,-35.0,29.0,-1001.0
1776457806.941025,response,right,x,1,1776457803.180159,3.7608659267425537,1,2.092560097536442,0.5319122115419753,2.4959392101888564,2.7254423594389436,70,253017.0,84,62.5,0,0,0,0,0,0,-12.0,29.0,-995.0
1776457806.991481,response,right,x,1,1776457803.180159,3.811321973800659,1,2.0450679245793664,0.4650426995491562,2.5124406534093504,2.724470311240996,70,253017.0,84,62.5,0,0,0,0,0,0,-12.0,29.0,-995.0
1776457807.040864,response,right,x,1,1776457803.180159,3.8607048988342285,1,1.9808260218339555,0.5272116387053557,2.570100901808539,2.751860548088083,70,253015.0,84,62.5,1,0,0,0,0,0,-12.0,14.0,-1009.0
1776457807.091351,response,right,x,1,1776457803.180159,3.911191940307617,1,2.042882479333284,0.4744852556765746,2.5180552375424288,2.72836214532781,70,253015.0,84,62.5,1,0,0,0,0,0,-12.0,14.0,-1009.0
1776457807.141634,response,right,x,1,1776457803.180159,3.961474895477295,1,2.137323273715014,0.573935329691955,2.4580633814379476,2.7085529684941108,70,253016.0,84,62.0,0,0,0,0,0,0,12.0,1.0,-988.0
1776457807.192843,response,right,x,1,1776457803.180159,4.012683868408203,1,2.0765246911171906,0.528137907907072,2.4887242714074858,2.7125298283996173,70,253016.0,84,62.0,0,0,0,0,0,0,12.0,1.0,-988.0
1776457807.243867,response,right,x,1,1776457803.180159,4.0637078285217285,1,2.075290027342262,0.5256944080720773,2.4907188440609525,2.7139363154012672,70,253011.0,84,62.0,0,0,0,0,0,0,-29.0,32.0,-1014.0
1776457807.2938461,response,right,x,1,1776457803.180159,4.113687038421631,1,1.8646413748340245,0.5087827999912555,2.621194340132992,2.7616272473665844,70,253011.0,84,62.0,0,0,0,0,0,0,-29.0,32.0,-1014.0
1776457807.345194,response,right,x,1,1776457803.180159,4.165035009384155,1,1.9073044257278644,0.4376783891012903,2.580031413772638,2.739728403028986,70,253014.0,84,62.0,0,-1,0,0,0,0,13.0,1.0,-988.0
1776457807.396259,response,right,x,1,1776457803.180159,4.216099977493286,1,2.07297843504866,0.5142287186614163,2.4985441223766056,2.7205444613614786,70,253014.0,84,62.0,0,-1,0,0,0,0,13.0,1.0,-988.0
1776457807.446364,response,right,x,1,1776457803.180159,4.266204833984375,1,2.0717260738460594,0.5117338695491692,2.5005382305185986,2.7219623673797066,70,253012.0,84,62.0,0,-1,0,0,0,0,1.0,11.0,-977.0
1776457807.499243,response,right,x,1,1776457803.180159,4.31908392906189,1,2.070468703917016,0.5092292142383982,2.5025330048234657,2.7233828268982525,70,253012.0,84,62.0,0,-1,0,0,0,0,1.0,11.0,-977.0
1776457807.550145,response,right,x,1,1776457803.180159,4.369985818862915,1,2.0692063384647317,0.5067146875372174,2.504528375724514,2.7248058148322625,70,253012.0,84,62.0,0,-1,0,0,0,0,-19.0,16.0,-990.0
1776457807.60201,response,right,x,1,1776457803.180159,4.421850919723511,1,2.0126969716871423,0.5596130504347394,2.5328487554181995,2.7280962373023097,70,253012.0,84,62.0,0,-1,0,0,0,0,-19.0,16.0,-990.0
1776457807.653397,response,right,x,1,1776457803.180159,4.473237991333008,1,2.104058205953086,0.542803561885895,2.4682760354899522,2.704552188817824,70,253011.0,84,62.0,0,-1,0,0,0,0,15.0,4.0,-989.0
1776457807.703317,response,right,x,1,1776457803.180159,4.523157835006714,1,2.052477514612634,0.48229243567495206,2.516275761921779,2.7300563546380414,70,253011.0,84,62.0,0,-1,0,0,0,0,15.0,4.0,-989.0
1776457807.754594,response,right,x,1,1776457803.180159,4.574434995651245,1,2.0890249059044654,0.5385195416350286,2.4822538116635693,2.711335294270946,70,253005.00000000003,84,62.0,0,-1,0,0,0,0,6.0,3.0,-1016.0
1776457807.8053162,response,right,x,1,1776457803.180159,4.625157117843628,1,2.065562788638926,0.49238162231186433,2.514306738647192,2.7329003179323736,70,253005.00000000003,84,62.0,0,-1,0,0,0,0,6.0,3.0,-1016.0
1776457807.855861,response,right,x,1,1776457803.180159,4.675701856613159,1,2.1503679466631835,0.48395846975548684,2.450484643130656,2.7095547670550486,70,253008.0,84,62.0,0,-1,0,0,0,0,-9.0,19.0,-1019.0
1776457807.9055638,response,right,x,1,1776457803.180159,4.725404739379883,1,2.106867170505867,0.42714405216194107,2.4906753459548714,2.731025043970501,70,253008.0,84,62.0,0,-1,0,0,0,0,-9.0,19.0,-1019.0
1776457807.9566872,response,right,x,1,1776457803.180159,4.7765281200408936,1,2.019427068268322,0.4219718453303357,2.526762343753646,2.7304676363554745,70,253015.0,84,62.0,0,-1,0,0,0,0,-6.0,14.0,-1011.0
1776457808.007791,response,right,x,1,1776457803.180159,4.827631950378418,1,2.051137185168186,0.4728839162971208,2.522077014399873,2.7353099179697047,70,253015.0,84,62.0,0,-1,0,0,0,0,-6.0,14.0,-1011.0
1776457808.0567129,response,right,x,1,1776457803.180159,4.876553773880005,1,2.0657498179227565,0.4856095723893348,2.51807427776969,2.7367144375503787,70,253021.0,83,62.0,0,-1,0,0,0,0,-19.0,16.0,-986.0
1776457808.107588,response,right,x,1,1776457803.180159,4.927428960800171,1,2.0525361119967407,0.4686094385129691,2.5238572474307333,2.7376908430488878,70,253021.0,83,62.0,0,-1,0,0,0,0,-19.0,16.0,-986.0
1776457808.158551,response,right,x,1,1776457803.180159,4.978391885757446,1,2.1521194018141054,0.47404420772566536,2.4560238317546066,2.715749811707722,70,253019.0,83,62.5,0,-1,0,0,0,0,-9.0,23.0,-1008.0
1776457808.210081,response,right,x,1,1776457803.180159,5.029922008514404,1,2.18270794254782,0.5294906514636604,2.450063479555383,2.7215033895712404,70,253019.0,83,62.5,0,-1,0,0,0,0,-9.0,23.0,-1008.0
1776457808.2616901,response,right,x,1,1776457803.180159,5.081531047821045,1,2.1109606218044403,0.42393571812349007,2.4707991966931884,2.7147892744985764,70,253011.0,83,62.5,0,-1,0,0,0,0,6.0,10.0,-984.0
1776457808.312017,response,right,x,1,1776457803.180159,5.131857872009277,1,2.102950789350782,0.5151975612113585,2.486798479586936,2.7217381533552985,70,253011.0,83,62.5,0,-1,0,0,0,0,6.0,10.0,-984.0
1776457808.363049,response,right,x,1,1776457803.180159,5.182889938354492,1,2.068959377864167,0.4703509819863041,2.5252978670050896,2.7452891171051763,70,253014.0,83,62.5,0,-1,0,0,0,0,14.0,0.0,-1019.0
1776457808.413963,response,right,x,1,1776457803.180159,5.233803987503052,1,2.0554532536634644,0.45309710232942846,2.531098155051048,2.7462738214744036,70,253014.0,83,62.5,0,-1,0,0,0,0,14.0,0.0,-1019.0
1776457808.46526,response,right,x,1,1776457803.180159,5.285100936889648,1,2.106844561911239,0.509477529875092,2.488609683454018,2.7251563915509704,70,253017.0,83,62.5,0,-1,0,0,0,0,12.0,-15.0,-990.0
1776457808.5163178,response,right,x,1,1776457803.180159,5.336158752441406,1,2.120386925255816,0.5218909684433011,2.484137262725471,2.7262255635137933,70,253017.0,83,62.5,0,-1,0,0,0,0,12.0,-15.0,-990.0
1776457808.567156,response,right,x,1,1776457803.180159,5.3869969844818115,1,2.188197276496275,0.5217799191286845,2.432062539344089,2.7079252840884473,70,253017.0,83,62.5,0,-1,0,0,0,0,14.0,11.0,-1000.0
1776457808.6165068,response,right,x,1,1776457803.180159,5.436347723007202,1,2.017359999724584,0.5133226118628279,2.557452824419422,2.7537427780721946,70,253017.0,83,62.5,0,-1,0,0,0,0,14.0,11.0,-1000.0
1776457808.6663759,response,right,x,1,1776457803.180159,5.48621678352356,1,2.1121201707979527,0.49970542899659864,2.492316204615575,2.7310273413237387,70,253017.99999999997,83,62.5,0,-1,0,0,0,0,19.0,-4.0,-1005.0
1776457808.7178829,response,right,x,1,1776457803.180159,5.537723779678345,1,2.079193519331886,0.45453169488822387,2.5298914553387553,2.754300356852186,70,253017.99999999997,83,62.5,0,-1,0,0,0,0,19.0,-4.0,-1005.0
1776457808.7703822,response,right,x,1,1776457803.180159,5.590223073959351,1,2.1160906462997247,0.49400010805295,2.4940529654713646,2.7344459223811737,70,253023.99999999997,83,62.5,0,-1,0,0,0,0,15.0,-19.0,-998.0
1776457808.8204951,response,right,x,1,1776457803.180159,5.640336036682129,1,2.059850815803941,0.4307958136332083,2.515656146620219,2.7350392422180008,70,253023.99999999997,83,62.5,0,-1,0,0,0,0,15.0,-19.0,-998.0
1776457808.872009,response,right,x,1,1776457803.180159,5.691849946975708,1,2.0750777075061464,0.4406174183163526,2.509558614431411,2.7347905447744476,70,253019.0,83,62.5,0,-1,0,0,0,0,0.0,17.0,-1008.0
1776457808.923115,response,right,x,1,1776457803.180159,5.742955923080444,1,2.0790843317542604,0.42137265452368033,2.508689873239,2.7367600559203877,70,253019.0,83,62.5,0,-1,0,0,0,0,0.0,17.0,-1008.0
1776457808.972715,response,right,x,1,1776457803.180159,5.792555809020996,1,2.112294693423937,0.4799338058649204,2.4785960533689644,2.719384814947921,70,253007.00000000003,83,62.5,0,-1,0,0,0,0,-9.0,8.0,-1000.0
1776457809.022325,response,right,x,1,1776457803.180159,5.842165946960449,1,2.115185236128921,0.49072053728874,2.480063733777722,2.721451126779585,70,253007.00000000003,83,62.5,0,-1,0,0,0,0,-9.0,8.0,-1000.0
1776457809.072722,response,right,x,1,1776457803.180159,5.8925628662109375,3,0.8902298459142544,0.5086900284529605,2.4518005888120715,2.502950479368056,70,253012.0,83,62.5,0,-1,0,0,0,0,-3.0,17.0,-990.0
1776457809.123462,response,right,x,1,1776457803.180159,5.943302869796753,3,0.8699260048482869,0.5353617633732151,2.4367664436922842,2.4840770189861505,70,253012.0,83,62.5,0,-1,0,0,0,0,-3.0,17.0,-990.0
1776457809.172822,response,right,x,1,1776457803.180159,5.9926629066467285,3,0.6770945648038871,0.7663663717335654,2.482276208816639,2.514069961077701,70,253015.0,83,62.5,0,-1,0,0,0,0,-6.0,20.0,-998.0
1776457809.2239392,post_response,right,x,1,1776457803.180159,6.043780088424683,3,0.7535564799820718,0.5580743147530995,2.4412188780334496,2.4931069632702614,70,253015.0,83,62.5,0,-1,0,0,0,0,-6.0,20.0,-998.0
1776457809.274802,post_response,right,x,1,1776457803.180159,6.094642877578735,3,1.0044777024556284,0.45765784182071667,2.4262425077904024,2.486123040592904,70,253021.99999999997,83,62.5,0,-1,0,0,0,0,-22.0,10.0,-988.0
1776457809.3252401,post_response,right,x,1,1776457803.180159,6.145081043243408,3,1.4134055484966002,1.250076395015618,2.4464224702957296,2.493677054880933,70,253021.99999999997,83,62.5,0,-1,0,0,0,0,-22.0,10.0,-988.0
1776457809.375344,post_response,right,x,1,1776457803.180159,6.195184946060181,3,0.7719165455929244,0.7775038094770202,2.496422636838586,2.5166749092188327,70,253016.0,83,62.5,0,-1,0,0,0,0,-8.0,27.0,-1008.0
1776457809.426582,post_response,right,x,1,1776457803.180159,6.246423006057739,3,0.5555566987331582,0.891869974694241,2.4412720446294673,2.483753439112452,70,253013.0,83,62.5,0,-1,0,0,0,0,-5.0,9.0,-978.0
1776457809.476685,post_response,right,x,1,1776457803.180159,6.296525955200195,3,0.5745158938338621,0.7546591306063108,2.4417513331365237,2.490658234216176,70,253013.0,83,62.5,0,-1,0,0,0,0,-5.0,9.0,-978.0
1776457809.527376,post_response,right,x,1,1776457803.180159,6.347216844558716,3,1.416034901186523,1.2362388592539455,2.4437964316135563,2.490187711156337,70,253019.0,83,62.5,0,-1,0,0,0,0,-18.0,26.0,-988.0
1776457809.5768151,post_response,right,x,1,1776457803.180159,6.396656036376953,3,0.43386010432791977,0.817622841557793,2.404056154763661,2.4765423082697557,70,253019.0,83,62.5,0,-1,0,0,0,0,-18.0,26.0,-988.0
1776457809.629028,post_response,right,x,1,1776457803.180159,6.448868989944458,3,0.7312115088461311,0.7376647091775581,2.459219199868567,2.487735140803752,70,253014.0,83,62.5,0,-1,0,0,0,0,-9.0,19.0,-996.0
1776457809.680453,post_response,right,x,1,1776457803.180159,6.500293970108032,3,0.7609194553964393,0.7941072610890438,2.4926105415779163,2.5125004753690185,70,253014.0,83,62.5,0,-1,0,0,0,0,-9.0,19.0,-996.0
1776457809.732203,post_response,right,x,1,1776457803.180159,6.552043914794922,3,1.416212163637468,1.230616282649306,2.443164684468594,2.4890701296703734,70,253023.0,83,62.5,0,-1,0,0,0,0,1.0,22.0,-1008.0
1776457809.783775,post_response,right,x,1,1776457803.180159,6.603615999221802,3,1.416212163637468,1.230616282649306,2.443164684468594,2.4890701296703734,70,253023.0,83,62.5,0,-1,0,0,0,0,1.0,22.0,-1008.0
1776457809.8357708,post_response,right,x,1,1776457803.180159,6.655611753463745,3,0.5526630910208756,0.9026050696957684,2.438359321256904,2.480965993750094,70,253023.99999999997,83,62.5,0,-1,0,0,0,0,2.0,10.0,-1015.0
1776457809.886944,post_response,right,x,1,1776457803.180159,6.706784963607788,3,0.621860753780149,0.7366461573057388,2.4259670868641603,2.4693442130536862,70,253023.99999999997,83,62.5,0,-1,0,0,0,0,2.0,10.0,-1015.0
1776457809.939254,post_response,right,x,1,1776457803.180159,6.759094953536987,3,0.5493149622393723,0.9042365613145429,2.436332281766799,2.479516611484823,70,253025.0,83,62.5,0,-1,0,0,0,0,9.0,8.0,-984.0
1776457809.990929,post_response,right,x,1,1776457803.180159,6.81076979637146,3,0.8903680517164562,0.7398187178304771,2.4770763371623956,2.4931146471443495,70,253025.0,83,62.5,0,-1,0,0,0,0,9.0,8.0,-984.0
1776457810.041481,post_response,right,x,1,1776457803.180159,6.861321926116943,3,0.621860753780149,0.7366461573057388,2.4259670868641603,2.4693442130536862,70,253017.0,82,62.5,0,-1,0,0,0,0,7.0,-2.0,-976.0
1776457810.0926669,post_response,right,x,1,1776457803.180159,6.912507772445679,3,1.2505860987909139,1.3749576680578877,2.427757642396152,2.469290144141749,70,253017.0,82,62.5,0,-1,0,0,0,0,7.0,-2.0,-976.0
1776457810.144167,post_response,right,x,1,1776457803.180159,6.96400785446167,3,1.2505860987909139,1.3749576680578877,2.427757642396152,2.469290144141749,70,253023.0,82,63.0,0,-1,0,0,0,0,4.0,26.0,-999.0
1776457810.1952481,post_response,right,x,1,1776457803.180159,7.01508903503418,3,1.3726754306399471,1.2608836013438753,2.4264850436459096,2.4687601943263164,70,253023.0,82,63.0,0,-1,0,0,0,0,4.0,26.0,-999.0
1776457810.2466712,recovery,right,x,1,,,3,0.608886516537356,0.7355309704793996,2.4217890167682574,2.4673823510476067,70,253021.99999999997,82,63.0,0,-1,0,0,0,0,0.0,21.0,-982.0
1776457810.296206,recovery,right,x,1,,,3,0.7857380043189671,0.7947410136403281,2.4531559010903234,2.471034870115939,70,253021.99999999997,82,63.0,0,-1,0,0,0,0,0.0,21.0,-982.0
1776457810.346097,recovery,right,x,1,,,3,0.7857380043189671,0.7947410136403281,2.4531559010903234,2.471034870115939,70,253023.0,82,63.0,0,-1,0,0,0,0,7.0,7.0,-983.0
1776457810.397778,recovery,right,x,1,,,3,1.0582868566767598,0.719628863713812,2.465039165139889,2.4816170972567915,70,253023.0,82,63.0,0,-1,0,0,0,0,7.0,7.0,-983.0
1776457810.4490829,recovery,right,x,1,,,3,1.0582868566767598,0.719628863713812,2.465039165139889,2.4816170972567915,70,253019.99999999997,82,63.0,0,-2,0,0,0,0,4.0,5.0,-986.0
1776457810.500337,recovery,right,x,1,,,3,0.7006725822539928,0.9369348888085854,2.461341017562973,2.4802769434081364,70,253019.99999999997,82,63.0,0,-2,0,0,0,0,4.0,5.0,-986.0
1776457810.551413,recovery,right,x,1,,,3,0.7956534067355953,0.8051422969274129,2.454260144711742,2.470449334138628,70,253028.00000000003,82,63.0,0,-5,0,0,0,0,7.0,-6.0,-1008.0
1776457810.6029801,recovery,right,x,1,,,3,1.2685380608987424,1.3731516420372756,2.4237868093805974,2.4670016893860747,70,253028.00000000003,82,63.0,0,-5,0,0,0,0,7.0,-6.0,-1008.0
1776457810.653884,recovery,right,x,1,,,3,1.5803782055990911,1.1672140844247538,2.3750745502608677,2.4506689965928263,70,253017.0,82,63.0,0,-4,0,0,-1,0,-11.0,21.0,-1006.0
1776457810.719693,recovery,right,x,1,,,3,0.7534511003338737,0.778611055915936,2.4465645348722975,2.468902073348422,70,253017.0,82,63.0,0,-4,0,0,-1,0,-11.0,21.0,-1006.0
1776457810.770709,recovery,right,x,1,,,3,1.42910761756148,1.2625168351624483,2.393590840673475,2.44587929970981,70,253023.99999999997,82,63.0,0,-3,0,0,-1,0,17.0,26.0,-1016.0
1776457810.821803,recovery,right,x,1,,,3,0.548590884959353,0.8556543938607829,2.3930837250637333,2.4395605256517805,70,253023.99999999997,82,63.0,0,-3,0,0,-1,0,17.0,26.0,-1016.0
1776457810.872978,recovery,right,x,1,,,1,2.195831019958702,0.5320862677469641,2.340791842251272,2.6294354055717197,70,253019.0,82,63.0,0,-2,0,0,-2,0,-11.0,27.0,-1006.0
1776457810.9238741,recovery,right,x,1,,,1,2.038442715393871,0.5307326768532566,2.458484651063948,2.6697018587714125,70,253019.0,82,63.0,0,-2,0,0,-2,0,-11.0,27.0,-1006.0
1776457810.9751701,recovery,right,x,1,,,1,2.0642824984571786,0.484061184230538,2.414024031423149,2.6407671366125323,70,253014.0,82,63.0,0,-2,0,0,-2,0,-5.0,33.0,-999.0
1776457811.026495,recovery,right,x,1,,,1,2.013841874765454,0.5566629104578914,2.43358551649054,2.6366819900076006,70,253014.0,82,63.0,0,-2,0,0,-2,0,-5.0,33.0,-999.0
1776457811.076562,recovery,right,x,1,,,1,2.0772593289360013,0.5497302428812458,2.381730909451064,2.61450890901045,70,253017.0,82,63.0,0,-2,0,0,-2,0,4.0,9.0,-1002.0
1776457811.127687,recovery,right,x,1,,,1,2.020828791077544,0.5033072470012686,2.3972452145101784,2.6073407003434106,70,253017.0,82,63.0,0,-2,0,0,-2,0,4.0,9.0,-1002.0
1776457811.177836,recovery,right,x,1,,,1,2.0131802418951894,0.50807494205874,2.397785471605774,2.6046803233195472,70,253019.0,82,63.5,0,-2,0,0,-2,0,8.0,2.0,-961.0
1776457811.2289338,recovery,right,x,1,,,1,2.065737964864759,0.5172361975294437,2.3257588793346353,2.559648730110708,70,253019.0,82,63.5,0,-2,0,0,-2,0,8.0,2.0,-961.0
1776457811.280469,recovery,right,x,1,,,1,2.049751807813625,0.5393855875436139,2.328039501994559,2.5544903381795128,70,253021.99999999997,82,63.5,0,-2,0,0,-2,0,-22.0,36.0,-1004.0
1776457811.33184,recovery,right,x,1,,,1,1.9123522889807827,0.47364334138857955,2.4200969851452694,2.589444365475562,70,253021.99999999997,82,63.5,0,-2,0,0,-2,0,-22.0,36.0,-1004.0
1776457811.382619,recovery,right,x,1,,,1,1.9180314661295603,0.5829668221556437,2.3981924432209176,2.5679561710966525,70,253013.0,82,63.5,0,-1,0,0,-2,0,-13.0,36.0,-988.0
1776457811.435241,recovery,right,x,1,,,1,2.0188654441859013,0.5587465349639643,2.3316075984909554,2.5448345005273674,70,253013.0,82,63.5,0,-1,0,0,-2,0,-13.0,36.0,-988.0
1776457811.486214,recovery,right,x,1,,,1,1.9773692931518427,0.5921237279180726,2.3679418439716278,2.561730147242249,70,253012.0,82,63.5,2,-1,0,0,-2,0,0.0,14.0,-969.0
1776457811.5371048,recovery,right,x,1,,,1,1.89938495111969,0.5515541834367936,2.3734063409405923,2.538562180971751,70,253012.0,82,63.5,2,-1,0,0,-2,0,0.0,14.0,-969.0
1776457811.588177,recovery,right,x,1,,,1,1.88030992753671,0.5628700734372967,2.376176753236204,2.5342731033940256,70,253014.0,82,63.5,3,-1,0,0,-2,0,24.0,11.0,-979.0
1776457811.6379452,recovery,right,x,1,,,1,1.9228407811568788,0.5323351619426299,2.355418830287139,2.5306543627581384,70,253014.0,82,63.5,3,-1,0,0,-2,0,24.0,11.0,-979.0
1776457811.689677,recovery,right,x,1,,,1,1.8599886121825462,0.5968746016283027,2.3777799056386733,2.528522782348955,70,253026.00000000003,82,63.5,2,-1,0,0,-2,0,7.0,-3.0,-978.0
1776457811.740913,recovery,right,x,1,,,1,1.746552965245869,0.47356105649828073,2.42279221333161,2.538355815352038,70,253026.00000000003,82,63.5,2,-1,0,0,-2,0,7.0,-3.0,-978.0
1776457811.7924101,recovery,right,x,1,,,1,1.9683991332110429,0.5536084461910306,2.30028890988658,2.496252817007104,70,253019.0,82,63.5,2,-1,0,-1,-1,0,16.0,19.0,-994.0
1776457811.843627,recovery,right,x,1,,,1,1.9238148844310197,0.5170682630194602,2.3371465600572465,2.5144712479728875,70,253019.0,82,63.5,2,-1,0,-1,-1,0,16.0,19.0,-994.0
1776457811.89447,recovery,right,x,1,,,1,1.924614177202996,0.5312988219802353,2.3259908680479056,2.5039697974992277,70,253014.0,82,63.5,0,-1,0,-1,-1,0,-21.0,29.0,-1028.0
1776457811.9446368,recovery,right,x,1,,,1,2.081595928349741,0.43075782287083497,2.1813152254191164,2.440620572597758,70,253014.0,82,63.5,0,-1,0,-1,-1,0,-21.0,29.0,-1028.0
1776457811.994498,recovery,right,x,1,,,1,1.828282057385511,0.5172438325738073,2.377494264307028,2.519003518585606,70,253015.0,81,63.5,-2,-1,0,0,-1,0,-2.0,34.0,-986.0
1776457812.045674,recovery,right,x,1,,,1,1.7269681294741068,0.504617335452764,2.426156266705708,2.5345245598420605,70,253015.0,81,63.5,-2,-1,0,0,-1,0,-2.0,34.0,-986.0
1776457812.0963788,recovery,right,x,1,,,1,1.9568358569046445,0.5811442057138992,2.281797899464383,2.474367000272327,70,253019.99999999997,81,63.5,-1,1,0,0,-1,0,-1.0,9.0,-986.0
1776457812.146029,recovery,right,x,1,,,1,1.7454100646272046,0.47234515228519813,2.414725385780807,2.5303815153701406,70,253019.99999999997,81,63.5,-1,1,0,0,-1,0,-1.0,9.0,-986.0
1776457812.19736,recovery,right,x,1,,,1,1.777775897345101,0.5296746949531533,2.368935821560618,2.49434117988979,70,253006.0,81,63.0,0,2,0,0,-1,0,4.0,14.0,-973.0
1776457812.2486231,recovery,right,x,1,,,1,1.847785988838024,0.4813752934158003,2.3401609497434666,2.491819851952885,70,253006.0,81,63.0,0,2,0,0,-1,0,4.0,14.0,-973.0
1776457812.3000991,recovery,right,x,1,,,1,1.8802706055558782,0.5393415366111426,2.3358595319605584,2.49695725658999,70,253012.0,81,63.0,2,0,0,0,0,0,-11.0,19.0,-1013.0
