timestamp,elapsed,my_id,peer_age_s,peer_seq,peer_pos_x,peer_pos_y,peer_pos_z,peer_state,pos_x,pos_y,pos_z,marker_id,tx_count,rx_count,crc_errors,target_x,target_z,err_x_cm,err_y_cm,err_z_cm,err_3d_cm,dist_to_peer_cm,dist_to_mid_cm,cmd_lr,cmd_fb,cmd_ud,feedback,tello_height_cm,tello_baro_cm,tello_battery,tello_temp_c,tello_pitch,tello_roll,tello_yaw,tello_vgx,tello_vgy,tello_vgz
1778087901.624222,1.1920928955078125e-06,1,0.005304813385009766,406,1.5474722385406494,0.6850872039794922,3.7565855979919434,5,-0.21621597190038744,0.6799668107203025,3.5319063814951663,0,252,407,0,0.36562813332013105,3.644245989743555,58.184410522051856,2.8503845149256524,11.233960824838851,59.32749948797438,177.79417465075485,59.2589866907347,30,-30,16,ok,50,249215.0,81,72.0,0,0,0,0,0,0
1778087901.6953468,0.07112598419189453,1,0.016546010971069336,409,1.7094050645828247,0.6312705874443054,3.719923257827759,5,-0.21805798389165965,0.6831559409024255,3.531162624134692,0,256,410,0,0.4051903338350387,3.634708526022272,62.32483177266983,2.5314714967133556,10.354590188757973,63.22982319607885,185.80734215664253,63.1791278308645,30,-3,0,ok,50,249215.0,81,72.0,0,0,0,0,0,0
1778087901.76637,0.1421492099761963,1,0.006554126739501953,413,1.7106316089630127,0.6392050385475159,3.73410701751709,5,0.16279396751106828,0.6340767394739897,3.540502015689426,0,259,414,0,0.6093151357699487,3.6386869867341782,44.65211682588804,7.439391639556936,9.818497104475243,46.32017886828647,150.590058529461,45.718862873253336,-30,-4,22,ok,50,249215.0,81,72.0,0,0,0,0,0,0
1778087901.835653,0.21143221855163574,1,0.016630887985229492,416,1.5445640087127686,0.719362735748291,3.7496111392974854,5,-0.030009818226583374,0.7649221990196151,3.5224176778307728,0,263,417,0,0.49900420598661527,3.631237215494671,52.901402421319865,-5.645154315005607,10.88195376638983,54.30325094463958,167.22511104730012,54.00902976277461,30,-10,-30,ok,50,249225.0,81,72.0,0,0,0,0,0,0
1778087901.90668,0.2824592590332031,1,0.007827997207641602,420,1.393372893333435,0.8641579151153564,3.7545104026794434,5,-0.2662057640617836,0.4600859919900103,3.5352250238831333,0,266,421,0,0.3574416993823772,3.6390862534729385,62.364746344416076,24.83846638795487,10.386122958980515,67.92777450519033,185.89371067776753,63.22367544458658,30,-4,30,ok,50,249225.0,81,72.0,0,0,0,0,0,0
1778087901.977194,0.35297322273254395,1,-0.0022068023681640625,424,1.400217890739441,0.7267049551010132,3.7814126014709473,5,0.15821081093614223,0.633117786223413,3.5407247130820236,0,270,425,0,0.5545773808740821,3.645041524606401,39.63665699379399,7.535286964614607,10.431681152437733,41.6733139904771,140.8273264524672,40.986394685429495,-30,-6,-30,ok,50,249229.0,81,72.0,0,0,0,0,0,0
1778087902.046846,0.4226250648498535,1,0.007943868637084961,427,1.400217890739441,0.7267049551010132,3.7814126014709473,5,0.15358658564729027,0.632153853492785,3.540947443920241,0,273,428,0,0.5414991210816145,3.6474424804069505,38.79125354343242,7.631680237677408,10.649503648670944,40.94405723281548,139.22138473725738,40.22652457563186,22,-7,6,ok,50,249221.99999999997,81,72.0,0,0,0,0,0,0
1778087902.117109,0.4928882122039795,1,-0.0015480518341064453,431,1.448362946510315,0.5910845994949341,3.778125524520874,5,0.14991772608466503,0.6264918095324603,3.5410245649309595,0,277,432,0,0.5345991469249505,3.64899279138901,38.46814208402854,8.197884633709872,10.79682264580506,40.786942115211254,138.62839333532924,39.954590908204494,24,-7,8,ok,50,249221.99999999997,81,72.0,0,0,0,0,0,0
1778087902.188673,0.5644521713256836,1,0.009986162185668945,434,1.4122955799102783,0.7710085511207581,3.7560744285583496,5,-0.04200233266409015,0.7707850935568721,3.533858672053192,0,280,435,0,0.4301905763861747,3.645377896860527,47.21929090502648,-6.231443768731304,11.15192248073349,48.91684474731241,156.04081854298758,48.51831415651007,30,-8,-30,ok,50,249225.0,81,72.0,0,0,0,0,0,0
1778087902.261815,0.6375942230224609,1,0.002927064895629883,438,1.447410225868225,0.6152379512786865,3.7762198448181152,5,-0.04448924436809518,0.7673965669513121,3.5345813598050837,0,284,439,0,0.41257244311450975,3.64925777742337,45.70616874826049,-5.892591108175305,11.46764176182864,47.48982311180203,153.13955457840052,47.122825352710976,24,-8,-2,ok,50,249226.00000000003,81,72.0,0,0,0,0,0,0
1778087902.333327,0.7091062068939209,1,0.014524221420288086,441,1.4514533281326294,0.6386303305625916,3.7734591960906982,5,-0.2753126035881495,0.4827962247617955,3.5450544947633533,0,287,442,0,0.2809621209525836,3.6569538560633554,55.62747245407331,22.567443110776352,11.189936130000211,61.06488230382743,172.7110732925549,56.74178673801319,30,-6,30,ok,50,249223.99999999997,81,72.5,0,0,0,0,0,0
1778087902.403857,0.7796361446380615,1,0.0050048828125,445,1.712946891784668,0.47457483410835266,3.7146642208099365,5,0.06464837006865692,0.8811410556524577,3.5052157238490844,0,291,446,0,0.4614665379729805,3.634850288200749,39.68181679043236,-17.267039978289866,12.963456435166476,45.175750753559804,141.75481358968858,41.745631945580826,-29,-14,-30,ok,50,249223.99999999997,81,72.5,0,0,0,0,0,0
1778087902.4741492,0.8499283790588379,1,0.015472173690795898,448,1.261092185974121,0.6355904340744019,3.7941386699676514,5,0.11698546075738786,0.6144264911838104,3.542453726850216,0,294,449,0,0.4793675391073889,3.655946056406828,36.238207835000104,9.404416468574862,11.34923295566117,39.12104094843247,134.40692342099842,37.97384357389345,12,-1,30,ok,50,249228.00000000003,81,72.5,0,0,0,0,0,0
1778087902.545661,0.9214401245117188,1,0.006685018539428711,452,1.2006374597549438,1.031583547592163,3.7400400638580322,5,0.10678267834678173,0.6123835346832609,3.5428837209829043,0,298,453,0,0.46179237096555475,3.653575269872365,35.5009692618773,9.608712118629814,11.069154888946064,38.40797257168021,132.85937173117856,37.18662405339097,22,-6,7,ok,50,249223.0,81,72.5,0,0,0,0,1,0
1778087902.616801,0.9925801753997803,1,-0.002249002456665039,456,1.5285593271255493,0.5512301921844482,3.7591822147369385,5,0.07422194531332993,0.6031982355074055,3.5447830368343687,0,302,457,0,0.4535333442229606,3.653135528627222,37.93113989096307,10.527242036215355,10.835249179285311,40.82887242006657,137.57968442561273,39.44837129977628,30,-6,11,ok,50,249223.0,81,72.5,0,0,0,0,1,0
1778087902.6886551,1.064434289932251,1,0.009824037551879883,459,1.2979787588119507,0.6782942414283752,3.786221742630005,5,0.07465817802069606,0.6068471425754025,3.544043961588172,0,305,460,0,0.4443524488454959,3.653272004635944,36.96942708247998,10.162351329415653,10.92280430477719,39.86627117288172,135.70868531727896,38.549269677741805,22,-7,6,ok,50,249223.99999999997,81,72.5,0,0,0,0,1,0
1778087902.760073,1.1358520984649658,1,0.0012979507446289062,463,1.2979787588119507,0.6782942414283752,3.786221742630005,5,-0.3994971198133091,0.37799819358487824,3.520202176433707,0,309,464,0,0.20012999860984787,3.64323531918819,59.9627118423157,33.04724622846808,12.303314275448285,69.56305655252675,181.60023198425688,61.211913494392874,30,-13,30,ok,50,249228.00000000003,81,72.5,0,0,0,0,1,0
1778087902.830729,1.2065081596374512,1,0.011765003204345703,466,1.2979787588119507,0.6782942414283752,3.786221742630005,5,-0.39771975191538395,0.3800593701261842,3.5061498806740494,0,312,467,0,0.1916792158677933,3.6368342899216044,58.939896778317724,32.84112857433749,13.068440924755498,68.72579796902134,179.789759298372,60.37131421828228,30,-11,23,ok,50,249228.00000000003,81,72.5,0,0,0,0,1,0
1778087902.901128,1.276907205581665,1,0.002454042434692383,470,1.3363169431686401,0.7044557929039001,3.7795863151550293,5,,,,,316,471,0,,,,,,,,,0,0,0,lost_self,50,249232.00000000003,81,72.5,0,0,0,0,1,0
1778087902.971974,1.3477530479431152,1,0.013100862503051758,473,1.3363169431686401,0.7044557929039001,3.7795863151550293,5,0.0223245383523668,0.6082129741218643,3.5451045237488996,0,319,474,0,0.39450533694141926,3.65669455640055,37.21807985890525,10.025768174769478,11.159003265165035,40.1276070772982,136.27609641885297,38.85497165429171,-10,-4,-30,ok,50,249235.0,81,72.5,0,0,0,0,1,0
1778087903.0430322,1.418811321258545,1,0.004307985305786133,477,1.4093608856201172,0.5559715628623962,3.778050184249878,5,0.1252563146669285,0.7930853653351693,3.510584394960372,0,323,478,0,0.42699709971341576,3.6433961147212823,30.174078504648726,-8.461470946561022,13.281171976091022,34.03617242350712,123.24462264848934,32.96762870852573,-1,-16,-30,ok,50,249235.0,81,72.5,0,0,0,0,1,0
1778087903.113033,1.4888122081756592,1,0.01436305046081543,480,1.4093608856201172,0.5559715628623962,3.778050184249878,5,0.12579140749240025,0.7891838610516786,3.5110877962631193,0,326,481,0,0.43653143985402637,3.6426422850152953,31.07400323616261,-8.071320518211955,13.155448875217601,34.69590360744648,124.94958513575409,33.744029282667306,27,-8,-3,ok,50,249217.0,81,72.5,0,0,0,0,1,0
1778087903.184163,1.5599422454833984,1,0.005438089370727539,484,1.1869903802871704,0.46023815870285034,3.800497055053711,5,0.11688374529566092,0.7868668198814602,3.5115723372294014,0,330,485,0,0.4312246662889208,3.646663117448166,31.434092099325987,-7.839616401190119,13.509078021876464,35.10066837579968,125.8037020293062,34.21399326459942,25,-10,-3,ok,50,249225.0,81,72.5,0,0,0,0,1,0
1778087903.2552068,1.630985975265503,1,0.016609668731689453,487,1.2599149942398071,0.9304934740066528,3.7399742603302,5,0.4540859748361946,0.595331511254473,3.501040458674253,0,334,488,0,0.5830355102538287,3.640196681020171,12.89495354176341,11.3139144615086,13.915622234591796,22.089115633325743,90.19138720578385,18.971672805003312,-30,-11,30,ok,50,249225.0,81,72.5,0,0,0,0,1,0
1778087903.3258219,1.7016010284423828,1,0.0071527957916259766,491,1.2224246263504028,0.7631739377975464,3.7822821140289307,5,,,,,337,492,0,,,,,,,,,0,0,0,lost_self,50,249225.0,81,72.5,0,0,0,0,1,0
1778087903.3978481,1.7736272811889648,1,-0.001216888427734375,495,1.244604229927063,0.5187522172927856,3.796543598175049,5,0.2553198507715456,0.706841624973259,3.5193720031800746,0,341,496,0,0.4803165401661989,3.650007569244647,22.499668939465327,0.16290308963000655,13.063556606457238,26.017650758903354,108.20114139811227,26.017140765188884,30,-8,-18,ok,50,249221.0,81,73.0,0,-1,0,0,1,0
1778087903.470498,1.8462772369384766,1,0.011680126190185547,498,1.2727738618850708,0.5345928072929382,3.7942070960998535,5,0.0790554137240897,0.7735967944308619,3.5163020379991003,0,344,499,0,0.3906090155845409,3.6489716712460254,31.155360186045122,-6.512613856130289,13.266963324692505,34.48308169842135,125.1557492941279,33.86249819757754,30,-10,-26,ok,50,249233.0,80,73.0,0,0,0,0,1,0
1778087903.541172,1.9169511795043945,1,0.002468109130859375,502,1.277212142944336,0.7583186030387878,3.779639482498169,5,0.4080958289731533,0.7048432727594978,3.492127640425127,0,348,503,0,0.5538313097173468,3.636473081200799,14.573548074419357,0.36273831100612774,14.43454407756719,20.515261277568797,93.70501055268716,20.512054168333364,-30,-14,25,ok,50,249233.0,80,73.0,0,0,0,0,1,0
1778087903.612779,1.988558053970337,1,0.014151811599731445,505,0.9059565663337708,0.6149464845657349,3.809755802154541,5,0.2478620457960696,0.6937510648897982,3.522897382303781,0,351,506,0,0.4468168945766256,3.6537435450775955,19.8954848780556,1.4719590979760833,13.084616277381445,23.858000026099614,103.16523822184661,23.81254924738749,30,-5,6,ok,50,249217.99999999997,80,73.0,0,-1,0,0,1,0
1778087903.684015,2.0597941875457764,1,0.005375862121582031,509,0.9059565663337708,0.6149464845657349,3.809755802154541,5,0.14660101312404844,0.8954748028238082,3.4980144237002926,0,355,510,0,0.3647236082852184,3.6432836668948925,21.812259516116995,-18.700414695424918,14.526924319459988,32.194901850488975,107.62047697996464,26.20698752969815,26,-15,-30,ok,50,249219.0,80,73.0,0,-1,0,0,1,0
1778087903.7548301,2.1306092739105225,1,0.01601409912109375,512,0.522180438041687,0.41874656081199646,3.7741281986236572,5,0.14453125484953952,0.8942533874815748,3.498577848819296,0,358,513,0,0.30823995117431197,3.6433202553527555,16.370869632477245,-18.578273161201576,14.474240653345971,28.682071903312035,97.15474652250757,21.851979658935683,-2,-10,-11,ok,50,249219.0,80,73.0,0,-1,0,0,1,0
1778087903.825056,2.2008352279663086,1,0.006293058395385742,516,0.606652557849884,0.5934382677078247,3.7903330326080322,5,0.029534766495935172,0.9654081881475224,3.479723636837384,0,362,517,0,0.2144705930951794,3.633257897958945,18.493582659924424,-25.693753227796336,15.353426112156088,35.18393451437443,101.73210412797641,24.036228759539082,25,-14,-30,ok,50,249219.0,80,73.0,0,0,0,0,1,0
1778087903.896783,2.272562265396118,1,-0.0017609596252441406,520,0.5968059301376343,0.567473292350769,3.7928318977355957,5,0.5223370615653774,0.700693975364927,3.4788766153217834,0,366,521,0,0.4194274241235148,3.6361379895389816,-10.29096374418626,0.7776680504632094,15.726137421719821,18.810106341743097,50.428464515184146,18.79402386374383,-30,-13,30,ok,50,249225.0,80,73.0,0,0,0,0,1,0
1778087903.967978,2.343757152557373,1,0.009351968765258789,523,0.5968059301376343,0.567473292350769,3.7928318977355957,5,0.2223581467745181,0.6612162309420168,3.531998133910428,0,369,524,0,0.22895057299124583,3.6624667675558378,0.6592426216727731,4.725442492754228,13.046863364540995,13.89190596137043,66.63962190131629,13.06350812328878,30,0,18,ok,50,249229.0,80,73.0,0,0,0,0,1,0
1778087904.0383842,2.41416335105896,1,-0.00015473365783691406,527,0.4918522536754608,0.3932938873767853,3.7898178100585938,5,0.12788117125984275,0.8791336307700001,3.5046556120086128,0,373,528,0,0.13290448472080751,3.6485211762273515,0.5023313460964768,-17.066297490044104,14.386556421873875,22.326751946481536,67.44969157014198,14.395323631687878,6,-15,-30,ok,50,249229.0,80,73.0,0,0,0,0,1,0
1778087904.1096141,2.4853932857513428,1,0.011078119277954102,530,0.4918522536754608,0.3932938873767853,3.7898178100585938,5,0.11270107478230458,0.8757129267148023,3.4934689290562404,0,376,531,0,0.07622944340273374,3.643563980223692,-3.647163137957084,-16.724227084524323,15.009505116745148,22.765913431690123,60.654999943188436,15.446263069249849,-10,-13,-10,ok,50,249227.0,80,73.0,0,0,0,0,1,0
1778087904.180778,2.5565571784973145,1,0.0019609928131103516,534,0.8618695735931396,0.7254241704940796,3.812896966934204,5,0.11049867840320733,0.8741731655167257,3.494142846358291,0,380,535,0,0.07237280816689567,3.6440972616734464,-3.8125870236311656,-16.57025096471667,14.99544153151553,22.670957270736395,60.35375266277951,15.472526831059676,3,-11,-10,ok,50,249225.0,80,73.0,0,0,0,0,1,0
1778087904.2528472,2.6286263465881348,1,0.014316082000732422,537,0.4791005551815033,0.7055145502090454,3.769036054611206,5,0.3826632398481011,0.786422750314877,3.4806805136429952,0,383,538,0,0.18177658819232584,3.63482111109434,-20.088665165577524,-7.7952094445317925,15.414059745134479,26.493640675554207,36.6512098586997,25.32089465167578,-30,-13,25,ok,50,249219.99999999997,80,73.0,0,-1,0,0,1,0
1778087904.324235,2.700014114379883,1,0.005555868148803711,541,0.8853467106819153,0.6772466897964478,3.824540853500366,5,-0.006493571977770866,0.7356379444001779,3.527785667209816,0,387,542,0,0.009896074319404091,3.6615244788075447,1.638964629717496,-2.7167288530618894,13.373881159772871,13.745090687014464,68.69890188689315,13.473934181715183,30,-3,16,ok,50,249219.99999999997,80,73.0,0,-1,0,0,1,0
1778087904.3966222,2.7724013328552246,1,-0.0017390251159667969,545,0.6260393857955933,0.6540715098381042,3.8119966983795166,5,-0.005152857204745848,0.951273218557399,3.473453371886872,0,391,546,0,0.011778108452523417,3.6357123102567908,1.6930965657269266,-24.280256268783994,16.225893836991865,29.25195807579437,71.21044869213569,16.313988071290446,7,-22,-30,ok,50,249217.99999999997,80,72.0,0,-1,0,0,0,0
1778087904.4668229,2.842602014541626,1,0.008226871490478516,548,0.8832668662071228,0.6426355838775635,3.8320016860961914,5,0.38253383487249776,0.8909461436434389,3.4706282525303873,0,394,549,0,0.2235252629954883,3.6367478623510854,-15.900857187700945,-18.24754877738799,16.611960982069807,29.355877492533324,43.57719934605314,22.995532326377454,-30,-14,8,ok,50,249217.99999999997,80,72.0,0,-1,0,0,0,0
1778087904.536754,2.9125330448150635,1,-0.0015742778778076172,552,0.4732511043548584,0.6595900058746338,3.7821943759918213,5,0.48476519847680294,0.8723486198828538,3.447290678492947,0,398,553,0,0.26691876818621735,3.6244142302233793,-21.784643029058557,-16.38779640132948,17.712355173043235,32.50935355510731,39.04969223622781,28.076648619084526,-27,-17,-4,ok,50,249223.0,80,72.0,0,-1,0,0,0,0
1778087904.607328,2.983107089996338,1,0.008836984634399414,555,0.4764656126499176,0.6455098986625671,3.787750005722046,5,0.3967793125728845,0.9846051153733087,3.439395278513024,0,401,556,0,0.22196416017016168,3.6203372924623833,-17.481515240272284,-27.61344595037497,18.094201394935936,37.35647061046659,44.00511719334639,25.159560791404402,10,-15,-30,ok,50,249219.0,80,72.0,0,-1,0,0,0,0
1778087904.677836,3.053615093231201,1,-0.0005691051483154297,559,0.6474058628082275,0.5792897939682007,3.834320068359375,5,0.48330132488902905,0.8689018137578404,3.4499376405116053,0,405,560,0,0.2749472668990319,3.628389864605473,-20.835405798999716,-16.043115788828132,17.84522240938675,31.779673721786644,40.12190173506176,27.432938188416315,-18,-13,29,ok,50,249223.0,80,72.0,0,-1,0,0,0,0
1778087904.7489002,3.1246793270111084,1,0.010451316833496094,562,0.4106353223323822,0.48795032501220703,3.780834913253784,5,0.3682635994542982,0.7526868215794601,3.5059687441588894,0,408,563,0,0.18922626347786914,3.654401538074089,-17.90373359764291,-4.421616570990105,14.843279391519948,23.673134835313693,38.29582765636558,23.256539291779596,5,-1,30,ok,50,249219.99999999997,80,72.0,0,-2,0,0,0,0
1778087904.8200178,3.1957969665527344,1,0.0017118453979492188,566,0.48414894938468933,0.6152092814445496,3.7825024127960205,5,0.37513012311207855,0.7569219975444357,3.5045388661001287,0,412,567,0,0.1929750499444584,3.6545282464312594,-18.215507316762015,-4.845134167487664,14.998938033113074,24.088341039372818,38.149307198032076,23.59603460177528,-6,-12,-5,ok,50,249219.99999999997,80,72.0,0,-2,0,0,0,0
1778087904.892223,3.2680020332336426,1,0.01375889778137207,569,0.4124622941017151,0.4699331223964691,3.7862300872802734,5,0.37719787422978635,0.7563481277648811,3.517948112259574,0,415,570,0,0.16445364946704982,3.6588384466222266,-21.274422476273653,-4.78774718953221,14.089033436265241,25.961980625870034,33.14432478061713,25.516698745472105,-17,-8,-3,ok,50,249216.0,80,72.0,0,-1,0,0,0,0
1778087904.9662678,3.3420469760894775,1,0.007788658142089844,573,0.4931783676147461,0.5909876227378845,3.7922205924987793,5,0.37719787422978635,0.7563481277648811,3.517948112259574,0,419,574,0,0.15614983583074687,3.6576024400046805,-22.104803839903948,-4.78774718953221,13.965432774510633,26.581538490668326,32.085350862084745,26.14680985091696,-10,-11,-3,ok,50,249219.0,80,72.0,0,-1,0,0,0,0
1778087905.037809,3.413588047027588,1,-0.0007190704345703125,577,0.50631183385849,0.5714898705482483,3.799290418624878,5,0.38447860992393923,0.8772316805898798,3.4881978506326066,0,423,578,0,0.13623051415603377,3.6406828549742394,-24.824809576790546,-16.876102472032073,15.248500434163281,33.66883975816685,32.20554991967419,29.133965332830847,-19,-17,-30,ok,50,249223.0,80,72.0,0,-1,0,0,0,0
1778087905.108431,3.484210252761841,1,0.010087251663208008,580,0.50631183385849,0.5714898705482483,3.799290418624878,5,0.504738706779918,0.7639369182637046,3.499535661925861,0,426,581,0,0.1984268581780001,3.647420263285433,-30.631184860191784,-5.546626239414554,14.788460135957182,34.46350391024974,29.60384755537897,34.01423289054212,-30,-11,30,ok,50,249223.0,80,72.0,0,-1,0,0,0,0
1778087905.179997,3.5557761192321777,1,0.0016331672668457031,584,0.706571102142334,0.4455606937408447,3.8311779499053955,5,0.6361262106565225,0.6843274852502623,3.4771561041422236,0,430,585,0,0.27850220320957836,3.6389447309050733,-35.76240074469442,2.4143170619296717,16.178862676284965,39.32599434722193,34.34884917085528,39.25181402842684,-30,-18,28,ok,50,249227.0,80,72.0,0,-1,0,0,0,0
1778087905.252214,3.627993106842041,1,0.013800859451293945,587,0.706571102142334,0.4455606937408447,3.8311779499053955,5,0.2421825135091108,0.7807967085645646,3.5381410774383317,0,433,588,0,0.0852281820942542,3.6692408351497536,-15.69543314148566,-7.232605269500558,13.10997577114219,21.691672715657244,38.806808563943626,20.450381077593192,30,-1,-30,ok,50,249228.00000000003,80,72.0,0,-1,0,0,0,0
1778087905.323232,3.6990110874176025,1,0.004839897155761719,591,0.706571102142334,0.4455606937408447,3.8311779499053955,5,0.5041664829803176,0.8787618659972284,3.484928936527817,0,437,592,0,0.2347161530679796,3.645781204485222,-26.945032991233802,-17.029121012766936,16.085226795740493,35.70378532363965,32.74552454886364,31.381034463017404,-30,-24,-30,ok,50,249228.00000000003,80,72.0,0,-1,0,0,0,0
1778087905.394782,3.7705612182617188,1,0.01635909080505371,594,0.706571102142334,0.4455606937408447,3.8311779499053955,5,0.28105737553951776,0.915509342398917,3.5147485447251667,0,441,595,0,0.1370629838949325,3.663733229653233,-14.399439164458528,-20.703868652935796,14.898468492806627,29.290926733036482,43.14356785499231,20.71975414144902,30,-8,-28,ok,50,249232.00000000003,80,72.5,0,-1,0,0,0,0
1778087905.4655302,3.8413093090057373,1,0.007131099700927734,598,0.706571102142334,0.4455606937408447,3.8311779499053955,5,0.22603360047598342,0.6008684176454203,3.567444347753156,0,444,599,0,0.12793289686570397,3.6928903725812976,-9.810070361027945,10.760223822413872,12.544602482814149,19.21944194425501,47.53947034953036,15.924965680972312,15,-3,30,ok,50,249230.00000000003,79,72.5,0,-1,0,0,0,0
1778087905.5358489,3.911628007888794,1,-0.0022611618041992188,602,0.706571102142334,0.4455606937408447,3.8311779499053955,5,0.18084801375830847,0.9720681645945409,3.5168306996929806,0,448,603,0,0.11867714941484075,3.6700183833891233,-6.217086434346772,-26.35975087249819,15.318768369614277,31.11516180504615,56.57885265832905,16.5322965160329,13,-23,-30,ok,50,249230.00000000003,79,72.5,0,-1,0,0,0,0
1778087905.6057248,3.981503963470459,1,0.0071468353271484375,605,0.706571102142334,0.4455606937408447,3.8311779499053955,5,0.41183333065448374,0.6419005748909148,3.544627785954162,0,451,606,0,0.2466860121306686,3.6859098972247466,-16.514731852381516,6.657008097864425,14.128211127058465,22.73012262663437,39.06194089719105,21.733446984010687,-30,-8,30,ok,50,249221.99999999997,79,72.5,0,0,0,0,0,0
1778087905.6765099,4.052289009094238,1,-0.001680135726928711,609,0.2754397690296173,0.3108620345592499,3.6882333755493164,5,0.11746809324239603,0.8734099926569394,3.550132785840868,0,455,610,0,0.08507388937282023,3.6817213319758766,-3.2394203869575797,-16.49393367873804,13.158854613500859,21.347110984423587,59.64173290457732,13.551726797079745,30,-8,-30,ok,50,249226.00000000003,79,72.5,0,0,0,0,0,0
1778087905.746024,4.121803045272827,1,0.00781702995300293,612,0.20090700685977936,0.3871208429336548,3.6749799251556396,5,0.26262423292624715,0.8120019508255447,3.5425781609085982,0,458,613,0,0.12604795325958612,3.668181642962882,-13.657627966666103,-10.353129495598568,12.560348205428395,21.248069066861145,41.22307464115224,18.55513806786326,-30,-9,13,ok,50,249226.00000000003,79,72.5,0,0,0,0,0,0
1778087905.81516,4.19093918800354,1,-0.0030601024627685547,616,0.35895898938179016,0.3782094419002533,3.708416223526001,5,0.2617680705445228,0.8157172017495654,3.542256350776181,0,462,617,0,0.10389411502118995,3.6603481299979617,-15.787395552333283,-10.724654588000638,11.80917792217806,22.44363512346905,36.956991673213494,19.71543916638659,-12,-8,-10,ok,50,249227.0,79,72.5,0,0,0,0,0,0
1778087905.885429,4.2612080574035645,1,0.007193088531494141,619,0.352073073387146,0.3715047240257263,3.708338737487793,5,0.2592129755543088,0.8183726523388921,3.55665461451683,0,465,620,0,0.0804604407288837,3.659869811092186,-17.875253482542508,-10.990199646933307,10.321519657535605,23.38467325804436,31.84608272007664,20.64118347154644,-13,-5,-10,ok,50,249228.00000000003,79,72.5,0,0,0,0,0,0
1778087905.955414,4.331193208694458,1,-0.002913951873779297,623,0.6859734654426575,0.5267376899719238,3.763577938079834,5,0.2585749340819339,0.8221579763971549,3.556318046932035,0,469,624,0,0.07885406769896647,3.6554765265606903,-17.97208663829674,-11.36873205275959,9.915847962865554,23.464185633525673,31.176577147551342,20.52607948335749,-6,-9,-10,ok,50,249221.99999999997,79,72.5,0,0,0,0,0,0
1778087906.027489,4.403268098831177,1,0.009090900421142578,626,0.4275015890598297,0.4711839258670807,3.720473527908325,5,0.3927622710030561,0.806253307751725,3.5494205686990883,0,472,627,0,0.12850589159187104,3.6451087610694004,-26.425637941118506,-9.778265188216595,9.568819237031212,29.75720269577013,20.429230599212506,28.104744122408597,-30,-9,-2,ok,50,249221.99999999997,79,72.5,0,0,0,0,0,0
1778087906.097971,4.473750114440918,1,-0.0003120899200439453,630,0.4192974865436554,0.45889636874198914,3.7055611610412598,5,0.391546947206482,0.80947144514181,3.549355588894697,0,476,631,0,0.10994362871866659,3.637225221863196,-28.16033184878154,-10.100078927225098,8.786963296849937,31.180548554344973,17.954955069483795,29.499407007831323,-19,-7,-9,ok,50,249225.0,79,72.5,0,-1,0,0,0,0
1778087906.16792,4.543699264526367,1,0.009549140930175781,633,0.31444892287254333,0.5197327136993408,3.6835708618164062,5,0.4000650226325168,0.6727198585954164,3.5745565150047853,0,479,634,0,0.08969503022732211,3.6406002419126784,-31.03699924051947,3.5750797274142654,6.604372690789306,31.932651871590906,13.370580550399724,31.731893427509956,-25,0,30,ok,50,249217.99999999997,79,72.5,0,-1,0,0,0,0
1778087906.237931,4.613710165023804,1,0.019607067108154297,636,0.6416035890579224,0.4798581302165985,3.749215602874756,5,0.11838917522428186,0.8996957959388545,3.5617569293143925,0,483,637,0,-0.028257654725026338,3.638011838275322,-14.66468299493082,-19.12251400692955,7.625490896092968,25.275909097269412,34.2531784833093,16.5287942315285,30,-13,-30,ok,50,249217.99999999997,79,72.5,0,-1,0,0,0,0
1778087906.307433,4.683212041854858,1,0.009213924407958984,640,0.40803760290145874,0.4302424490451813,3.70696759223938,5,,,,,486,641,0,,,,,,,,,0,0,0,lost_self,50,249223.0,79,72.5,0,-1,0,0,0,0
1778087906.377791,4.753570079803467,1,-0.0004379749298095703,644,0.430441290140152,0.6925742030143738,3.72438907623291,5,0.2540826747304997,0.843074113944893,3.5696271862340336,0,490,645,0,0.0539349877331059,3.645035038677472,-20.01476869973938,-13.460345807533391,7.540785244343828,25.27123498097714,25.025449943688788,21.388183845417565,-18,-9,-1,ok,40,249221.0,79,72.5,0,-1,0,0,0,0
1778087906.4490309,4.824810028076172,1,0.008109807968139648,647,0.430441290140152,0.6925742030143738,3.72438907623291,5,0.2558637630463297,0.8450238587392146,3.5688508626189464,0,493,648,0,0.059293175688418465,3.6456451801641103,-19.65705873579112,-13.655320286965555,7.679431754516397,25.136455644227766,25.764324642198527,21.103877137024295,-7,-10,-12,ok,40,249221.0,79,72.5,0,-1,0,0,0,0
1778087906.519027,4.894806146621704,1,0.0008189678192138672,651,0.7299906611442566,0.555486261844635,3.654649257659912,5,0.2596212252426773,0.8517368722177406,3.5814107253275402,0,497,652,0,0.0847917560214117,3.6485695190291647,-17.48294692212656,-14.32662163481816,6.7158793701624475,23.579833677609088,28.40983304906064,18.728493500451872,0,-5,-14,ok,40,249219.99999999997,79,72.5,0,0,0,0,0,0
1778087906.5894568,4.965235948562622,1,0.01134181022644043,654,0.7299906611442566,0.555486261844635,3.654649257659912,5,0.40259995205332805,0.7000631200398455,3.5859782058443788,0,500,655,0,0.15903219415808706,3.644045216761339,-24.3567757895241,0.8407535829713542,5.806701091696009,25.053486204852415,16.194289988511994,25.039375080649496,-30,-5,30,ok,40,249227.0,79,72.5,0,0,0,0,0,0
1778087906.6620858,5.037864923477173,1,0.0038928985595703125,658,0.3780916929244995,0.5586837530136108,3.7331955432891846,5,0.23785255090755733,0.7022058310697631,3.6141061179883534,0,504,659,0,0.07357037507674352,3.6589042987946296,-16.42821758308138,0.6264824799795954,4.479818080627629,17.039588706606267,28.584054856349532,17.028068093374024,20,-3,-2,ok,40,249227.0,79,72.5,0,0,0,0,0,0
1778087906.733984,5.109763145446777,1,0.01586604118347168,661,0.5782881379127502,0.4940679967403412,3.6840317249298096,5,0.24214671669667137,0.7077265205282117,3.6126353252434127,0,507,662,0,0.08565437368186896,3.656823312665194,-15.649234301480242,0.07441353413473184,4.4187987421781205,16.261299269140924,30.031334199977618,16.261129005899335,-3,-7,-4,ok,40,249217.99999999997,79,72.5,0,0,0,0,0,0
1778087906.803692,5.179471254348755,1,0.0051021575927734375,665,0.2785283029079437,0.5877444744110107,3.723531723022461,5,0.14765278639137858,0.9228489954960867,3.5830277193530256,0,511,666,0,0.03616236978143511,3.6445170635453787,-11.149041660994346,-21.437833962652764,6.148934419235319,24.933737173976,39.656930026969235,12.732263131534957,12,-15,-30,ok,40,249227.0,79,72.5,0,0,0,0,0,0
1778087906.873984,5.249763250350952,1,0.01591205596923828,668,0.2785283029079437,0.5877444744110107,3.723531723022461,5,0.4182411197807763,0.7117626488965367,3.5940005151942387,0,514,669,0,0.1487643310917603,3.648398218975217,-26.947678868901605,-0.3291993026977691,5.439770378097819,27.49321498786152,12.475218002709259,27.49124402765136,-30,-5,30,ok,40,249227.0,79,72.5,0,0,0,0,0,0
1778087906.944244,5.320023059844971,1,0.00595402717590332,672,0.5438207983970642,0.36647799611091614,3.6761066913604736,5,0.29121653060191965,0.8751274724811022,3.6009738253552905,0,518,673,0,0.092338255768389,3.6488672250012155,-19.887827483353064,-16.66568166115432,4.789339964592498,26.385761397674155,22.37800798130812,20.456379428042894,15,-5,-30,ok,50,249221.0,79,72.5,0,0,0,0,0,0
1778087907.016141,5.39192008972168,1,-0.00186920166015625,676,0.6777116060256958,0.364061564207077,3.633934497833252,5,0.46174648060812556,0.5742526383741489,3.6068040432252366,0,522,677,0,0.19305762551433842,3.64612892278621,-26.868885509378714,13.421801749541018,3.9324879560973525,30.29102560569606,10.053524651231358,27.155137083818087,-30,-4,30,ok,50,249226.00000000003,79,72.5,0,0,0,0,0,0
1778087907.088266,5.46404504776001,1,0.009979724884033203,679,0.4103720486164093,0.33237192034721375,3.690568208694458,5,0.42923218335338764,0.7291376353648058,3.604645306801685,0,525,680,0,0.15682431360397903,3.6472944890140933,-27.24078697494086,-2.0666979495246762,4.264918221240821,27.649977266944525,10.159288154497432,27.57263140231595,-15,-8,-30,ok,50,249229.0,79,72.5,0,0,0,0,0,0
1778087907.1614752,5.537254333496094,1,0.003379344940185547,683,0.6870890259742737,0.4323125183582306,3.625335693359375,5,0.16786451349092874,0.9335993745868637,3.608083865570282,0,529,684,0,0.023459126474625613,3.647181670629608,-14.440538701630313,-22.512871871730468,3.909780505932625,27.030444715372454,32.08633475484758,14.960465955238615,30,-6,-30,ok,50,249229.0,79,72.5,0,0,0,0,0,0
1778087907.2335842,5.609363317489624,1,0.015420198440551758,686,0.43155544996261597,0.4496217370033264,3.6809144020080566,5,0.2921370268145533,0.5083327106976014,3.6440289966635855,0,532,687,0,0.08893686795132022,3.6618866648461896,-20.320015886323304,20.01379451719576,1.7857668182604147,28.57698339094185,19.686650865013373,20.398333479714257,-30,0,30,ok,50,249221.0,79,72.5,0,0,0,0,0,0
1778087907.304427,5.680206060409546,1,0.006155967712402344,690,0.5151253342628479,0.32878774404525757,3.6609976291656494,5,0.29828003190569685,0.5227266444300445,3.6574731202054895,0,536,691,0,0.08806069526877308,3.6671690956318814,-21.021933663692376,18.57440114395146,0.969597542639189,28.069025494516193,18.060542022191044,21.044282224760597,-13,-2,5,ok,50,249231.0,79,72.5,0,0,0,0,0,0
1778087907.3756428,5.751421928405762,1,-0.002472400665283203,694,0.43628719449043274,0.30980372428894043,3.6751997470855713,5,0.4400071794881336,0.7385179408068714,3.6152960966113494,0,540,695,0,0.16878419978389703,3.6430598353387555,-27.12229797042366,-3.0047284937312346,2.7763738727406118,27.429103018486124,7.997354775740441,27.26402939914942,-30,-13,-30,ok,50,249231.0,79,72.5,0,0,0,0,0,0
1778087907.446474,5.822253227233887,1,0.008248090744018555,697,0.5104366540908813,0.2159605622291565,3.657758951187134,5,0.11608566137987968,0.7998432737184581,3.643057380094074,0,543,698,0,0.021317712678703638,3.65282967884041,-9.476794870117605,-9.137261784889905,0.9772298746336006,13.200536813469869,41.092915546653906,9.52704672173721,30,0,-30,ok,50,249227.0,79,72.0,0,0,0,0,0,0
1778087907.5182788,5.894057989120483,1,0.0003268718719482422,701,0.24391236901283264,0.23101624846458435,3.6933438777923584,5,0.10780802967895636,0.7993452387816451,3.6436055223334884,0,547,702,0,-0.001565380008272499,3.65418107411211,-10.937340968722886,-9.087458291208605,1.0575551778621683,14.25923380181359,38.18394386634015,10.988350668791345,-9,-6,-8,ok,50,249221.99999999997,78,72.0,0,0,0,0,0,0
1778087907.589785,5.965564250946045,1,0.011776924133300781,704,0.24391236901283264,0.23101624846458435,3.6933438777923584,5,0.12464223188823899,0.8030173138326158,3.6419293342646846,0,550,705,0,-0.020260731216935113,3.6570560663251523,-14.490296310517408,-9.454665796305672,1.5126732060467774,17.368004281284556,31.166590366213736,14.569037970809406,-19,-7,-10,ok,50,249221.99999999997,78,72.0,0,-1,0,0,0,0
1778087907.663451,6.039230108261108,1,0.0026247501373291016,708,0.37718692421913147,0.3008197247982025,3.6841509342193604,5,0.1265911374852255,0.8109539148181657,3.6561332312795174,0,554,709,0,-0.02136034869327169,3.663756935177875,-14.79514861784972,-10.248325894860667,0.7623703898357537,18.01404493396279,30.447903978078728,14.814777461560425,-8,-3,-12,ok,50,249221.99999999997,78,72.0,0,-1,0,0,0,0
1778087907.7347798,6.110558986663818,1,0.0169827938079834,711,0.3435291051864624,0.29625144600868225,3.693345308303833,5,0.2967953196556984,0.7580363889609667,3.6426020904638303,0,557,712,0,0.042269247342726524,3.6612419657040602,-25.452607231297186,-4.956573309140766,1.863987524022992,25.997639956913048,9.829187246677925,25.5207692744634,-30,-10,12,ok,50,249217.0,78,72.0,0,0,0,0,0,0
1778087907.804564,6.180343151092529,1,0.006456136703491211,715,0.3959188163280487,0.04401256516575813,3.6594934463500977,5,-0.015708464982338414,0.6239939507177197,3.6775197921338405,0,561,716,0,-0.11620993457845233,3.677362006810443,-10.050146959611391,8.447670515183937,-0.015778532339760787,13.128931411389766,39.89971856016959,10.050159345595914,30,1,30,ok,50,249228.00000000003,78,72.0,0,0,0,0,0,0
1778087907.8768692,6.25264835357666,1,-0.0012917518615722656,719,0.36890140175819397,0.03988470137119293,3.6658308506011963,5,0.1310604232476735,0.818834549296767,3.6411009091507034,0,565,720,0,-0.05196448624498723,3.659454641658596,-18.302490949266073,-11.036389342720799,1.8353732507892406,21.45114588178917,23.681242616190122,18.394286338906415,-30,-12,-30,ok,50,249228.00000000003,78,72.0,0,0,0,0,0,0
1778087907.947962,6.32374119758606,1,0.010057210922241211,722,0.18151046335697174,-0.011227269656956196,3.678593873977661,5,0.3080237900512827,0.5860401564724902,3.6548079295347353,0,568,723,0,0.02059365146097608,3.6665202847813676,-28.743013859030665,12.243049939706886,1.1712355246632278,31.263795517832104,3.4361646135318487,28.766867023620453,-30,-3,30,ok,50,249221.0,78,72.0,0,0,0,0,0,0
1778087908.0200121,6.395791292190552,1,0.0019102096557617188,726,0.21231277287006378,0.12179841846227646,3.649768590927124,5,0.15084515873581805,0.8300317567766071,3.638967185536396,0,572,727,0,-0.07662840677305738,3.6581005152659474,-22.74735655088754,-12.156110090704807,1.9133329729551285,25.862600133318747,15.001557261211401,22.827682167022644,8,-9,-30,ok,50,249221.0,78,72.0,0,0,0,0,0,0
1778087908.091743,6.467522144317627,1,0.01376795768737793,729,0.21231277287006378,0.12179841846227646,3.649768590927124,5,0.31255509929885766,0.5990447560220109,3.653428189230296,0,575,730,0,0.0022515887495394016,3.6626075616838203,-31.030351054931828,10.942589984754814,0.9179372453524071,32.91603820257186,2.759878318190351,31.043925257265936,-30,-2,30,ok,50,249221.0,78,72.0,0,0,0,0,0,0
1778087908.163719,6.5394980907440186,1,0.0059108734130859375,733,0.35593855381011963,0.10715126246213913,3.691241979598999,5,0.31584684134884866,0.6084323188674154,3.6533087501265014,0,579,734,0,0.01089909632436531,3.662416473494838,-30.494774502448337,10.00383370021436,0.910772336833654,32.10665767261144,2.07297665960274,30.508372264096856,-15,-5,1,ok,40,249211.0,78,72.0,0,-1,0,0,-1,0
1778087908.235111,6.61089015007019,1,-0.0027670860290527344,737,0.26366305351257324,-0.004038472659885883,3.6431667804718018,5,0.32068199736579855,0.6139118781490516,3.652308207081501,0,583,738,0,0.0062214324136803945,3.6593546923631153,-31.446056495211817,9.455877772050748,0.7046485281614334,32.84455241114204,3.217209309687118,31.45395044582307,-21,-5,2,ok,40,249211.0,78,72.0,0,-1,0,0,-1,0
1778087908.307128,6.6829071044921875,1,0.008607864379882812,740,0.29603996872901917,0.0721454843878746,3.659956455230713,5,,,,,586,741,0,,,,,,,,,0,0,0,lost_self,40,249217.0,78,72.0,0,0,0,0,-1,0
1778087908.377265,6.753044128417969,1,-0.0006670951843261719,744,0.2576510012149811,0.043655332177877426,3.640070915222168,5,0.08716536607081153,0.6559147484655015,3.6760744180581164,0,590,745,0,-0.11590426473203072,3.6679081482838187,-20.306963080284223,5.255590740405758,-0.8166269774297685,20.991923761173755,19.454752051592852,20.323376421360024,7,-2,-5,ok,40,249212.0,78,72.0,0,-1,0,0,-1,0
1778087908.4489548,6.8247339725494385,1,0.011015892028808594,747,0.37034520506858826,-0.025465073063969612,3.6619651317596436,5,0.3381137713397232,0.8047196301710942,3.6339090881858107,0,593,748,0,0.00797158719870883,3.6469799636857627,-33.014218414101435,-9.624897430153512,1.3070875499952006,34.41345297842579,6.570841806423481,33.040083162082794,-30,-13,-30,ok,40,249212.0,78,72.0,0,-1,0,0,-1,0
1778087908.521974,6.8977532386779785,1,0.0040130615234375,751,0.37034520506858826,-0.025465073063969612,3.6619651317596436,5,0.11293122376277577,0.6598679336455329,3.675129318425534,0,597,752,0,-0.10452944888286525,3.6673484713780273,-21.7460672645641,4.860272222402617,-0.77808470475067,22.296167907480687,16.58105200629529,21.759982933879186,25,2,30,ok,40,249219.99999999997,78,72.0,0,-1,0,0,-1,0
1778087908.594759,6.970538139343262,1,-0.003593921661376953,755,0.10050592571496964,0.14967548847198486,3.5945820808410645,5,-0.053550925831338275,0.809317042936231,3.649441051014768,0,601,756,0,-0.19283330728254738,3.649253600601607,-13.928238145120911,-10.084638706667192,-0.01874504131609278,17.19581655658682,32.14354557272861,13.928250758935063,18,-7,-30,ok,40,249223.99999999997,78,72.0,0,0,0,0,-1,0
1778087908.6669009,7.042680025100708,1,0.009003877639770508,758,0.10050592571496964,0.14967548847198486,3.5945820808410645,5,-0.040518823395387205,0.8039940086458899,3.65117335545355,0,604,759,0,-0.19330518401176525,3.6466705959406194,-15.278636061637805,-9.552335277633084,-0.4502759512930776,18.024610331227848,29.45649705161995,15.285269652063455,-14,-3,-7,ok,40,249216.0,78,72.0,0,0,0,0,-1,0
1778087908.739282,7.115061044692993,1,0.001416921615600586,762,0.20595486462116241,0.11530201137065887,3.6445775032043457,5,-0.42878372178399626,0.3111640495930984,3.6536746152687094,0,608,763,0,-0.3878350024716261,3.6475967828655254,4.094871931237015,39.73066062764607,-0.6077832403184047,39.94574784015978,68.20057748948071,4.139731464774582,30,-4,30,ok,40,249216.0,78,72.0,0,0,0,0,-1,0
1778087908.8097339,7.185513019561768,1,0.012040853500366211,765,0.24031871557235718,0.026263268664479256,3.6382784843444824,5,,,,,611,766,0,,,,,,,,,0,0,0,lost_self,40,249219.99999999997,78,72.0,0,0,0,0,-1,0
1778087908.880258,7.25603723526001,1,0.0022940635681152344,769,0.3599730432033539,-0.04353952407836914,3.660843849182129,5,-0.2660301802690515,0.4531883262999912,3.686668999679171,0,615,770,0,-0.3062060761270766,3.6621940919197016,-4.0175895858025115,25.528232956956785,-2.4474907759469477,25.958079957557512,52.19486036115599,4.704384888409343,-17,0,-9,ok,40,249219.99999999997,78,72.0,0,0,0,0,-1,0
1778087908.952574,7.3283531665802,1,0.014702081680297852,772,0.2177954763174057,0.10355395823717117,3.649221420288086,5,-0.4389070563175791,0.2896282488193871,3.652950787778258,0,618,773,0,-0.39551123772603836,3.6457134009577628,4.339581859154073,41.88424070501719,-0.7237386820495129,42.11466950871173,68.69441549184148,4.399519109197492,30,-10,30,ok,40,249219.99999999997,78,72.0,0,0,0,0,-1,0
1778087909.023294,7.399073123931885,1,0.005636930465698242,776,0.3589724600315094,-0.03823203220963478,3.646103620529175,5,-0.4429405444826105,0.28428193792278367,3.6524210082953275,0,622,777,0,-0.39119539063252107,3.6458255552979857,5.174515385008943,42.418871794677536,-0.6595452997341766,42.73840537274858,70.36139659138757,5.216378961702811,5,-5,30,ok,40,249217.99999999997,78,72.0,0,0,0,0,0,0
1778087909.0953012,7.471080303192139,1,-0.002362966537475586,780,0.33272284269332886,0.05741436406970024,3.661870002746582,5,-0.2661654815616733,0.40685358013285977,3.6739118465425036,0,626,781,0,-0.30515925682050615,3.6565650288582576,-3.8993775258832852,30.161707573669926,-1.7346817684245952,30.46215471181653,52.31640715393484,4.267817466465538,-30,0,-22,ok,40,249216.0,78,72.0,0,0,0,0,0,0
1778087909.168276,7.544055223464966,1,0.010471105575561523,783,0.3589724600315094,-0.03823203220963478,3.646103620529175,5,-0.19736965630675266,0.6805452413322859,3.6729864027919903,0,629,784,0,-0.27147214075786325,3.6551109625310962,-7.410248445111059,2.792541453727315,-1.7875440260894049,8.118213069035836,45.32073207514703,7.622801037904556,-16,-4,-30,ok,40,249223.0,78,72.0,0,0,0,0,0,0
1778087909.240234,7.616013050079346,1,0.0023779869079589844,787,0.2536816895008087,0.021493766456842422,3.641085147857666,5,-0.4557986920306628,0.2690736669756518,3.650778827433973,0,633,788,0,-0.3911131733832034,3.6469136165406253,6.468551864745942,43.93969888939072,-0.38652108933479035,44.4149603204791,72.94120025511413,6.480089642852847,30,-9,30,ok,40,249223.0,78,72.0,0,0,0,0,0,0
1778087909.3115032,7.68728232383728,1,0.0136260986328125,790,0.21794641017913818,0.10005662590265274,3.634136199951172,5,-0.2811261574118357,0.3833903885876638,3.68904755965651,0,636,791,0,-0.2964368757947793,3.6685201150962756,-1.5310718382943567,32.50802672818953,-2.0527444560234365,32.60873721161918,57.08567702946481,2.560847667424405,-29,1,-17,ok,40,249219.99999999997,78,72.0,0,0,0,0,0,0
1778087909.3829298,7.758708953857422,1,0.005192756652832031,794,0.21794641017913818,0.10005662590265274,3.634136199951172,5,,,,,640,795,0,,,,,,,,,0,0,0,lost_self,40,249221.0,77,72.5,0,0,0,0,0,0
1778087909.4530618,7.828840970993042,1,0.015401840209960938,797,0.33484479784965515,0.049080751836299896,3.6635901927948,5,-0.2995781318247156,0.38411226771633966,3.68623009799112,0,643,798,0,-0.29760724217443846,3.6682996773629837,0.1970889650277141,32.43583881532194,-1.7930420628136101,32.48595825203098,60.500551461976514,1.8038414284949167,2,-4,22,ok,40,249221.0,77,72.5,0,0,0,0,0,0
1778087909.524039,7.899818181991577,1,0.006232023239135742,801,0.33484479784965515,0.049080751836299896,3.6635901927948,5,-0.1801021611927424,0.642972407082895,3.6791276250929053,0,647,802,0,-0.239439772193058,3.6649200873896683,-5.933761100031562,6.549824878666399,-1.4207537703236905,8.951439437840936,48.2162792453438,6.101480317770169,-25,-5,-30,ok,40,249214.0,77,72.5,0,0,0,0,0,0
1778087909.595655,7.971434116363525,1,-0.0019288063049316406,805,0.33484479784965515,0.049080751836299896,3.6635901927948,5,-0.5598715511399548,0.38087357157469487,3.641822964260336,0,651,806,0,-0.42200888457089863,3.6471658052550535,13.786266656905616,32.759708429486416,0.5342840994717601,35.54637962182955,87.57905245544949,13.796615810924646,30,-12,30,ok,40,249219.99999999997,77,72.5,0,0,0,0,0,0
1778087909.6660469,8.041826009750366,1,0.0076787471771240234,808,0.33484479784965515,0.049080751836299896,3.6635901927948,5,-0.19044998734662355,0.6369477480762078,3.680126859820505,0,654,809,0,-0.2388060815605989,3.6674106638017396,-4.835609421397535,7.152290779335124,-1.271619601876539,8.726706038382838,50.392998307476525,5.00001348880033,-30,1,-30,ok,40,249219.99999999997,77,72.5,0,0,0,0,0,0
1778087909.7363358,8.112114906311035,1,-0.0012390613555908203,812,0.36150404810905457,-0.044107310473918915,3.6474034786224365,5,-0.22794750792572308,0.8344052957840289,3.6579295365170705,0,658,813,0,-0.2557560165116658,3.655407844392263,-2.780850858594272,-12.593463991446985,-0.2521692124807462,12.899304481767205,54.44063443031541,2.7922608777597517,5,-8,-30,ok,40,249229.0,77,72.5,0,0,0,0,0,0
1778087909.80532,8.18109917640686,1,0.007750988006591797,815,0.36150404810905457,-0.044107310473918915,3.6474034786224365,5,-0.30744252269349703,0.34783005683116647,3.6878562070998715,0,661,816,0,-0.2953452996407062,3.6704524208144926,1.2097223052790818,36.06405990383926,-1.7403786285378864,36.12628907837432,62.51641973572403,2.11951546976217,14,1,30,ok,40,249216.0,77,72.5,0,0,0,0,0,0
1778087909.876524,8.252303123474121,1,-0.0011320114135742188,819,0.36150404810905457,-0.044107310473918915,3.6474034786224365,5,-0.2197593838103307,0.8243600224025611,3.646461338963537,0,665,820,0,-0.24476483278610767,3.6501498824191234,-2.500544897577697,-11.588936653300209,0.3688543455586224,11.861375597595936,55.00385748139406,2.5276032744557315,-14,-12,-30,ok,40,249216.0,77,72.5,0,0,0,0,0,0
1778087909.947901,8.32368016242981,1,0.010426044464111328,822,0.36150404810905457,-0.044107310473918915,3.6474034786224365,5,-0.1645180666331157,0.6209064883921127,3.686023011425444,0,668,823,0,-0.2081718218268804,3.670759923567031,-4.365375519376472,8.756416747744634,-1.5263087858413016,9.90257321079175,51.36004636961767,4.624513156528776,-9,2,30,ok,40,249212.0,77,72.5,0,0,0,0,0,0
1778087910.017817,8.393596172332764,1,5.2928924560546875e-05,826,0.36150404810905457,-0.044107310473918915,3.6474034786224365,5,-0.0591969449208579,0.899336992347481,3.6513962560144564,0,672,827,0,-0.15384505782953906,3.6524348762257643,-9.464811290868116,-19.086633647792194,0.10386202113079612,21.30476529080316,41.07090272390374,9.465381138188675,-24,-11,-30,ok,40,249217.0,77,72.5,0,0,0,0,0,0
1778087910.0891972,8.46497631072998,1,0.01148533821105957,829,0.36150404810905457,-0.044107310473918915,3.6474034786224365,5,-0.12976440438236406,0.6060978131587733,3.691640776903633,0,675,830,0,-0.18746258441907965,3.67154546703458,-5.769818003671559,10.237284271078572,-2.0095309869053057,11.921870819200224,48.62673891440927,6.109747505652346,8,3,30,ok,40,249227.0,77,72.5,0,0,0,0,0,0
1778087910.161493,8.537272214889526,1,0.003921985626220703,833,0.36150404810905457,-0.044107310473918915,3.6474034786224365,5,-0.12543999314276563,0.6041466522473677,3.6780625867153356,0,679,834,0,-0.183634175658068,3.6637447023046588,-5.819418251530236,10.43240036221913,-1.4317884410676829,12.031235358176986,48.44586883664712,5.992966454621473,-4,-6,8,ok,40,249227.0,77,72.5,0,0,0,0,0,0
1778087910.232842,8.60862112045288,1,0.015105962753295898,836,0.36150404810905457,-0.044107310473918915,3.6474034786224365,5,-0.35816467600538404,0.6191569369213392,3.663384339404725,0,682,837,0,-0.2983303139481647,3.655393909013581,5.983436205721931,8.931371894821982,-0.7990430391143999,10.780045571792227,71.98461366013204,6.036553537102213,30,-6,1,ok,40,249209.0,77,72.5,0,0,0,0,0,0
1778087910.303007,8.678786039352417,1,0.005273103713989258,840,0.36150404810905457,-0.044107310473918915,3.6474034786224365,5,-0.567283467245941,0.540077066481618,3.6299883593875872,0,686,841,0,-0.4028897095684432,3.638695919005012,16.43937576774978,16.839358938794103,0.8707559617424643,23.54942252047242,92.89507710623154,16.462420586845326,30,-11,30,ok,40,249215.0,77,72.5,0,0,0,0,0,0
1778087910.3736808,8.749459981918335,1,0.014812946319580078,843,0.36150404810905457,-0.044107310473918915,3.6474034786224365,5,-0.1712537250433771,0.8212472232377196,3.6592178768486416,0,689,844,0,-0.20487483846716126,3.653310677735539,-3.3621113423784155,-11.277656736816056,-0.5907199113102557,11.782965847596289,53.28887546756689,3.4136113856395527,-30,0,-30,ok,40,249215.0,77,72.5,0,0,0,0,0,0
1778087910.443348,8.819127082824707,1,0.005603790283203125,847,0.36150404810905457,-0.044107310473918915,3.6474034786224365,5,-0.08198510495379711,0.5925322111871554,3.6848663577083367,0,693,848,0,-0.16024052842237127,3.666134918165387,-7.825542346857415,11.593844468240366,-1.8731439542949868,14.11258342224124,44.506864211468574,8.046600604974161,-21,0,30,ok,40,249221.0,77,72.5,0,0,0,0,0,0
1778087910.514522,8.89030122756958,1,-0.003133058547973633,851,0.36150404810905457,-0.044107310473918915,3.6474034786224365,5,-0.056441399174525834,0.5889618358236458,3.6879537300706646,0,696,852,0,-0.14746867553273563,3.6676786043465506,-9.102727635820978,11.950882004591323,-2.027512572411405,15.158959012111946,41.990798968058066,9.32579528207784,-10,-3,10,ok,40,249216.0,77,72.5,0,0,0,0,0,0
1778087910.5847921,8.9605712890625,1,0.007212162017822266,854,0.36150404810905457,-0.044107310473918915,3.6474034786224365,5,-0.43624223633738995,0.4276970351148293,3.6574887881296436,0,700,855,0,-0.3373690941141677,3.6524461333760403,9.887314222322225,28.077362075472973,-0.5042654753603326,29.771656442290606,79.78100324112023,9.900164958250732,30,-10,30,ok,40,249216.0,77,72.5,0,0,0,0,0,0
1778087910.655162,9.030941247940063,1,-0.0026369094848632812,858,0.36150404810905457,-0.044107310473918915,3.6474034786224365,5,-0.31666652307225057,0.2534423311282594,3.6648589218497363,0,704,859,0,-0.277581237481598,3.6561312002360866,3.908528559065255,45.50283247412996,-0.8727721613649653,45.67872688584281,67.839517695414,4.004787977244537,-19,-3,30,ok,40,249221.0,77,72.5,0,0,0,0,0,0
1778087910.725315,9.101094245910645,1,0.0076541900634765625,861,0.36150404810905457,-0.044107310473918915,3.6474034786224365,5,,,,,707,862,0,,,,,,,,,0,0,0,lost_self,40,249221.0,77,72.5,0,0,0,0,0,0
1778087910.796232,9.172011137008667,1,-0.0012519359588623047,865,0.36150404810905457,-0.044107310473918915,3.6474034786224365,5,-0.3323331822138302,0.581522252922236,3.661598323849227,0,711,866,0,-0.28541456705238777,3.654500901235832,4.691861516144241,12.694840294732302,-0.7097422613395299,13.552721817884613,69.39824175100868,4.74523956868425,3,-5,-30,ok,40,249209.0,77,72.5,0,0,0,0,0,0
1778087910.866482,9.242261171340942,1,0.009166955947875977,868,0.36150404810905457,-0.044107310473918915,3.6474034786224365,5,-0.30595422228683816,0.7586771032151923,3.6383265327805274,0,714,869,0,-0.2722250870888918,3.642865005701482,3.3729135197946345,-5.020644734563328,0.45384729209545505,6.065426326916707,66.75199874653146,3.4033105906684167,0,0,-30,ok,40,249217.0,77,72.5,0,0,0,0,0,0
1778087910.936198,9.31197714805603,1,-0.0013778209686279297,872,0.36150404810905457,-0.044107310473918915,3.6474034786224365,5,-0.30595422228683816,0.7586771032151923,3.6383265327805274,0,718,873,0,-0.2722250870888918,3.642865005701482,3.3729135197946345,-5.020644734563328,0.45384729209545505,6.065426326916707,66.75199874653146,3.4033105906684167,0,0,-2,ok,40,249217.0,77,72.5,0,0,0,0,0,0
1778087911.007968,9.383747100830078,1,0.010449886322021484,875,0.36150404810905457,-0.044107310473918915,3.6474034786224365,5,-0.32672207658249447,0.5637749678068502,3.650021843073061,0,721,876,0,-0.2826090142367199,3.6487126608477487,4.411306234577456,14.469568806270882,-0.13091822253121776,15.1276298115607,68.8231105472823,4.413248494727287,2,-5,30,ok,40,249217.0,77,72.5,0,0,0,0,0,0
1778087911.0778618,9.453640937805176,1,0.0005366802215576172,879,0.36150404810905457,-0.044107310473918915,3.6474034786224365,5,-0.3400039083652439,0.5668983437862046,3.6630570282594173,0,725,880,0,-0.28924993012809463,3.655230253440927,5.075397823714928,14.15723120833544,-0.7826774818490367,15.059861971340599,70.16825825207461,5.135391621830196,5,-2,10,ok,40,249215.0,77,72.5,0,0,0,0,0,0
1778087911.149877,9.52565622329712,1,0.012287139892578125,882,0.36150404810905457,-0.044107310473918915,3.6474034786224365,5,-0.13278163876476334,0.7906529372721632,3.643242771202948,0,728,883,0,-0.18563879532785438,3.645323124912692,-5.285715656309104,-8.21822814026042,0.20803537097440206,9.773502058131255,49.43031981836174,5.289808003597827,-30,-8,-30,ok,40,249209.0,77,72.5,0,0,0,0,0,0
1778087911.221903,9.597682237625122,1,0.004415273666381836,886,0.36150404810905457,-0.044107310473918915,3.6474034786224365,5,-0.11460664765208327,0.7848856255451804,3.645970011861587,0,732,887,0,-0.17655129977151435,3.646686745242012,-6.194465211943108,-7.641496967562134,0.07167333804249942,9.83712418517835,47.61128536860869,6.194879847854963,-7,-4,-1,ok,40,249213.0,77,72.5,0,0,0,0,0,0
1778087911.293937,9.669716119766235,1,-0.003618955612182617,890,0.36150404810905457,-0.044107310473918915,3.6474034786224365,5,0.04847741832418918,0.5690408030113338,3.6811954855265197,0,736,891,0,-0.09500926678337812,3.664299482074478,-14.34866851075673,13.942985285822528,-1.6896003452041786,20.078492872692397,31.484531231237472,14.447803893952043,-30,1,30,ok,40,249213.0,77,72.5,0,0,0,0,0,0
1778087911.366652,9.742431163787842,1,0.009068965911865234,893,0.36150404810905457,-0.044107310473918915,3.6474034786224365,5,,,,,739,894,0,,,,,,,,,0,0,0,lost_self,40,249210.0,77,72.5,0,0,0,0,0,0
1778087911.438132,9.813911199569702,1,0.0008809566497802734,897,0.36150404810905457,-0.044107310473918915,3.6474034786224365,5,-0.09648048313699577,0.7925311988753836,3.66481296379799,0,743,898,0,-0.16748821751397058,3.6561082212102134,-7.100773437697481,-8.406054300582454,-0.8704742587776426,11.038136516325814,45.83153074410043,7.153929608872637,7,-6,-30,ok,40,249214.0,76,72.5,0,0,0,0,0,0
1778087911.5086231,9.88440227508545,1,0.011118173599243164,900,0.36150404810905457,-0.044107310473918915,3.6474034786224365,5,-0.2994800748208985,0.5235737913173418,3.662775720512482,0,746,901,0,-0.26898801335592193,3.655089599567459,3.0492061464976574,18.489686455221722,-0.7686120945022967,18.75518402703807,66.11628517893345,3.1445862487224447,30,-5,30,ok,40,249214.0,76,72.5,0,0,0,0,0,0
1778087911.5802188,9.955997943878174,1,0.0015587806701660156,904,0.36150404810905457,-0.044107310473918915,3.6474034786224365,5,-0.6333526004291551,0.3691676392736289,3.594107704608869,0,750,905,0,-0.43592427616005025,3.620755591615653,19.742832426910482,33.93030165959301,2.6647887006783666,39.34648525303514,99.62831879884273,19.921860632389013,30,-18,30,ok,40,249213.0,76,72.5,0,-1,0,0,0,0
1778087911.651776,10.027555227279663,1,0.014358043670654297,907,0.36150404810905457,-0.044107310473918915,3.6474034786224365,5,-0.29380952149335166,0.49218894124257195,3.6516218869780372,0,753,908,0,-0.26615273669214856,3.649512682800237,2.765678480120309,21.62817146269871,-0.21092041778003612,21.8053036139819,65.5327146907636,2.7737095879051736,-30,5,-25,ok,40,249205.00000000003,76,72.5,0,0,0,0,0,0
1778087911.724252,10.10003113746643,1,0.0068359375,911,0.36150404810905457,-0.044107310473918915,3.6474034786224365,5,-0.460564871091874,0.5725967682485147,3.6157009869912184,0,757,912,0,-0.34953041149140973,3.6315522328068273,11.103445960046427,13.587388762104435,1.5851245815608817,17.618634041812147,82.26799838891246,11.216021225316037,30,-12,-15,ok,40,249207.00000000003,76,72.5,0,0,0,0,0,0
1778087911.796201,10.171980142593384,1,-0.0021948814392089844,915,0.36150404810905457,-0.044107310473918915,3.6474034786224365,5,-0.4550399902844902,0.5620251472746458,3.61997658150999,0,761,916,0,-0.34676797108771784,3.633690030066213,10.827201919677238,14.644550859491323,1.3713448556223362,18.263946944697697,81.70045295598155,10.913701852373663,5,-5,16,ok,40,249207.00000000003,76,72.5,0,0,0,0,0,0
1778087911.862845,10.238624095916748,1,0.0054438114166259766,918,0.36150404810905457,-0.044107310473918915,3.6474034786224365,5,-0.2344068984021708,0.7045626749877907,3.639161053319737,0,764,919,0,-0.2364514251465581,3.643282265971087,-0.20445267443872928,0.3907980881768358,0.41212126513499037,0.6036290077392603,59.5967946912227,0.46004872922508333,0,0,-30,ok,40,249209.0,76,72.5,0,1,0,0,0,0
1778087911.9280078,10.303786993026733,1,0.010898828506469727,921,0.36150404810905457,-0.044107310473918915,3.6474034786224365,5,-0.2806284191058804,0.45352609474837796,3.6451020857985106,0,767,922,0,-0.2595621854984129,3.6462527822104738,2.1066233607467453,25.494456112118108,0.11506964119631924,25.581602675733308,64.21365912798223,2.1097637323570053,-15,-2,30,ok,40,249219.99999999997,76,72.5,0,0,0,0,0,0
1778087911.995604,10.37138319015503,1,-0.0015218257904052734,925,0.36150404810905457,-0.044107310473918915,3.6474034786224365,5,-0.5351014821859427,0.42972072111050896,3.603242865357225,0,770,926,0,-0.38679871703844404,3.6253231719898307,14.830276514749862,27.874993475905008,2.208030663260585,31.65166286620005,89.7692395378023,14.993748727847894,30,-14,30,ok,40,249219.99999999997,76,72.5,0,0,0,0,0,0
1778087912.063068,10.438847064971924,1,0.005900859832763672,928,0.36150404810905457,-0.044107310473918915,3.6474034786224365,5,-0.2259342933717309,0.6950479077247113,3.6429382558667784,0,774,929,0,-0.23221512263133814,3.6451708672446075,-0.628082925960724,1.3422748144847785,0.22326113778290413,1.4986778757049988,58.74553117097109,0.6665836013040684,0,0,-30,ok,40,249209.0,76,72.5,0,0,0,0,0,0
1778087912.136972,10.51275110244751,1,-0.00011301040649414062,932,0.36150404810905457,-0.044107310473918915,3.6474034786224365,5,-0.5323048298170207,0.4189378560452216,3.590240060519826,0,778,933,0,-0.38540039085398303,3.6188217695711313,14.690443896303762,28.953279982433745,2.8581709051305193,32.592494604349966,89.56349516564455,14.965904008558356,8,-8,30,ok,40,249206.0,76,72.5,0,0,0,0,0,0
1778087912.204486,10.580265045166016,1,0.007414817810058594,935,0.36150404810905457,-0.044107310473918915,3.6474034786224365,5,-0.5359434040371315,0.4126539817451436,3.6049165403487904,0,781,936,0,-0.38721967796403844,3.6261600094856137,14.872372607309304,29.581667412441544,2.124346913682329,33.17793489174125,89.84525971288355,15.023325756313605,9,-3,25,ok,40,249206.0,76,72.5,0,0,0,0,0,0
1778087912.276014,10.651793241500854,1,-0.0018639564514160156,939,0.36150404810905457,-0.044107310473918915,3.6474034786224365,5,-0.43871126779130537,0.539803683266908,3.615009289915263,0,785,940,0,-0.33860360984112536,3.63120638426885,10.010765795018001,16.866697260265106,1.6197094353586738,19.68055809490998,80.08707356768063,10.14095116138976,-10,-4,-29,ok,40,249208.0,76,72.5,0,0,0,0,0,0
1778087912.3453062,10.7210853099823,1,0.008297204971313477,942,0.36150404810905457,-0.044107310473918915,3.6474034786224365,5,-0.4430981080530057,0.5404680043965526,3.614284043830374,0,788,943,0,-0.3407970299719756,3.630843761226405,10.230107808103012,16.800265147300642,1.6559717396031015,19.739459394506703,80.5283507009539,10.36326918340802,7,-6,14,ok,40,249212.0,76,72.5,0,0,0,0,0,0
1778087912.4147031,10.79048228263855,1,-0.002399921417236328,946,0.36150404810905457,-0.044107310473918915,3.6474034786224365,5,-0.6281268251620205,0.4918949160086523,3.575228410357025,0,792,947,0,-0.43331138852648293,3.6113159444897307,19.48154366355375,21.65757398609067,3.6087534132705823,29.353094482110993,99.22592936377,19.812966580316623,30,-14,30,ok,40,249212.0,76,72.5,0,0,0,0,0,0
1778087912.48568,10.861459255218506,1,0.008539199829101562,949,0.36150404810905457,-0.044107310473918915,3.6474034786224365,5,-0.4404445855899835,0.5352403922134292,3.6154964252875827,0,795,950,0,-0.3394702687404645,3.63144995195501,10.097431684951902,17.323026365612982,1.595352666742711,20.11443559305794,80.25831241337355,10.222684420618378,-26,0,0,ok,40,249216.0,76,72.5,0,0,0,0,0,0
1778087912.557164,10.932943105697632,1,0.00017595291137695312,953,0.36150404810905457,-0.044107310473918915,3.6474034786224365,5,-0.3931270414629433,0.6877911708711699,3.6022922249858786,0,799,954,0,-0.31581149667694436,3.624847851804158,7.731554478599895,2.067948499838912,2.255562681827916,8.315101242029398,75.59782447618996,8.053849866195224,-3,-8,-30,ok,40,249211.0,76,72.5,0,0,0,0,0,0
