timestamp,elapsed,phase,mission_state,target_x,target_y,target_z,pos_x,pos_y,pos_z,marker_id,err_x_cm,err_y_cm,err_z_cm,err_3d_cm,cmd_lr,cmd_fb,cmd_ud,publish_count,tello_height_cm,tello_baro_cm,tello_battery,tello_temp_c,tello_pitch,tello_roll,tello_yaw,tello_vgx,tello_vgy,tello_vgz
1778194273.8310049,1.1920928955078125e-05,wait_slave,2,-0.04387088019614972,1.2830262372628924,3.696434176017323,-0.01108726459885001,1.2293798760444776,3.7077869467112055,2,-3.278361559729971,5.364636121841482,-1.135277069388252,6.388726732327838,-18,6,30,1,70,251846.0,68,71.5,0,0,0,0,0,0
1778194273.9041688,0.07317590713500977,wait_slave,2,-0.04387088019614972,1.2830262372628924,3.696434176017323,-0.02981058778727408,1.1643832614540726,3.7313459803706905,2,-1.4060292408875643,11.864297580881988,-3.4911804353367604,12.446960116672312,5,10,30,4,70,251844.0,68,71.5,0,0,0,0,0,0
1778194273.976897,0.1459040641784668,wait_slave,2,-0.04387088019614972,1.2830262372628924,3.696434176017323,-0.016912638950340897,1.2359767663524655,3.722578758795935,2,-2.6958241245808825,4.704947091042699,-2.614458277861198,6.019915857124615,-6,-1,-21,8,70,251844.0,68,71.5,0,0,0,0,0,0
1778194274.0489652,0.2179722785949707,wait_slave,2,-0.04387088019614972,1.2830262372628924,3.696434176017323,-0.01670756181412192,1.2352134491583917,3.7227810526478446,2,-2.7163318382027803,4.781278810450074,-2.634687663052171,6.097595001337189,-1,1,3,12,70,251841.0,68,71.5,0,0,0,0,0,0
1778194274.1205819,0.28958892822265625,wait_slave,2,-0.04387088019614972,1.2830262372628924,3.696434176017323,-0.016494343317787985,1.2344590225426937,3.7229911942240737,2,-2.7376536878361737,4.856721472019876,-2.6557018206750715,6.175373942656331,-1,1,3,15,70,251842.99999999997,68,71.5,0,0,0,0,0,0
1778194274.1927612,0.3617682456970215,wait_slave,2,-0.04387088019614972,1.2830262372628924,3.696434176017323,-0.016494343317787985,1.2344590225426937,3.7229911942240737,2,-2.7376536878361737,4.856721472019876,-2.6557018206750715,6.175373942656331,-1,1,3,19,70,251842.99999999997,68,71.5,0,0,0,0,0,0
1778194274.264441,0.43344807624816895,wait_slave,2,-0.04387088019614972,1.2830262372628924,3.696434176017323,-0.01670756181412192,1.2352134491583917,3.7227810526478446,2,-2.7163318382027803,4.781278810450074,-2.634687663052171,6.097595001337189,-1,1,3,22,70,251833.0,68,71.5,0,0,0,0,0,0
1778194274.336614,0.5056209564208984,wait_slave,2,-0.04387088019614972,1.2830262372628924,3.696434176017323,-0.01670756181412192,1.2352134491583917,3.7227810526478446,2,-2.7163318382027803,4.781278810450074,-2.634687663052171,6.097595001337189,-1,1,3,26,70,251841.0,68,71.0,0,0,0,0,0,0
1778194274.410052,0.5790591239929199,wait_slave,2,-0.04387088019614972,1.2830262372628924,3.696434176017323,-0.01670756181412192,1.2352134491583917,3.7227810526478446,2,-2.7163318382027803,4.781278810450074,-2.634687663052171,6.097595001337189,-1,1,3,30,70,251839.0,68,71.0,0,0,0,0,0,0
1778194274.48172,0.6507270336151123,wait_slave,2,-0.04387088019614972,1.2830262372628924,3.696434176017323,0.002442961766382701,1.366753917255057,3.68045312320267,2,-4.631384196253243,-8.372767999216446,1.5981052814653118,9.700871302757015,-9,-15,-30,33,70,251839.0,68,71.0,0,0,0,0,0,0
1778194274.5554738,0.7244808673858643,wait_slave,2,-0.04387088019614972,1.2830262372628924,3.696434176017323,-0.08052028597141647,1.2316531091052778,3.686277828879381,2,3.664940577526675,5.137312815761463,1.015634713794178,6.391814005089033,30,1,30,37,70,251840.0,68,71.0,0,0,0,0,0,0
1778194274.626681,0.7956881523132324,wait_slave,2,-0.04387088019614972,1.2830262372628924,3.696434176017323,-0.03013383080267218,1.1618062385724535,3.7320244805582123,2,-1.3737049393477543,12.121999869043897,-3.5590304540889406,12.708132980836377,-18,18,30,40,70,251837.0,68,71.0,0,0,0,0,0,0
1778194274.6987982,0.8678052425384521,wait_slave,2,-0.04387088019614972,1.2830262372628924,3.696434176017323,-0.09034108076265523,1.1676110251274876,3.692693171804749,2,4.647020056650551,11.541521213540484,0.37410042125740617,12.447548290916668,23,-13,6,44,70,251837.0,68,71.0,0,0,0,0,0,0
1778194274.771164,0.9401710033416748,wait_slave,2,-0.04387088019614972,1.2830262372628924,3.696434176017323,-0.1542448211321521,1.1769266820727036,3.6692837007013988,2,11.037394093600238,10.609955519018888,2.7150475315924183,15.548849076115145,28,-9,4,48,70,251837.0,68,71.0,0,0,0,0,0,0
1778194274.842676,1.0116829872131348,wait_slave,2,-0.04387088019614972,1.2830262372628924,3.696434176017323,-0.15746186073233726,1.1795641596574127,3.6669344030968056,2,11.359098053618753,10.346207760547976,2.949977292051731,15.645302478372521,7,-2,6,51,70,251838.0,68,71.0,0,0,0,0,0,0
1778194274.915282,1.0842890739440918,wait_slave,2,-0.04387088019614972,1.2830262372628924,3.696434176017323,-0.09443865395365747,1.1620643745726453,3.6938676248325084,2,5.056777375750775,12.096186269024711,0.2566551184814525,13.113145752743296,-18,9,15,55,70,251837.0,68,71.0,0,0,0,0,0,0
1778194274.9875112,1.1565182209014893,wait_slave,2,-0.04387088019614972,1.2830262372628924,3.696434176017323,-0.011677669863303208,1.2251630254597292,3.70915071874211,2,-3.2193210332846514,5.786321180316323,-1.271654272478706,6.7425992989231975,-30,6,-17,58,70,251837.0,68,71.0,0,0,0,0,0,0
1778194275.058849,1.227856159210205,wait_slave,2,-0.04387088019614972,1.2830262372628924,3.696434176017323,-0.09443865395365747,1.1620643745726453,3.6938676248325084,2,5.056777375750775,12.096186269024711,0.2566551184814525,13.113145752743296,30,-5,30,62,70,251835.0,68,71.0,0,0,0,0,0,0
1778194275.1320078,1.3010149002075195,wait_slave,2,-0.04387088019614972,1.2830262372628924,3.696434176017323,-0.09034108076265523,1.1676110251274876,3.692693171804749,2,4.647020056650551,11.541521213540484,0.37410042125740617,12.447548290916668,1,0,7,66,70,251841.0,68,71.0,0,1,0,0,0,0
1778194275.20542,1.374427080154419,wait_slave,2,-0.04387088019614972,1.2830262372628924,3.696434176017323,-0.08689159834128057,1.1649267501222886,3.694858184129988,2,4.302071814513085,11.809948714060381,0.15759918873348155,12.570105330913256,1,0,10,69,70,251842.99999999997,68,71.0,0,0,0,0,0,0
1778194275.277938,1.4469449520111084,wait_slave,2,-0.04387088019614972,1.2830262372628924,3.696434176017323,-0.08967457540628065,1.1685069914096888,3.6923992241917927,2,4.580369521013093,11.451924585320361,0.4034951825530264,12.340549826455632,3,0,7,73,70,251842.99999999997,68,71.0,0,0,0,0,0,0
1778194275.3500109,1.5190179347991943,wait_slave,2,-0.04387088019614972,1.2830262372628924,3.696434176017323,-0.04944014305223421,1.359083380053554,3.62954596175179,2,0.5569262856084487,-7.605714279066156,6.688821426553293,10.143835007466894,-13,-25,-30,77,70,251841.0,68,71.5,0,0,0,0,0,0
1778194275.4211369,1.5901439189910889,wait_slave,2,-0.04387088019614972,1.2830262372628924,3.696434176017323,-0.07467153646053082,1.2380875318031141,3.684566553024356,2,3.0800656264381097,4.493870545977829,1.1867622992967064,5.57584805228807,10,18,30,80,70,251841.0,68,71.5,0,0,0,0,0,0
1778194275.492922,1.6619291305541992,wait_slave,2,-0.04387088019614972,1.2830262372628924,3.696434176017323,-0.06887566739375517,1.231272284303246,3.6699878000376835,2,2.5004787197605447,5.1753952959646465,2.644637597963939,6.3270228640358805,0,-6,7,84,70,251834.0,68,71.5,0,0,0,0,0,0
1778194275.564936,1.733942985534668,wait_slave,2,-0.04387088019614972,1.2830262372628924,3.696434176017323,-0.07511127346071977,1.2424218455817548,3.6824232412991105,2,3.124039326457005,4.060439168113761,1.4010934718212464,5.31129465083443,4,3,0,87,70,251842.99999999997,68,71.5,0,0,0,0,0,0
1778194275.635987,1.8049941062927246,wait_slave,2,-0.04387088019614972,1.2830262372628924,3.696434176017323,-0.07092773017659337,1.233982604692672,3.66737201605037,2,2.705684998044365,4.9043632570220375,2.9062159966952716,6.3102774649707465,0,-6,7,91,70,251842.99999999997,68,71.5,0,0,0,0,0,0
1778194275.7085068,1.8775138854980469,wait_slave,2,-0.04387088019614972,1.2830262372628924,3.696434176017323,-0.09797998006374731,1.1016330566886843,3.696570032256978,2,5.4109099867597585,18.139318057420816,-0.01358562396549523,18.929157166716852,12,10,30,95,70,251842.99999999997,68,71.5,0,0,0,0,0,0
1778194275.781513,1.9505200386047363,wait_slave,2,-0.04387088019614972,1.2830262372628924,3.696434176017323,-0.07932948282347319,1.1627377617871653,3.6774727960960956,2,3.5458602627323463,12.028847547572719,1.8961379921227373,12.683124126599948,-4,-7,-11,98,70,251842.99999999997,68,71.5,0,0,0,0,0,0
1778194275.853869,2.022876024246216,wait_slave,2,-0.04387088019614972,1.2830262372628924,3.696434176017323,-0.06941573331842488,1.234204230436228,3.6671613570698987,2,2.5544853122275155,4.882200682666449,2.9272818947424284,6.239411671584242,-1,-5,-19,102,70,251842.99999999997,68,71.5,0,0,0,0,0,0
1778194275.925222,2.094228982925415,wait_slave,2,-0.04387088019614972,1.2830262372628924,3.696434176017323,0.010541502515503898,1.2957596514948795,3.6788451159503373,2,-5.441238271165362,-1.273341423198704,1.7589060066985684,5.858517102819503,-30,3,-21,105,70,251836.0,68,71.5,0,0,0,0,0,0
1778194275.997171,2.166177988052368,wait_slave,2,-0.04387088019614972,1.2830262372628924,3.696434176017323,-0.001560071803741625,1.2344537199516863,3.7059460734357104,2,-4.23108083924081,4.857251731120615,-0.9511897418387427,6.511505307733703,1,9,26,109,70,251833.0,68,71.5,0,0,0,0,0,0
1778194276.069082,2.238089084625244,wait_slave,2,-0.04387088019614972,1.2830262372628924,3.696434176017323,-0.0005049813514919066,1.2323160638706783,3.7069133426238756,2,-4.3365898844657815,5.0710173392214175,-1.0479166606552681,6.754210391186678,-2,0,5,113,70,251833.0,68,71.5,0,0,0,0,0,0
1778194276.1406422,2.3096492290496826,wait_slave,2,-0.04387088019614972,1.2830262372628924,3.696434176017323,-0.0020626378849364357,1.222716952769387,3.6913019948128363,2,-4.180824231121329,6.030928449350537,0.5132181204486663,7.356275011979485,-1,-5,9,116,70,251837.0,68,71.5,0,0,0,0,0,0
1778194276.21385,2.382857084274292,wait_slave,2,-0.04387088019614972,1.2830262372628924,3.696434176017323,-0.01194961964797936,1.1594762430744339,3.7164685657431034,2,-3.1921260548170363,12.354999418845857,-2.003438972578042,12.917021603541887,1,9,30,120,70,251839.0,68,71.5,0,-1,0,0,0,0
1778194276.285758,2.4547650814056396,wait_slave,2,-0.04387088019614972,1.2830262372628924,3.696434176017323,-0.01194961964797936,1.1594762430744339,3.7164685657431034,2,-3.1921260548170363,12.354999418845857,-2.003438972578042,12.917021603541887,-1,1,10,123,70,251839.0,68,71.5,0,-1,0,0,0,0
1778194276.357198,2.526205062866211,wait_slave,2,-0.04387088019614972,1.2830262372628924,3.696434176017323,0.00024992185820904567,1.2324154646548744,3.7068130532830965,2,-4.412080205435877,5.061077260801805,-1.0378877265773578,6.79398010830059,-6,-2,-20,127,70,251844.0,68,71.5,0,0,0,0,0,0
1778194276.429613,2.5986201763153076,wait_slave,2,-0.04387088019614972,1.2830262372628924,3.696434176017323,-0.005183348919538311,1.2392957427001288,3.702224304233662,2,-3.868753127661141,4.373049456276368,-0.5790128216339063,5.867373190572026,0,-1,2,131,70,251836.0,68,71.5,0,0,0,0,0,0
1778194276.501493,2.6705000400543213,wait_slave,2,-0.04387088019614972,1.2830262372628924,3.696434176017323,0.011696646376244124,1.2973518990761201,3.678282554896976,2,-5.556752657239385,-1.4325661813227697,1.815162112034674,6.018684195949547,-9,-9,-19,134,70,251835.0,68,71.5,0,0,0,0,0,0
1778194276.572941,2.741948127746582,wait_slave,2,-0.04387088019614972,1.2830262372628924,3.696434176017323,0.011696646376244124,1.2973518990761201,3.678282554896976,2,-5.556752657239385,-1.4325661813227697,1.815162112034674,6.018684195949547,-3,-1,0,138,70,251835.0,68,71.5,0,0,0,0,0,0
1778194276.645685,2.8146920204162598,wait_slave,2,-0.04387088019614972,1.2830262372628924,3.696434176017323,-0.0839222479645585,1.1728755658941572,3.6911177045939074,2,4.005136776840877,11.015067136873524,0.5316471423415514,11.73266693105171,30,3,30,142,70,251839.0,68,71.5,0,0,0,0,0,0
1778194276.7201998,2.889206886291504,wait_slave,2,-0.04387088019614972,1.2830262372628924,3.696434176017323,0.0639043732217508,1.233078191410947,3.7437607247618283,2,-10.777525341790053,4.9948045851945455,-4.732654874450537,12.786756723183078,-30,20,-15,145,70,251839.0,68,71.5,0,0,0,0,0,0
1778194276.793279,2.9622859954833984,wait_slave,2,-0.04387088019614972,1.2830262372628924,3.696434176017323,0.009295019550095929,1.301860250222801,3.6761304699185473,2,-5.3165899746245655,-1.8834012959908497,2.030370609877563,5.994642125554538,15,-24,-23,149,70,251839.0,68,71.5,0,0,0,0,0,0
1778194276.865332,3.03433895111084,wait_slave,2,-0.04387088019614972,1.2830262372628924,3.696434176017323,0.010675886588872086,1.2986250000786559,3.678125209332181,2,-5.454676678502181,-1.5598762815763445,1.8308966685141925,5.961450686837591,-3,0,1,152,70,251842.0,68,71.5,0,0,0,0,0,0
1778194276.936692,3.105699062347412,wait_slave,2,-0.04387088019614972,1.2830262372628924,3.696434176017323,-0.08482094552754171,1.1742981279175906,3.6910133359368267,2,4.095006533139199,10.872810934530186,0.5420840080496259,11.631033969354359,30,4,30,156,70,251844.0,68,71.5,0,0,0,0,0,0
1778194277.008679,3.1776859760284424,wait_slave,2,-0.04387088019614972,1.2830262372628924,3.696434176017323,-0.1405566783629193,1.1811306501239591,3.6515827302049253,2,9.668579816676957,10.189558713893332,4.485144581239764,14.745340429096812,25,-16,6,160,70,251842.99999999997,68,71.5,0,0,0,0,0,0
1778194277.0798001,3.248807191848755,wait_slave,2,-0.04387088019614972,1.2830262372628924,3.696434176017323,-0.12769749792787688,1.2496553352930715,3.643519264535026,2,8.382661773172716,3.3370901969820954,5.29149114822971,10.459687756238162,0,-6,-19,163,70,251842.99999999997,68,71.5,0,0,0,0,0,0
1778194277.1523929,3.3213999271392822,wait_slave,2,-0.04387088019614972,1.2830262372628924,3.696434176017323,-0.16429249223897746,1.127030380642676,3.6671549372012806,2,12.042161204282774,15.599585662021642,2.927923881604233,19.92318894035673,20,6,30,167,70,251846.0,68,71.5,0,0,0,0,0,0
1778194277.222802,3.3918089866638184,wait_slave,2,-0.04387088019614972,1.2830262372628924,3.696434176017323,-0.08482094552754171,1.1742981279175906,3.6910133359368267,2,4.095006533139199,10.872810934530186,0.5420840080496259,11.631033969354359,-25,8,-6,170,70,251836.0,68,71.5,0,0,0,0,0,0
1778194277.2956522,3.4646592140197754,wait_slave,2,-0.04387088019614972,1.2830262372628924,3.696434176017323,-0.0656497295095817,1.2353022370860083,3.668876296752687,2,2.177884931343198,4.772400017688416,2.7557879264636043,5.925652014643345,-5,-9,-15,174,70,251836.0,68,71.5,0,0,0,0,0,0
1778194277.3697112,3.5387182235717773,wait_slave,2,-0.04387088019614972,1.2830262372628924,3.696434176017323,-0.0829623142158531,1.170461553349509,3.692659920711462,2,3.9091434019703373,11.256468391338338,0.3774255305860841,11.92190978046326,8,7,30,178,70,251842.0,68,71.5,0,1,0,0,0,0
1778194277.4424782,3.611485242843628,wait_slave,2,-0.04387088019614972,1.2830262372628924,3.696434176017323,-0.1399206191353688,1.1854818350098275,3.6497939776936685,2,9.604973893921906,9.754440225306492,4.66401983236544,14.462285732507741,25,-17,4,181,70,251838.0,68,71.5,0,1,0,0,0,0
1778194277.515983,3.684990167617798,wait_slave,2,-0.04387088019614972,1.2830262372628924,3.696434176017323,-0.12563844310018468,1.25104724607887,3.6432839753741892,2,8.176756290403496,3.1978991184022476,5.315020064313369,10.26330066246647,0,-5,-17,185,70,251837.0,68,71.5,0,0,0,0,0,0
1778194277.587798,3.756805181503296,wait_slave,2,-0.04387088019614972,1.2830262372628924,3.696434176017323,0.003976904975538154,1.232169807369627,3.689444376573924,2,-4.784778517168788,5.085642989326544,0.6989799443398947,7.017580996029585,-30,15,12,188,70,251837.0,68,71.5,0,0,0,0,0,0
1778194277.659192,3.8281991481781006,wait_slave,2,-0.04387088019614972,1.2830262372628924,3.696434176017323,0.013967025657142584,1.3017310831361875,3.6773031097444706,2,-5.783790585329231,-1.8704845873295017,1.9131066272852326,6.372670012933584,-6,-5,-22,192,70,251842.99999999997,68,71.5,0,0,0,0,0,0
1778194277.7300968,3.899103879928589,wait_slave,2,-0.04387088019614972,1.2830262372628924,3.696434176017323,0.003382813177403299,1.2375862479666733,3.705905862974109,2,-4.7253693373553025,4.543998929621917,-0.947168695678613,6.623758010744078,1,10,28,196,70,251837.0,68,71.5,0,0,0,0,0,0
1778194277.802944,3.9719510078430176,wait_slave,2,-0.04387088019614972,1.2830262372628924,3.696434176017323,-0.011549035743573688,1.1684443554181367,3.713283472804432,2,-3.2321844452576034,11.45818818447557,-1.6849296787109225,12.023979407052462,3,3,30,199,70,251837.0,68,71.5,0,0,0,0,0,0
1778194277.874356,4.043363094329834,wait_slave,2,-0.04387088019614972,1.2830262372628924,3.696434176017323,-0.00705916076739288,1.1653976799895234,3.715809874584722,2,-3.681171942875684,11.762855727336907,-1.937569856739918,12.476777576157435,-3,1,11,203,70,251842.99999999997,68,71.5,0,0,0,0,0,0
1778194277.9464,4.1154069900512695,wait_slave,2,-0.04387088019614972,1.2830262372628924,3.696434176017323,0.0062170053745210785,1.2382079203040668,3.705806443808156,2,-5.0087885570670805,4.4818316958825655,-0.9372267790833,6.786248757233598,-7,-3,-19,206,70,251836.0,68,71.5,0,0,0,0,0,0
1778194278.018909,4.187916040420532,wait_slave,2,-0.04387088019614972,1.2830262372628924,3.696434176017323,-0.01617357211122017,1.1719841601912289,3.7297802124217867,2,-2.7697308084929553,11.104207707166358,-3.3346036404463764,11.920336362464191,6,10,30,210,70,251836.0,68,71.5,0,0,0,0,0,0
1778194278.088635,4.257642030715942,wait_slave,2,-0.04387088019614972,1.2830262372628924,3.696434176017323,0.015354506015866076,1.3118814812359259,3.69184117304868,2,-5.92253862120158,-2.8855243973033406,0.45930029686429563,6.604064773285977,-14,-13,-30,214,70,251846.0,68,71.5,0,-1,0,0,0,0
1778194278.1595001,4.3285071849823,wait_slave,2,-0.04387088019614972,1.2830262372628924,3.696434176017323,-0.003384056218653786,1.2451074585127961,3.7201913612772928,2,-4.048682397749594,3.7918778750096305,-2.3757185259969837,6.0344184054140815,4,11,28,217,70,251851.00000000003,68,71.5,0,0,0,0,0,0
1778194278.2325509,4.401557922363281,wait_slave,2,-0.04387088019614972,1.2830262372628924,3.696434176017323,0.07323910529752375,1.3196062512262967,3.7229469967721176,2,-11.710998549367348,-3.6580013963404268,-2.6512820754794664,12.55220131621029,-30,2,-25,221,70,251851.00000000003,68,71.5,0,0,0,0,0,0
1778194278.3066308,4.475637912750244,wait_slave,2,-0.04387088019614972,1.2830262372628924,3.696434176017323,0.07323910529752375,1.3196062512262967,3.7229469967721176,2,-11.710998549367348,-3.6580013963404268,-2.6512820754794664,12.55220131621029,-7,1,0,225,70,251851.00000000003,68,71.5,0,0,0,0,0,0
1778194278.382859,4.551866054534912,wait_slave,2,-0.04387088019614972,1.2830262372628924,3.696434176017323,0.07323910529752375,1.3196062512262967,3.7229469967721176,2,-11.710998549367348,-3.6580013963404268,-2.6512820754794664,12.55220131621029,-7,1,0,228,70,251851.00000000003,68,71.5,0,0,0,0,0,0
1778194278.4603488,4.6293559074401855,wait_slave,2,-0.04387088019614972,1.2830262372628924,3.696434176017323,-0.0026048270437073473,1.2471264957198307,3.720277591503476,2,-4.1266053152442375,3.5899741543061747,-2.3843415486152875,5.966730300327096,23,0,30,232,70,251851.00000000003,68,72.0,0,0,0,0,0,0
1778194278.528895,4.697901964187622,wait_slave,2,-0.04387088019614972,1.2830262372628924,3.696434176017323,-0.0025568388835277567,1.2478368584582777,3.720317897141074,2,-4.1314041312621965,3.51893788046147,-2.3883721123751034,5.929228048365834,-2,1,4,236,70,251842.0,68,72.0,0,0,0,0,0,0
1778194278.599699,4.7687060832977295,wait_slave,2,-0.04387088019614972,1.2830262372628924,3.696434176017323,-0.0025568388835277567,1.2478368584582777,3.720317897141074,2,-4.1314041312621965,3.51893788046147,-2.3883721123751034,5.929228048365834,-2,1,5,239,70,251842.0,68,72.0,0,0,0,0,0,0
1778194278.671155,4.840162038803101,wait_slave,2,-0.04387088019614972,1.2830262372628924,3.696434176017323,0.006551237462961601,1.3182797989215316,3.7077355143311346,2,-5.042211765911133,-3.525356165863913,-1.1301338313811637,6.255336766739234,-6,-3,-24,243,70,251841.0,68,72.0,0,0,0,0,0,0
1778194278.743294,4.912301063537598,wait_slave,2,-0.04387088019614972,1.2830262372628924,3.696434176017323,-0.0791330798507921,1.188381081536286,3.7066873538886376,2,3.5262199654642377,9.464515572660638,-1.0253177871314634,10.151973149815877,30,0,30,246,70,251842.0,68,72.0,0,0,0,0,0,0
1778194278.8161101,4.985117197036743,wait_slave,2,-0.04387088019614972,1.2830262372628924,3.696434176017323,0.004342813434075499,1.322426001495982,3.7055789382238356,2,-4.821369363022522,-3.9399764233089662,-0.9144762206512613,6.293272877371465,-30,0,-30,250,70,251842.0,68,72.0,0,0,0,0,0,0
1778194278.8890529,5.058059930801392,wait_slave,2,-0.04387088019614972,1.2830262372628924,3.696434176017323,0.005886109265060169,1.319058170183458,3.707737578865145,2,-4.975698946120989,-3.6031932920565612,-1.1303402847822053,6.2464590818921115,-3,1,1,254,70,251838.0,68,72.0,0,0,0,0,0,0
1778194278.961327,5.130334138870239,wait_slave,2,-0.04387088019614972,1.2830262372628924,3.696434176017323,-0.014206365692135847,1.1775660411754445,3.7496672382438363,2,-2.9664514504013875,10.546019608744794,-5.323306222651336,12.180145850347468,4,17,30,257,70,251841.0,68,72.0,0,0,0,0,0,0
1778194279.032042,5.201049089431763,wait_slave,2,-0.04387088019614972,1.2830262372628924,3.696434176017323,-0.017850524626850994,1.1804367628093475,3.7475585646693097,2,-2.6020355569298728,10.258947445354494,-5.112438865198676,11.753876929612066,0,2,9,261,70,251846.0,68,72.0,0,0,0,0,0,0
1778194279.103873,5.2728800773620605,wait_slave,2,-0.04387088019614972,1.2830262372628924,3.696434176017323,-0.006013666527223238,1.2542090297167396,3.7371866626554393,2,-3.7857213668926484,2.88172075461528,-4.075248663811637,6.264475432725915,-6,-1,-20,264,70,251846.0,68,72.0,0,0,0,0,0,0
1778194279.177145,5.346152067184448,wait_slave,2,-0.04387088019614972,1.2830262372628924,3.696434176017323,-0.006013666527223238,1.2542090297167396,3.7371866626554393,2,-3.7857213668926484,2.88172075461528,-4.075248663811637,6.264475432725915,-2,2,4,268,70,251841.0,68,72.0,0,0,0,0,0,0
1778194279.252202,5.421209096908569,wait_slave,2,-0.04387088019614972,1.2830262372628924,3.696434176017323,-0.001696526112948904,1.3312399576140739,3.72022421837381,2,-4.217435408320082,-4.821372035118143,-2.3790042356487184,6.833158192051885,-4,-4,-26,272,70,251848.99999999997,68,72.0,0,0,0,0,0,0
1778194279.324532,5.493539094924927,wait_slave,2,-0.04387088019614972,1.2830262372628924,3.696434176017323,0.06507785204816618,1.3318824432693708,3.757906507214812,2,-10.89487322443159,-4.885620600647833,-6.147233119748918,13.429669625811682,-30,16,0,275,70,251848.99999999997,68,72.0,0,0,0,0,0,0
1778194279.3964942,5.5655012130737305,wait_slave,2,-0.04387088019614972,1.2830262372628924,3.696434176017323,0.06681811526007475,1.3244399202019492,3.742131234201377,2,-11.068899545622447,-4.141368293905678,-4.569705818405412,12.670977853489301,-7,-2,2,279,70,251837.0,68,71.0,0,0,0,0,0,0
1778194279.468501,5.637508153915405,wait_slave,2,-0.04387088019614972,1.2830262372628924,3.696434176017323,0.0044753405542729,1.3199329056698716,3.7077183622947665,2,-4.834622075042263,-3.6906668406979204,-1.1284186277443542,6.186107090647039,18,-11,1,283,70,251836.0,68,71.0,0,0,0,0,0,0
1778194279.540731,5.70973801612854,wait_slave,2,-0.04387088019614972,1.2830262372628924,3.696434176017323,-0.018054037433046677,1.2608276863488508,3.7517134418061864,2,-2.5816842763103045,2.219855091404166,-5.527926578886344,6.49236648618506,5,18,24,286,70,251832.00000000003,68,71.0,-1,0,0,0,0,0
1778194279.613426,5.782433032989502,wait_slave,2,-0.04387088019614972,1.2830262372628924,3.696434176017323,-0.007455862042988537,1.2551663567159586,3.7371613361626608,2,-3.6415018153161185,2.785988054693389,-4.072716014533784,6.132640593323955,-6,-2,6,290,70,251832.00000000003,68,71.0,-1,0,0,0,0,0
1778194279.68469,5.853697061538696,wait_slave,2,-0.04387088019614972,1.2830262372628924,3.696434176017323,0.0571719872612646,1.2546059935967038,3.774471178189117,2,-10.104286745741433,2.842024366618867,-7.803700217179399,13.079428512753418,-29,18,5,293,70,251846.99999999997,68,71.0,0,0,0,0,0,0
1778194279.755659,5.924666166305542,wait_slave,2,-0.04387088019614972,1.2830262372628924,3.696434176017323,-0.11197903160246758,1.1257133461807913,3.7444325352691106,2,6.810815140631786,15.731289108210111,-4.799835925178764,17.801659607873248,30,-7,30,297,70,251844.99999999997,68,71.0,-1,0,0,0,0,0
1778194279.826474,5.995481014251709,wait_slave,2,-0.04387088019614972,1.2830262372628924,3.696434176017323,-0.009039060653412756,1.2545653908646264,3.73707869427779,2,-3.4831819542736966,2.846084639826607,-4.064451826046689,6.062385912319434,-30,0,-30,300,70,251844.99999999997,68,71.0,-1,0,0,0,0,0
1778194279.897286,6.066293001174927,wait_slave,2,-0.04387088019614972,1.2830262372628924,3.696434176017323,-0.0013131727979489582,1.3283543828659097,3.722786455114117,2,-4.255770739820076,-4.532814560301723,-2.6352279096794273,6.752956283284043,-5,-3,-26,304,70,251844.0,68,71.0,-1,0,0,0,0,0
1778194279.969483,6.1384899616241455,wait_slave,2,-0.04387088019614972,1.2830262372628924,3.696434176017323,-0.09444739516195111,1.193409035884884,3.721943425481162,2,5.057651496580139,8.961720137800855,-2.5509249463838923,10.601862316178623,30,1,30,308,70,251844.0,68,71.0,-1,0,0,0,0,0
1778194280.041714,6.210721015930176,wait_slave,2,-0.04387088019614972,1.2830262372628924,3.696434176017323,-0.08332286254701571,1.266421466583644,3.7116262394427917,2,3.9451982350865986,1.6604770679248482,-1.519206342546875,4.54199968279054,-2,-2,-20,311,70,251844.0,68,71.0,-1,0,0,0,0,0
1778194280.1159308,6.284937858581543,wait_slave,2,-0.04387088019614972,1.2830262372628924,3.696434176017323,0.06201447709766528,1.3237818229477787,3.7422581704279314,2,-10.5885357293815,-4.075558568488624,-4.582399441060847,12.23624334405803,-30,13,-19,315,70,251842.0,68,71.0,-1,-1,0,0,0,0
1778194280.187558,6.356564998626709,wait_slave,2,-0.04387088019614972,1.2830262372628924,3.696434176017323,-0.06807994514342486,1.3246041993835578,3.686561074972404,2,2.4209064947275136,-4.1577962120665335,0.9873101044918897,4.9115006708459745,30,-19,0,319,70,251840.0,68,71.0,0,0,0,0,0,0
1778194280.260501,6.4295079708099365,wait_slave,2,-0.04387088019614972,1.2830262372628924,3.696434176017323,-0.01605951195900035,1.255512927540394,3.735345001087094,2,-2.781136823714937,2.7513309722498436,-3.891082506977117,5.517704887649194,-20,19,28,322,70,251842.0,68,71.0,0,0,0,0,0,0
1778194280.332573,6.501579999923706,wait_slave,2,-0.04387088019614972,1.2830262372628924,3.696434176017323,-0.004010602748392156,1.3219900379663057,3.70572348140618,2,-3.9860277447757566,-3.896380070341321,-0.9289305388857194,5.650938575205862,-7,-9,-22,326,70,251842.0,68,71.0,0,0,0,0,0,0
1778194280.4048069,6.5738139152526855,wait_slave,2,-0.04387088019614972,1.2830262372628924,3.696434176017323,-0.014738159490414127,1.2532728062442953,3.7371339538033475,2,-2.9132720705735595,2.9753431018597176,-4.069977778602452,5.822760500766446,1,13,28,329,70,251842.0,68,71.5,0,0,0,0,0,0
1778194280.476085,6.645092010498047,wait_slave,2,-0.04387088019614972,1.2830262372628924,3.696434176017323,-0.02243198837215088,1.2495741298142518,3.736640894548819,2,-2.1438891823998842,3.345210744864069,-4.020671853149604,5.65265405846446,0,2,6,333,70,251842.0,68,71.5,0,0,0,0,0,0
1778194280.549644,6.718651056289673,wait_slave,2,-0.04387088019614972,1.2830262372628924,3.696434176017323,-0.08096177095724477,1.2522150981084135,3.6990360587609175,2,3.709089076109505,3.0811139154478973,-0.2601882743594519,4.828902843565574,21,-12,4,337,70,251844.99999999997,68,71.5,0,0,0,0,0,0
1778194280.624029,6.793035984039307,wait_slave,2,-0.04387088019614972,1.2830262372628924,3.696434176017323,-0.01675063573951774,1.2538715832005904,3.736127355293329,2,-2.7120244456631983,2.9154654062302,-3.969317927600624,5.622321579131837,-24,15,4,340,70,251839.0,68,71.5,0,0,0,0,0,0
1778194280.696655,6.865662097930908,wait_slave,2,-0.04387088019614972,1.2830262372628924,3.696434176017323,-0.006254888082778853,1.3195168602577245,3.706140875568071,2,-3.761599211337087,-3.649062299483208,-0.9706699550747988,5.329867207907378,-6,-9,-22,344,70,251839.0,68,71.5,0,0,0,0,0,0
1778194280.7688608,6.937867879867554,wait_slave,2,-0.04387088019614972,1.2830262372628924,3.696434176017323,-0.1002016456865813,1.1891136620616671,3.721752600120176,2,5.633076549043158,9.391257520122531,-2.531842410285323,11.239995338395712,30,7,30,348,70,251834.0,68,71.5,0,0,0,0,0,0
1778194280.841822,7.010828971862793,wait_slave,2,-0.04387088019614972,1.2830262372628924,3.696434176017323,-0.1002016456865813,1.1891136620616671,3.721752600120176,2,5.633076549043158,9.391257520122531,-2.531842410285323,11.239995338395712,2,2,9,351,70,251837.0,68,71.5,0,0,0,0,0,0
1778194280.914523,7.083529949188232,wait_slave,2,-0.04387088019614972,1.2830262372628924,3.696434176017323,-0.1002016456865813,1.1891136620616671,3.721752600120176,2,5.633076549043158,9.391257520122531,-2.531842410285323,11.239995338395712,2,2,9,355,70,251837.0,68,71.5,0,0,0,0,0,0
1778194280.9883661,7.1573731899261475,wait_slave,2,-0.04387088019614972,1.2830262372628924,3.696434176017323,-0.1002016456865813,1.1891136620616671,3.721752600120176,2,5.633076549043158,9.391257520122531,-2.531842410285323,11.239995338395712,2,2,9,359,70,251837.0,68,71.5,0,0,0,0,0,0
1778194281.061541,7.230548143386841,wait_slave,2,-0.04387088019614972,1.2830262372628924,3.696434176017323,-0.10017470996967903,1.18831384336969,3.721787877536129,2,5.630382977352931,9.47123938932024,-2.5353701518806115,11.30635617024884,2,2,10,362,70,251836.0,68,71.5,0,0,0,0,0,0
1778194281.135361,7.304368019104004,wait_slave,2,-0.04387088019614972,1.2830262372628924,3.696434176017323,-0.028414187417426406,1.1755588474250624,3.7474580922361413,2,-1.5456692778723315,10.746738983783,-5.102391621881841,11.996495011676103,-26,12,15,366,70,251828.00000000003,68,71.5,-1,1,0,0,0,0
1778194281.206443,7.375450134277344,wait_slave,2,-0.04387088019614972,1.2830262372628924,3.696434176017323,-0.10013909468140714,1.18752173741776,3.721832334834972,2,5.6268214485257415,9.550449984513243,-2.539815881764884,11.372021774229218,27,-6,6,369,70,251828.00000000003,68,71.5,-1,1,0,0,0,0
1778194281.277771,7.446778059005737,wait_slave,2,-0.04387088019614972,1.2830262372628924,3.696434176017323,-0.015301062548968236,1.2492102566044245,3.7374791612102722,2,-2.8569817647181486,3.3815980658467915,-4.10449851929493,6.036924579433229,-30,8,-15,373,70,251840.0,68,71.5,0,0,0,0,0,0
1778194281.34898,7.517987012863159,wait_slave,2,-0.04387088019614972,1.2830262372628924,3.696434176017323,0.060023391197773,1.3188639743828778,3.7429100650175506,2,-10.389427139392273,-3.583773711998539,-4.64758890002277,11.932464661048336,-30,5,-23,377,70,251844.99999999997,68,71.0,-1,0,0,0,0,0
1778194281.419831,7.58883810043335,wait_slave,2,-0.04387088019614972,1.2830262372628924,3.696434176017323,-0.024344986414941205,1.2572451806370557,3.7517950354573624,2,-1.9525893781208516,2.578105662583674,-5.536085944003943,6.411511652207645,27,7,27,380,70,251844.99999999997,68,71.0,-1,0,0,0,0,0
1778194281.491178,7.660185098648071,wait_slave,2,-0.04387088019614972,1.2830262372628924,3.696434176017323,-0.09697596161279298,1.189761550859701,3.7217108163947357,2,5.310508141664326,9.326468640319142,-2.527664037741273,11.026041878626708,27,-8,30,384,70,251838.0,68,71.0,-1,-1,0,0,0,0
1778194281.564217,7.733224153518677,wait_slave,2,-0.04387088019614972,1.2830262372628924,3.696434176017323,-0.08489661862914977,1.2634574731804404,3.7116151249455203,2,4.1025738433000045,1.9568764082452006,-1.5180948928197324,4.792190472057779,-2,-1,-20,387,70,251838.0,68,71.0,-1,-1,0,0,0,0
1778194281.636999,7.806005954742432,wait_slave,2,-0.04387088019614972,1.2830262372628924,3.696434176017323,-0.03141040116235927,1.19076869474979,3.76015276744835,2,-1.2460479033790453,9.225754251310248,-6.371859143102698,11.28130160143881,-19,21,30,391,70,251844.99999999997,68,71.0,-1,-1,0,0,0,0
1778194281.709468,7.878474950790405,wait_slave,2,-0.04387088019614972,1.2830262372628924,3.696434176017323,-0.01774998020926244,1.2595663220130078,3.7323198571365728,2,-2.6120899986887283,2.3459915249884666,-3.5885681119249835,5.0204094943034505,-6,-6,-18,395,70,251844.99999999997,68,71.0,-1,-1,0,0,0,0
1778194281.7824042,7.951411247253418,wait_slave,2,-0.04387088019614972,1.2830262372628924,3.696434176017323,-0.023627644753011712,1.2596453520831377,3.7516488825229617,2,-2.024323544313801,2.3380885179754785,-5.5214706505638755,6.328600309309336,0,10,5,398,70,251842.99999999997,68,71.0,-1,0,0,0,0,0
1778194281.85424,8.023247003555298,wait_slave,2,-0.04387088019614972,1.2830262372628924,3.696434176017323,-0.019579695525703267,1.2646983240432554,3.7503451959012115,2,-2.4291184670446455,1.8327913219637004,-5.391101988388858,6.190615575693024,-3,3,3,402,70,251853.00000000003,68,71.0,-1,0,0,0,0,0
1778194281.92532,8.094326972961426,wait_slave,2,-0.04387088019614972,1.2830262372628924,3.696434176017323,-0.08570955975739802,1.265825735221831,3.7115804933863834,2,4.18386795612483,1.7200502041061494,-1.514631736906047,4.770475141678951,25,-11,4,405,70,251853.00000000003,68,71.0,-1,0,0,0,0,0
1778194281.9973152,8.166322231292725,wait_slave,2,-0.04387088019614972,1.2830262372628924,3.696434176017323,-0.010487444128718604,1.3243371523244423,3.724096745450087,2,-3.338343606743112,-4.131091506154982,-2.7662569432763906,5.988541771177128,-29,6,-19,409,70,251831.0,68,71.0,-1,0,0,0,0,0
1778194282.068973,8.237980127334595,wait_slave,2,-0.04387088019614972,1.2830262372628924,3.696434176017323,-0.08652124744426204,1.2666799281120236,3.7115741618860323,2,4.265036724811232,1.6346309150868876,-1.513998586870935,4.811938093283568,28,-2,24,413,70,251842.0,68,71.0,-1,0,0,0,0,0
1778194282.1416261,8.310633182525635,wait_slave,2,-0.04387088019614972,1.2830262372628924,3.696434176017323,-0.08527560126493827,1.2631130142032605,3.713629670091181,2,4.140472106878855,1.9913223059631946,-1.7195494073857898,4.905682822860567,1,2,6,416,70,251842.0,68,71.0,0,0,0,0,0,0
1778194282.215292,8.384299039840698,wait_slave,2,-0.04387088019614972,1.2830262372628924,3.696434176017323,-0.08610517828414888,1.2631724807203704,3.713626550208438,2,4.223429808799915,1.9853756542522083,-1.7192374191115078,4.973414636005153,2,1,5,420,70,251842.0,68,71.0,0,0,0,0,0,0
1778194282.286734,8.455741167068481,wait_slave,2,-0.04387088019614972,1.2830262372628924,3.696434176017323,-0.007022010488565655,1.3293015696956187,3.7229280605103057,2,-3.6848869707584067,-4.62753324327263,-2.6493884492982733,6.481644471901671,-30,5,-22,424,70,251842.0,68,71.0,0,0,0,0,0,0
1778194282.3604548,8.529461860656738,wait_slave,2,-0.04387088019614972,1.2830262372628924,3.696434176017323,-0.0112064996886172,1.331747413733936,3.7203181428093415,2,-3.266438050753252,-4.872117647104357,-2.388396679201854,6.333370872123063,-1,1,0,427,70,251838.0,68,72.0,0,0,0,0,0,0
1778194282.430944,8.599951028823853,wait_slave,2,-0.04387088019614972,1.2830262372628924,3.696434176017323,-0.0112064996886172,1.331747413733936,3.7203181428093415,2,-3.266438050753252,-4.872117647104357,-2.388396679201854,6.333370872123063,-2,2,0,431,70,251838.0,68,72.0,0,0,0,0,0,0
1778194282.5041459,8.673152923583984,wait_slave,2,-0.04387088019614972,1.2830262372628924,3.696434176017323,-0.004271473508401735,1.3203500323382393,3.7078390488828017,2,-3.9599406687747987,-3.732379507534689,-1.1404872865478755,5.559900910920879,-5,-2,4,434,70,251840.0,68,72.0,0,0,0,0,0,0
1778194282.578238,8.747245073318481,wait_slave,2,-0.04387088019614972,1.2830262372628924,3.696434176017323,0.0011092578830913524,1.3912502270586384,3.6910991541264324,2,-4.498013807924107,-10.822398979574599,0.5335021890890523,11.732053207991179,-5,-5,-28,438,70,251834.0,68,72.0,0,-1,0,0,0,0
1778194282.651099,8.820106029510498,wait_slave,2,-0.04387088019614972,1.2830262372628924,3.696434176017323,-0.16042711080358374,1.2083055609391273,3.696857466226175,2,11.655623060743402,7.472067632376511,-0.04232902088521229,13.845112328289403,30,2,30,442,70,251846.99999999997,68,72.0,0,0,0,0,0,0
1778194282.723927,8.892934083938599,wait_slave,2,-0.04387088019614972,1.2830262372628924,3.696434176017323,-0.08694245510808774,1.262398216806393,3.7136380939170937,2,4.307157491193801,2.0628020456499474,-1.7203917899770715,5.076071891187614,-23,7,-13,445,70,251846.99999999997,68,72.0,0,0,0,0,0,0
1778194282.796247,8.965254068374634,wait_slave,2,-0.04387088019614972,1.2830262372628924,3.696434176017323,-0.005076510930339895,1.3195132718076703,3.7079408944299685,2,-3.8794369265809827,-3.6487034544777863,-1.1506718412645611,5.448588207262263,-30,0,-18,449,70,251844.0,68,72.0,0,0,0,0,0,0
1778194282.868243,9.03725004196167,wait_slave,2,-0.04387088019614972,1.2830262372628924,3.696434176017323,-0.10107621170589187,1.193301670082346,3.721696780636092,2,5.720533150974215,8.972456718054644,-2.5262604618768947,10.936702931414082,30,7,30,453,70,251834.0,68,72.0,0,0,0,0,0,0
1778194282.939593,9.10860013961792,wait_slave,2,-0.04387088019614972,1.2830262372628924,3.696434176017323,-0.08155710470565691,1.262658746470094,3.69521935437499,2,3.768622450950719,2.0367490792798426,0.12148216423328861,4.285512793818716,-5,-8,-19,456,70,251834.0,68,72.0,0,0,0,0,0,0
1778194283.011281,9.180288076400757,wait_slave,2,-0.04387088019614972,1.2830262372628924,3.696434176017323,-0.15795747184052278,1.1999351199300532,3.681790862115481,2,11.408659164437305,8.309111733283924,1.4643313901841815,14.189542210613231,30,-4,30,460,70,251846.99999999997,68,72.0,0,0,0,0,0,0
1778194283.08142,9.250427007675171,wait_slave,2,-0.04387088019614972,1.2830262372628924,3.696434176017323,-0.0827435808045962,1.2546832956149425,3.698978827550701,2,3.8872700608446484,2.8342941647949926,-0.25446515333782393,4.817555858814025,-25,7,-13,463,70,251840.0,68,72.0,0,0,0,0,0,0
1778194283.150888,9.319895029067993,wait_slave,2,-0.04387088019614972,1.2830262372628924,3.696434176017323,-0.006819811159882505,1.3194793683334494,3.7080541570840775,2,-3.7051069036267217,-3.645313107055692,-1.1619981066754548,5.326008300377663,-29,4,-21,467,70,251840.0,68,72.0,0,0,0,0,0,0
1778194283.21982,9.388827085494995,wait_slave,2,-0.04387088019614972,1.2830262372628924,3.696434176017323,-0.10283577736725347,1.1934151218216775,3.7216887369186193,2,5.8964897171103745,8.961111544121492,-2.525456090129641,11.020346616751613,30,7,30,470,70,251848.99999999997,68,72.0,0,0,0,0,0,0
1778194283.2918222,9.460829257965088,wait_slave,2,-0.04387088019614972,1.2830262372628924,3.696434176017323,-0.007707856772469324,1.3194528298769441,3.708118843294207,2,-3.61630234236804,-3.642659261405168,-1.168466727688422,5.264211585777333,-30,-3,-30,474,70,251844.0,68,72.0,0,0,0,0,0,0
1778194283.363657,9.532664060592651,wait_slave,2,-0.04387088019614972,1.2830262372628924,3.696434176017323,-0.0077832315642694105,1.3203156739905961,3.7080413334919453,2,-3.608764863188031,-3.7289436727703684,-1.1607157474622376,5.3174679875746795,-2,1,0,477,70,251852.0,68,71.0,0,-1,0,0,0,0
1778194283.435499,9.604506015777588,wait_slave,2,-0.04387088019614972,1.2830262372628924,3.696434176017323,-0.0990427810901664,1.1998292539692428,3.72042578285699,2,5.517190089401668,8.319698329364966,-2.3991606839667057,10.267070602743598,30,6,30,481,70,251852.0,68,71.0,0,-1,0,0,0,0
1778194283.507061,9.67606806755066,wait_slave,2,-0.04387088019614972,1.2830262372628924,3.696434176017323,-0.16052383887624644,1.2054493665810624,3.6799607008894655,2,11.665295868009672,7.757687068183006,1.6473475127857462,14.105835323153986,27,-14,7,485,70,251844.0,68,71.0,0,-1,0,0,0,0
1778194283.5805209,9.749527931213379,wait_slave,2,-0.04387088019614972,1.2830262372628924,3.696434176017323,-0.17962979583817118,1.1404473642477035,3.702029013954648,2,13.575891564202147,14.25788730151889,-0.5594837937325181,19.69530919232389,14,8,30,488,70,251844.99999999997,68,71.0,0,-1,0,0,0,0
1778194283.6517792,9.820786237716675,wait_slave,2,-0.04387088019614972,1.2830262372628924,3.696434176017323,-0.13020055025319488,1.3277224749588044,3.649772713337308,2,8.632967005704515,-4.469623769591191,4.666146268001503,10.78325446967017,-12,-20,-30,492,70,251844.99999999997,68,71.0,0,-1,0,0,0,0
1778194283.723092,9.892099142074585,wait_slave,2,-0.04387088019614972,1.2830262372628924,3.696434176017323,-0.061548402657238155,1.392405885739536,3.6553074851019227,2,1.7677522461088433,-10.937964847664361,4.112669091540022,11.818547714032919,-23,0,-26,495,70,251850.0,68,71.0,0,0,0,0,0,0
1778194283.795825,9.964832067489624,wait_slave,2,-0.04387088019614972,1.2830262372628924,3.696434176017323,-0.08641138846957541,1.2582748959008438,3.6989462252335232,2,4.254050827342569,2.4751341362048596,-0.2512049216200296,4.9281174241759595,10,16,30,499,70,251844.99999999997,68,71.0,0,1,0,0,0,0
1778194283.86785,10.03685712814331,wait_slave,2,-0.04387088019614972,1.2830262372628924,3.696434176017323,-0.08642815618578492,1.2591845421123193,3.6989293383943984,2,4.25572759896352,2.3841695150573106,-0.24951623770754772,4.884438557908999,2,1,5,503,70,251844.99999999997,68,71.0,0,1,0,0,0,0
1778194283.940065,10.109071969985962,wait_slave,2,-0.04387088019614972,1.2830262372628924,3.696434176017323,-0.14770462991005062,1.2734785927725625,3.6732937503678627,2,10.38337497139009,0.9547644490329965,2.3140425649460283,10.680863445527681,27,-9,0,506,70,251850.0,68,71.0,0,0,0,0,0,0
1778194284.011231,10.180238008499146,wait_slave,2,-0.04387088019614972,1.2830262372628924,3.696434176017323,-0.14770462991005062,1.2734785927725625,3.6732937503678627,2,10.38337497139009,0.9547644490329965,2.3140425649460283,10.680863445527681,6,0,4,510,70,251850.0,68,71.0,0,0,0,0,0,0
1778194284.084,10.253007173538208,wait_slave,2,-0.04387088019614972,1.2830262372628924,3.696434176017323,-0.07486356982722686,1.328861541543556,3.686574664362805,2,3.099268963107714,-4.5835304280663625,0.9859511654517927,5.620170726174493,-23,4,-18,513,70,251851.00000000003,68,71.0,0,0,0,0,0,0
1778194284.156734,10.325741052627563,wait_slave,2,-0.04387088019614972,1.2830262372628924,3.696434176017323,-0.16358244365208607,1.212950012737127,3.696965990137147,2,11.971156345593634,7.007622452576534,-0.05318141198240589,13.871488202463425,30,4,30,517,70,251848.99999999997,68,71.0,0,0,0,0,0,0
1778194284.229509,10.398516178131104,wait_slave,2,-0.04387088019614972,1.2830262372628924,3.696434176017323,-0.09888879950982443,1.203456117676577,3.720528299002471,2,5.501791931367471,7.9570119586315435,-2.4094122985148125,9.969404264553626,-18,10,12,521,70,251848.99999999997,68,71.0,0,0,0,0,0,0
1778194284.3025532,10.47156023979187,wait_slave,2,-0.04387088019614972,1.2830262372628924,3.696434176017323,-0.14596030590526987,1.2733120808312293,3.6733287629844273,2,10.208942570912015,0.9714156431663179,2.3105413032895594,10.512124327754826,22,-16,-19,524,70,251848.0,68,71.0,0,0,0,0,0,0
1778194284.386106,10.555113077163696,wait_slave,2,-0.04387088019614972,1.2830262372628924,3.696434176017323,-0.14510483334572588,1.2732210034130769,3.6733524569789777,2,10.123395314957616,0.9805233849815576,2.3081719038345216,10.429391945317454,5,0,4,528,70,251853.00000000003,68,71.5,0,0,0,0,0,0
1778194284.4572852,10.62629222869873,wait_slave,2,-0.04387088019614972,1.2830262372628924,3.696434176017323,-0.14425986984163242,1.2731247506948797,3.6733804588145564,2,10.038898964548268,0.9901486568012707,2.30537172027665,10.347686966256033,5,0,4,532,70,251857.00000000003,68,71.5,-1,0,0,0,0,0
1778194284.5289102,10.697917222976685,wait_slave,2,-0.04387088019614972,1.2830262372628924,3.696434176017323,-0.008041118562465588,1.333616709439811,3.7227860902950884,2,-3.5829761633684134,-5.059047217691859,-2.635191427776551,6.736164398166733,-30,19,-20,536,70,251857.00000000003,68,71.5,-1,0,0,0,0,0
1778194284.601734,10.770740985870361,wait_slave,2,-0.04387088019614972,1.2830262372628924,3.696434176017323,-0.08813098726376101,1.2710279960378008,3.711607406570088,2,4.4260107067611285,1.1998241225091633,-1.5173230552765204,4.830260650875137,30,-1,26,539,70,251848.99999999997,68,71.5,0,0,0,0,0,0
1778194284.6745028,10.843509912490845,wait_slave,2,-0.04387088019614972,1.2830262372628924,3.696434176017323,-0.08726331385678221,1.2709384067361662,3.7116350390615587,2,4.339243366063249,1.208783052672624,-1.5200863044235735,4.754035320782606,2,1,4,543,70,251848.0,68,71.5,0,0,0,0,0,0
1778194284.747624,10.916630983352661,wait_slave,2,-0.04387088019614972,1.2830262372628924,3.696434176017323,-0.006269421744673931,1.3335219388192672,3.7227683339687037,2,-3.760145845147579,-5.049570155637473,-2.633415795138072,6.824348634380276,-29,6,-20,547,70,251851.00000000003,68,71.5,0,-1,0,0,0,0
1778194284.822155,10.991162061691284,wait_slave,2,-0.04387088019614972,1.2830262372628924,3.696434176017323,-0.0842745250166046,1.2671833490355162,3.7137980156882313,2,4.040364482045487,1.5842888227376228,-1.7363839670908376,4.674349741172153,29,-1,27,550,70,251851.00000000003,68,71.5,0,-1,0,0,0,0
1778194284.8931332,11.062140226364136,wait_slave,2,-0.04387088019614972,1.2830262372628924,3.696434176017323,-0.08163906978703617,1.2658848278720969,3.7152338326193397,2,3.7768189590886445,1.714140939079556,-1.8799656602016768,4.553779912588826,1,2,5,554,70,251850.0,68,71.5,-1,0,0,0,0,0
1778194284.965305,11.134312152862549,wait_slave,2,-0.04387088019614972,1.2830262372628924,3.696434176017323,-0.08343892931625274,1.2670677535167112,3.7138403014077896,2,3.956804912010302,1.5958483746181251,-1.740612539046671,4.6079029023588,3,1,4,557,70,251844.99999999997,68,71.5,-1,0,0,0,0,0
1778194285.037717,11.206724166870117,wait_slave,2,-0.04387088019614972,1.2830262372628924,3.696434176017323,-0.007828147598184731,1.3366486314855521,3.7201628411213994,2,-3.604273259796499,-5.362239422265969,-2.372866510407645,6.882942163726316,-28,4,-23,561,70,251844.99999999997,68,71.5,-1,0,0,0,0,0
1778194285.109899,11.278906106948853,wait_slave,2,-0.04387088019614972,1.2830262372628924,3.696434176017323,-0.010477824817749726,1.3455667033315022,3.735353254452682,2,-3.3393055378399996,-6.254046606860975,-3.8919078435359022,8.087707159536283,0,8,-3,565,70,251856.0,68,71.5,0,0,0,0,0,0
1778194285.181015,11.350022077560425,wait_slave,2,-0.04387088019614972,1.2830262372628924,3.696434176017323,-0.07337049647231808,1.33880745117672,3.7008369069362805,2,2.949961627616836,-5.578121391382762,-0.4402730918957598,6.325468540500473,24,-10,2,568,70,251842.99999999997,68,71.5,0,0,0,0,0,0
1778194285.250968,11.41997504234314,wait_slave,2,-0.04387088019614972,1.2830262372628924,3.696434176017323,-0.07251564785445064,1.3395168765892236,3.7009251655021824,2,2.8644767658300916,-5.649063932633114,-0.44909894848594867,6.349711829877629,1,1,0,572,70,251842.99999999997,68,71.5,0,0,0,0,0,0
1778194285.318445,11.487452030181885,wait_slave,2,-0.04387088019614972,1.2830262372628924,3.696434176017323,-0.0019524068694318775,1.3348480114275096,3.7228815593636964,2,-4.191847332671784,-5.18217741646172,-2.644738334637342,7.17085683128688,-28,10,1,575,80,251848.0,68,71.5,0,0,0,0,0,0
1778194285.3881652,11.557172298431396,wait_slave,2,-0.04387088019614972,1.2830262372628924,3.696434176017323,-0.0808253056320467,1.2683290638696465,3.714164453102526,2,3.6954425435896985,1.4697173393245944,-1.7730277085203028,4.354307281952529,30,0,28,579,80,251848.99999999997,68,71.0,0,0,0,0,0,0
1778194285.458657,11.62766408920288,wait_slave,2,-0.04387088019614972,1.2830262372628924,3.696434176017323,-0.0808253056320467,1.2683290638696465,3.714164453102526,2,3.6954425435896985,1.4697173393245944,-1.7730277085203028,4.354307281952529,2,2,4,582,80,251850.0,68,71.0,0,0,0,0,0,0
1778194285.5302558,11.699262857437134,wait_slave,2,-0.04387088019614972,1.2830262372628924,3.696434176017323,0.006637962705201117,1.3966726171380084,3.690754476030222,2,-5.050884290135084,-11.364637987511594,0.5679699987100939,12.44945856730162,-30,-7,-30,586,80,251850.0,68,71.0,0,0,0,0,0,0
1778194285.599158,11.768165111541748,wait_slave,2,-0.04387088019614972,1.2830262372628924,3.696434176017323,-0.001124880385883431,1.3347437121524126,3.722919811724075,2,-4.274599981026629,-5.1717474889520165,-2.648563570675222,7.213464221522294,0,14,22,589,80,251852.0,68,71.0,0,-1,0,0,0,0
1778194285.670154,11.839161157608032,wait_slave,2,-0.04387088019614972,1.2830262372628924,3.696434176017323,-0.001124880385883431,1.3347437121524126,3.722919811724075,2,-4.274599981026629,-5.1717474889520165,-2.648563570675222,7.213464221522294,-2,2,0,593,80,251850.0,68,71.0,0,0,0,0,0,0
1778194285.7431731,11.912180185317993,wait_slave,2,-0.04387088019614972,1.2830262372628924,3.696434176017323,-0.001124880385883431,1.3347437121524126,3.722919811724075,2,-4.274599981026629,-5.1717474889520165,-2.648563570675222,7.213464221522294,-2,2,0,596,80,251850.0,68,71.0,0,0,0,0,0,0
1778194285.819695,11.988702058792114,wait_slave,2,-0.04387088019614972,1.2830262372628924,3.696434176017323,-0.07290619717170443,1.2682676888167905,3.6958659134182628,2,2.9035316975554712,1.4758548446101916,0.05682625990601764,3.2575870003552687,26,-8,27,600,80,251858.0,68,71.0,0,-1,0,0,0,0
1778194285.891006,12.060013055801392,wait_slave,2,-0.04387088019614972,1.2830262372628924,3.696434176017323,0.06883799633245025,1.3341498574817876,3.740882193684507,2,-11.270887652859997,-5.112362021889516,-4.44480176671842,13.150110899595994,-30,19,-23,604,80,251846.99999999997,68,71.0,0,-1,0,0,0,0
1778194285.963897,12.132904052734375,wait_slave,2,-0.04387088019614972,1.2830262372628924,3.696434176017323,-0.009871742261083005,1.2635546724241487,3.7361577055673085,2,-3.3999137935066717,1.9471564838743793,-3.9723529549985592,5.579464147662995,25,1,29,607,80,251846.99999999997,68,71.0,0,-1,0,0,0,0
1778194286.0356312,12.204638242721558,wait_slave,2,-0.04387088019614972,1.2830262372628924,3.696434176017323,4.410262138032639e-05,1.329094835493001,3.7056256755645527,2,-4.391498281753005,-4.606859823010856,-0.9191499547229753,6.430649362761,-5,-8,-22,611,80,251853.00000000003,68,71.0,0,0,0,0,0,0
1778194286.108598,12.277605056762695,wait_slave,2,-0.04387088019614972,1.2830262372628924,3.696434176017323,-0.07370433331451087,1.2684312728599636,3.6957881154337815,2,2.983345311836115,1.4594964402928845,0.06460605835414412,3.3218448265471685,27,-2,25,615,80,251851.00000000003,68,71.0,0,0,0,0,0,0
1778194286.181667,12.350674152374268,wait_slave,2,-0.04387088019614972,1.2830262372628924,3.696434176017323,0.0016953347936922158,1.3266573850682164,3.707876824629953,2,-4.556621498984194,-4.3631147805323955,-1.1442648612630002,6.411623206788312,-28,5,-19,618,80,251850.0,68,71.0,0,-1,0,0,0,0
1778194286.2552378,12.42424488067627,wait_slave,2,-0.04387088019614972,1.2830262372628924,3.696434176017323,-0.05841599866799485,1.328184571335696,3.670471963129849,2,1.4545118471845129,-4.515833407280345,2.5962212887474134,5.4082086734938954,21,-13,0,622,80,251850.0,68,71.0,0,-1,0,0,0,0
1778194286.3262851,12.49529218673706,wait_slave,2,-0.04387088019614972,1.2830262372628924,3.696434176017323,0.0037201504689672316,1.3348723332229584,3.7043439250179087,2,-4.759103066511695,-5.184609596006595,-0.790974900058572,7.082011010525709,-24,13,-2,625,80,251854.0,68,71.0,0,0,0,0,0,0
1778194286.398112,12.567119121551514,wait_slave,2,-0.04387088019614972,1.2830262372628924,3.696434176017323,-0.08853884858940164,1.201869282749334,3.7036931748078357,2,4.466796839325192,8.115695451355842,-0.7258998790512727,9.29213201032842,30,1,30,629,80,251848.99999999997,68,71.0,0,0,0,0,0,0
1778194286.470458,12.639465093612671,wait_slave,2,-0.04387088019614972,1.2830262372628924,3.696434176017323,0.005453049305780278,1.3262515806495851,3.689360870336576,2,-4.932392950193,-4.3225343386692705,0.7073305680747044,6.5964475179161,-30,-4,-30,633,80,251848.99999999997,68,71.0,0,0,0,0,0,0
1778194286.54283,12.71183705329895,wait_slave,2,-0.04387088019614972,1.2830262372628924,3.696434176017323,-0.060041980347029345,1.3284298697661934,3.670365773640471,2,1.6171100150879623,-4.540363250330093,2.606840237685182,5.479558309814794,23,-6,0,636,80,251851.00000000003,68,71.0,0,-1,0,0,0,0
1778194286.6157818,12.784788846969604,wait_slave,2,-0.04387088019614972,1.2830262372628924,3.696434176017323,-0.06986571275931563,1.258589214534703,3.6832317164886708,2,2.5994832563165913,2.4437022728189373,1.3202459528652177,3.8042138969973465,5,4,29,640,80,251844.0,68,71.0,0,-1,0,0,0,0
1778194286.687294,12.856301069259644,wait_slave,2,-0.04387088019614972,1.2830262372628924,3.696434176017323,0.01706639022605505,1.3820903504529092,3.662311325754007,2,-6.093727042220477,-9.906411319001673,3.412285026331574,12.120816127112079,-30,-8,-30,643,80,251848.0,68,71.0,0,0,0,0,0,0
1778194286.7588968,12.927903890609741,wait_slave,2,-0.04387088019614972,1.2830262372628924,3.696434176017323,-0.07279195378367431,1.2632123891112395,3.681131799178668,2,2.892107358752459,1.981384815165299,1.5302376838655096,3.8251533471796697,30,6,30,647,80,251848.0,68,71.0,0,0,0,0,0,0
1778194286.831121,13.000128030776978,wait_slave,2,-0.04387088019614972,1.2830262372628924,3.696434176017323,-0.05462507231570446,1.324486913411568,3.654615726916534,2,1.0754192119554737,-4.146067614867555,4.1818449100789135,5.986169894051569,-5,-10,-20,651,80,251848.0,68,71.0,0,0,0,0,0,0
1778194286.902786,13.07179307937622,wait_slave,2,-0.04387088019614972,1.2830262372628924,3.696434176017323,0.006260492139295359,1.3195853447574535,3.674838408608133,2,-5.013137233544509,-3.655910749456104,2.1595767409190003,6.569703191945379,-24,6,2,654,80,251851.00000000003,68,71.0,0,0,0,0,0,0
1778194286.9752781,13.144285202026367,wait_slave,2,-0.04387088019614972,1.2830262372628924,3.696434176017323,0.011955077749266407,1.3861119803161814,3.660331377149601,2,-5.582595794541613,-10.3085743053289,3.610279886772183,12.26646651952194,-5,-6,-26,658,80,251851.00000000003,68,71.0,0,0,0,0,0,0
1778194287.048759,13.217766046524048,wait_slave,2,-0.04387088019614972,1.2830262372628924,3.696434176017323,-0.06943346078808421,1.2526119332823704,3.668499473627944,2,2.556258059193449,3.041430398052203,2.7934702389378785,4.856771572476833,29,2,30,662,80,251852.0,68,71.0,0,0,0,0,0,0
1778194287.119362,13.288369178771973,wait_slave,2,-0.04387088019614972,1.2830262372628924,3.696434176017323,0.010133199725297581,1.3861886542245463,3.6603691123237376,2,-5.40040799214473,-10.316241696165385,3.606506369358531,12.190001534353701,-30,-4,-30,665,80,251842.0,68,71.0,0,0,0,0,0,0
1778194287.188298,13.35730504989624,wait_slave,2,-0.04387088019614972,1.2830262372628924,3.696434176017323,-0.05716100813166314,1.3882251672599535,3.6404223159078497,2,1.3290127935513416,-10.519892999706105,5.601186010947323,11.991985175938161,24,-9,-4,669,80,251856.0,68,71.0,0,0,0,0,0,0
1778194287.257568,13.426574945449829,wait_slave,2,-0.04387088019614972,1.2830262372628924,3.696434176017323,-0.06652170344405506,1.3249080406508544,3.6527966658032804,2,2.2650823247905336,-4.188180338796199,4.36375102140425,6.4586202446934555,4,2,23,672,80,251856.0,68,71.0,0,0,0,0,0,0
1778194287.327604,13.49661111831665,wait_slave,2,-0.04387088019614972,1.2830262372628924,3.696434176017323,-0.1335598792481465,1.2659512408390527,3.643297708954211,2,8.968899905199677,1.7074996423839695,5.313646706311204,10.563690730882085,29,-5,25,676,70,251852.0,68,71.0,0,0,0,0,0,0
1778194287.400286,13.569293022155762,wait_slave,2,-0.04387088019614972,1.2830262372628924,3.696434176017323,-0.0731998962978877,1.2530034472399958,3.668375025841664,2,2.932901610173798,3.002279002289665,2.8059150175658853,5.048638445001904,-18,7,9,679,70,251852.0,68,71.5,0,0,0,0,0,0
1778194287.4749272,13.64393424987793,wait_slave,2,-0.04387088019614972,1.2830262372628924,3.696434176017323,-0.11831370983881939,1.3212342586374788,3.6199809284096887,2,7.444282964266967,-3.8208021374586343,7.645324760763428,11.334322587752045,19,-19,-22,683,70,251852.0,68,71.5,0,0,0,0,0,0
1778194287.5506,13.71960711479187,wait_slave,2,-0.04387088019614972,1.2830262372628924,3.696434176017323,-0.1192281073819299,1.3213006444434638,3.6199766729801155,2,7.535722718578018,-3.82744071805714,7.645750303720744,11.397101256388858,5,-3,0,687,70,251850.0,68,71.5,0,0,0,0,0,0
1778194287.620509,13.789515972137451,wait_slave,2,-0.04387088019614972,1.2830262372628924,3.696434176017323,-0.06807440185475944,1.3208987402439938,3.655739232390873,2,2.4203521658609715,-3.787250298110134,4.06949436264501,6.063180171735185,-16,11,0,690,70,251854.0,68,71.5,0,1,0,0,0,0
1778194287.693747,13.862754106521606,wait_slave,2,-0.04387088019614972,1.2830262372628924,3.696434176017323,-0.061285815315541115,1.3269444430788493,3.6549771785569267,2,1.7414935119391393,-4.391820581595685,4.145699746039622,6.285516212481403,-1,-1,-2,694,70,251854.0,68,71.5,0,1,0,0,0,0
1778194287.765588,13.934595108032227,wait_slave,2,-0.04387088019614972,1.2830262372628924,3.696434176017323,-0.061285815315541115,1.3269444430788493,3.6549771785569267,2,1.7414935119391393,-4.391820581595685,4.145699746039622,6.285516212481403,1,-1,0,697,80,251852.0,68,71.5,0,0,0,0,0,0
1778194287.837902,14.006909132003784,wait_slave,2,-0.04387088019614972,1.2830262372628924,3.696434176017323,-0.0660104275401161,1.330411718200713,3.6515830022403644,2,2.213954734396638,-4.738548093782047,4.4851173776958575,6.889971806528103,3,-3,-1,701,80,251850.0,68,71.5,0,0,0,0,0,0
1778194287.908454,14.077461004257202,wait_slave,2,-0.04387088019614972,1.2830262372628924,3.696434176017323,0.002900044910519428,1.3899561985410775,3.6582936059950355,2,-4.677092510666915,-10.69299612781851,3.8140570022287434,12.278533762592678,-26,0,-25,705,80,251854.0,68,71.5,0,0,0,0,0,0
1778194287.9811049,14.15011191368103,wait_slave,2,-0.04387088019614972,1.2830262372628924,3.696434176017323,-0.07031852647938064,1.3260754217788158,3.6527852617006418,2,2.6447646283230917,-4.304918451592332,4.364891431668116,6.676779165461356,26,-3,21,708,80,251848.99999999997,68,71.5,0,0,0,0,0,0
1778194288.053976,14.222983121871948,wait_slave,2,-0.04387088019614972,1.2830262372628924,3.696434176017323,-0.06565308768009226,1.3226424739148097,3.6561496760277614,2,2.1782207483942537,-3.961623665191727,4.028449998956152,6.055370928971418,0,0,1,712,80,251848.99999999997,68,71.5,0,0,0,0,0,0
1778194288.1265259,14.295532941818237,wait_slave,2,-0.04387088019614972,1.2830262372628924,3.696434176017323,-0.06565308768009226,1.3226424739148097,3.6561496760277614,2,2.1782207483942537,-3.961623665191727,4.028449998956152,6.055370928971418,1,-1,0,715,80,251846.99999999997,68,71.5,0,0,0,0,0,0
1778194288.199021,14.368028163909912,wait_slave,2,-0.04387088019614972,1.2830262372628924,3.696434176017323,-0.06795459296356898,1.3281783707935806,3.6724003922949198,2,2.408371276741926,-4.515213353068814,2.403378372240317,5.653638777859705,2,4,-2,719,80,251851.00000000003,68,71.5,0,0,0,0,0,0
1778194288.271404,14.44041109085083,wait_slave,2,-0.04387088019614972,1.2830262372628924,3.696434176017323,-0.13045609377098755,1.3278849815411116,3.633127010725398,2,8.658521357483782,-4.485874427821912,6.330716529192504,11.626307808293248,26,-16,0,723,80,251854.0,68,71.5,0,0,0,0,0,0
1778194288.344672,14.513679027557373,wait_slave,2,-0.04387088019614972,1.2830262372628924,3.696434176017323,-0.07070229340848888,1.3303692038041754,3.670129003199245,2,2.683141321233916,-4.7342966541283005,2.630517281807787,6.044206592175083,-17,11,-1,726,80,251854.0,68,71.5,0,0,0,0,0,0
1778194288.420597,14.589604139328003,wait_slave,2,-0.04387088019614972,1.2830262372628924,3.696434176017323,-0.07070229340848888,1.3303692038041754,3.670129003199245,2,2.683141321233916,-4.7342966541283005,2.630517281807787,6.044206592175083,1,-1,0,730,80,251851.00000000003,68,71.5,0,0,0,0,0,0
1778194288.4931462,14.662153244018555,wait_slave,2,-0.04387088019614972,1.2830262372628924,3.696434176017323,-0.08114002334407666,1.2641869745472691,3.6807862544080034,2,3.726914314792694,1.8839262715623306,1.5647921609319493,4.459556369573494,6,3,26,734,80,251846.0,68,71.5,0,0,0,0,0,0
