timestamp,phase,command,axis,repeat,t_send,t_since_cmd,marker_id,n_markers,pos_x,pos_y,pos_z,marker_dist,tello_height_cm,tello_baro_cm,tello_battery,tello_temp_c,tello_pitch,tello_roll,tello_yaw,tello_vgx,tello_vgy,tello_vgz,tello_agx,tello_agy,tello_agz
1777586063.463713,init_hover,none,-,0,,,2,1,1.4025102068580368,0.9343673259436301,2.252553793849494,2.3498003106321175,70,255044.99999999997,47,79.0,0,0,-4,0,0,0,-3.0,41.0,-978.0
1777586063.669312,init_hover,none,-,0,,,2,1,1.351600825117841,0.9773312054102922,2.2602813566355624,2.3591961071768384,80,255042.0,47,79.0,0,-1,-4,0,0,0,9.0,26.0,-961.0
1777586063.719014,init_hover,none,-,0,,,2,1,1.351600825117841,0.9773312054102922,2.2602813566355624,2.3591961071768384,80,255039.0,47,79.0,0,-1,-4,0,0,0,17.0,7.0,-1031.0
1777586063.77002,init_hover,none,-,0,,,2,1,1.3810601703666432,0.9704547027010877,2.2590569376049077,2.3609243250503615,80,255039.0,47,79.0,0,-1,-4,0,0,0,17.0,7.0,-1031.0
1777586063.820383,init_hover,none,-,0,,,2,1,1.4079338485442423,0.9377243006526683,2.2642508584113292,2.362708064513464,80,255046.99999999997,47,80.0,0,-1,-4,0,0,0,18.0,20.0,-993.0
1777586063.8705852,init_hover,none,-,0,,,2,1,1.4117260844859598,0.9653845176677255,2.256213335454533,2.3621339158793213,80,255046.99999999997,47,80.0,0,-1,-4,0,0,0,18.0,20.0,-993.0
1777586063.920322,init_hover,none,-,0,,,2,1,1.4082686329950673,0.9389505471658279,2.2705471292683628,2.3690789845859532,80,255048.99999999997,47,80.0,0,0,-4,0,0,0,29.0,-11.0,-999.0
1777586063.9771059,init_hover,none,-,0,,,2,1,1.4079187500882282,0.9384130389398397,2.270735571846281,2.369077108163015,80,255048.99999999997,47,80.0,0,0,-4,0,0,0,29.0,-11.0,-999.0
1777586064.029004,init_hover,none,-,0,,,2,1,1.4079187500882282,0.9384130389398397,2.270735571846281,2.369077108163015,80,255056.0,47,80.0,0,0,-4,0,0,0,-11.0,-3.0,-1022.0
1777586064.079061,init_hover,none,-,0,,,2,1,1.4061186729823412,0.9396091050667484,2.2705956935187674,2.3689059006726816,80,255056.0,47,80.0,0,0,-4,0,0,0,-11.0,-3.0,-1022.0
1777586064.129945,init_hover,none,-,0,,,2,1,1.3792998237043443,0.9478246721709809,2.2851862312291376,2.380347944965319,80,255039.0,47,80.0,0,0,-4,0,0,0,7.0,11.0,-1002.0
1777586064.180487,init_hover,none,-,0,,,2,1,1.3792998237043443,0.9478246721709809,2.2851862312291376,2.380347944965319,80,255039.0,47,80.0,0,0,-4,0,0,0,7.0,11.0,-1002.0
1777586064.229738,init_hover,none,-,0,,,2,1,1.3825134387423574,0.97484224907379,2.270448730142108,2.3731197985653036,80,255044.0,47,80.0,0,0,-4,0,0,0,-17.0,4.0,-1002.0
1777586064.281591,init_hover,none,-,0,,,2,1,1.4049624444574014,0.9095572483596729,2.291511272139771,2.382155973298228,80,255044.0,47,80.0,0,0,-4,0,0,0,-17.0,4.0,-1002.0
1777586064.332127,init_hover,none,-,0,,,2,1,1.4074990394366729,0.9130373189650448,2.29677742639842,2.3883988997246677,80,255044.0,47,80.0,0,0,-4,0,0,0,8.0,19.0,-980.0
1777586064.382405,init_hover,none,-,0,,,2,1,1.4071368169372747,0.9124944421302802,2.296973491073988,2.388409127351691,80,255044.0,47,80.0,0,0,-4,0,0,0,8.0,19.0,-980.0
1777586064.43277,init_hover,none,-,0,,,2,1,1.4067687795251098,0.9119593837936547,2.297172621065217,2.388423183111059,80,255048.99999999997,47,80.0,0,0,-4,0,0,0,4.0,0.0,-998.0
1777586064.482869,init_hover,none,-,0,,,2,1,1.4067687795251098,0.9119593837936547,2.297172621065217,2.388423183111059,80,255048.99999999997,47,80.0,0,0,-4,0,0,0,4.0,0.0,-998.0
1777586064.533664,init_hover,none,-,0,,,2,1,1.3765213994639312,0.9190979968907135,2.306122251416191,2.3936229722132745,80,255044.0,47,80.0,0,0,-4,0,0,0,-3.0,19.0,-995.0
1777586064.5838678,init_hover,none,-,0,,,2,1,1.3797040776172411,0.9497377350194111,2.2979416418185803,2.393098943434497,80,255044.0,47,80.0,0,0,-4,0,0,0,-3.0,19.0,-995.0
1777586064.634017,init_hover,none,-,0,,,2,1,1.3771114655337335,0.9186930664111492,2.3129488549057884,2.400205816172855,80,255053.00000000003,47,80.0,0,0,-4,0,0,0,4.0,16.0,-1025.0
1777586064.684358,init_hover,none,-,0,,,2,1,1.3792916005593399,0.9492628950942298,2.2981475974950794,2.3931222756170585,80,255053.00000000003,47,80.0,0,0,-4,0,0,0,4.0,16.0,-1025.0
1777586064.7346509,init_hover,none,-,0,,,2,1,1.349809158998423,0.9582697292122293,2.3055285809453223,2.397810162592033,80,255048.0,47,80.0,0,0,-4,0,0,0,0.0,42.0,-999.0
1777586064.7852511,init_hover,none,-,0,,,2,1,1.4082375923535888,0.9145629241413064,2.3097063456378613,2.4012863922887893,80,255048.0,47,80.0,0,0,-4,0,0,0,0.0,42.0,-999.0
1777586064.8357198,init_hover,none,-,0,,,2,1,1.3812943624727034,0.9533109020937001,2.3102457661797016,2.405987083377724,80,255042.0,47,80.0,0,0,-4,0,0,0,23.0,-11.0,-984.0
1777586064.886952,init_hover,none,-,0,,,2,1,1.4078444273647421,0.9140654002299456,2.309918839903235,2.4013174216637743,80,255042.0,47,80.0,0,0,-4,0,0,0,23.0,-11.0,-984.0
1777586064.93747,init_hover,none,-,0,,,2,1,1.3771886851713095,0.9213586934574635,2.318950278014664,2.406577774219903,80,255046.99999999997,47,80.0,0,0,-4,0,0,0,4.0,13.0,-988.0
1777586064.98786,init_hover,none,-,0,,,2,1,1.3469995790776597,0.960673154305033,2.3191297276096634,2.411042468999934,80,255046.99999999997,47,80.0,0,0,-4,0,0,0,4.0,13.0,-988.0
1777586065.037809,init_hover,none,-,0,,,2,1,1.4066309573328462,0.9142378867177915,2.3171116651110424,2.408068896064038,80,255050.0,47,80.0,0,0,-4,0,0,0,6.0,0.0,-1028.0
1777586065.088031,init_hover,none,-,0,,,2,1,1.439499045267398,0.8793892900818159,2.319273756544533,2.408734991656885,80,255050.0,47,80.0,0,0,-4,0,0,0,6.0,0.0,-1028.0
1777586065.1378639,init_hover,none,-,0,,,2,1,1.411513663567104,0.9470288192550543,2.3077739578565852,2.407156967245603,80,255042.99999999997,47,80.0,0,0,-4,0,0,0,1.0,30.0,-1027.0
1777586065.188141,init_hover,none,-,0,,,2,1,1.4096897580367311,0.9173349344813476,2.322396905144612,2.414333969710961,80,255042.99999999997,47,80.0,0,0,-4,0,0,0,1.0,30.0,-1027.0
1777586065.237631,init_hover,none,-,0,,,2,1,1.3763223178434567,0.9216016614413313,2.3259408667063965,2.4132317948221083,80,255033.0,47,80.0,0,0,-4,0,0,0,1.0,36.0,-974.0
1777586065.2888489,init_hover,none,-,0,,,2,1,1.411513663567104,0.9470288192550543,2.3077739578565852,2.407156967245603,80,255033.0,47,80.0,0,0,-4,0,0,0,1.0,36.0,-974.0
1777586065.3409002,init_hover,none,-,0,,,2,1,1.3819515502000326,0.9548169914654221,2.316333919815746,2.412283505064844,80,255044.0,47,80.0,0,0,-4,0,0,0,0.0,13.0,-1020.0
1777586065.3909178,init_hover,none,-,0,,,2,1,1.3496564019904411,0.9623699520867127,2.324960474189553,2.41742854475714,80,255044.0,47,80.0,0,0,-4,0,0,0,0.0,13.0,-1020.0
1777586065.441844,init_hover,none,-,0,,,2,1,1.3491765509224969,0.9619724079110082,2.325173824315162,2.417471936599849,80,255041.0,47,80.0,0,0,-4,0,0,0,18.0,-7.0,-1031.0
1777586065.492625,init_hover,none,-,0,,,2,1,1.3790559419813735,0.9522559549752345,2.3178859007204773,2.4127298016387524,80,255041.0,47,80.0,0,0,-4,0,0,0,18.0,-7.0,-1031.0
1777586065.5442839,init_hover,none,-,0,,,2,1,1.3432384657756078,0.9308379449785515,2.3413049146927594,2.42514128903483,80,255037.0,47,80.0,0,0,-4,0,0,0,18.0,21.0,-1002.0
1777586065.59487,init_hover,none,-,0,,,2,1,1.410941095635362,0.9183301034415947,2.3289129965324813,2.4210275557361314,80,255028.00000000003,47,80.0,0,0,-4,0,0,0,6.0,3.0,-981.0
1777586065.644893,init_hover,none,-,0,,,2,1,1.3835753762821494,0.9578524852923316,2.329396085734898,2.425781438809747,80,255028.00000000003,47,80.0,0,0,-4,0,0,0,6.0,3.0,-981.0
1777586065.696105,init_hover,none,-,0,,,2,1,1.3769175759621735,0.923350988771541,2.3395714717235006,2.4268411130149863,80,255039.0,47,80.0,0,0,-4,0,0,0,7.0,25.0,-1003.0
1777586065.746604,init_hover,none,-,0,,,2,1,1.4106091676707464,0.91781443251039,2.3364159998403626,2.4280797761608577,80,255039.0,47,80.0,0,0,-4,0,0,0,7.0,25.0,-1003.0
1777586065.796939,init_hover,none,-,0,,,2,1,1.4102500211145932,0.8855696660330734,2.350546611715227,2.434985082960865,80,255038.0,47,79.0,0,0,-4,0,0,0,19.0,8.0,-992.0
1777586065.847876,init_hover,none,-,0,,,2,1,1.4447406984975868,0.8821800825542335,2.345720662693025,2.435712903504256,80,255038.0,47,79.0,0,0,-4,0,0,0,19.0,8.0,-992.0
1777586065.898104,init_hover,none,-,0,,,2,1,1.4447406984975868,0.8821800825542335,2.345720662693025,2.435712903504256,80,255036.0,47,79.0,0,0,-4,0,0,0,0.0,19.0,-1029.0
1777586065.949054,init_hover,none,-,0,,,2,1,1.4142852763576785,0.9212041038663235,2.348909723436608,2.4414468859569514,80,255036.0,47,79.0,0,0,-4,0,0,0,0.0,19.0,-1029.0
1777586065.999655,init_hover,none,-,0,,,2,1,1.4138161011658708,0.9207981281080266,2.3491604532813852,2.4415219210742607,80,255039.0,47,79.0,0,0,-4,0,0,0,7.0,39.0,-970.0
1777586066.050113,init_hover,none,-,0,,,2,1,1.3805736812206986,0.928511925103497,2.3589925973378283,2.447244829621497,80,255039.0,47,79.0,0,0,-4,0,0,0,7.0,39.0,-970.0
1777586066.100797,init_hover,none,-,0,,,2,1,1.4132195028689258,0.8903497444110897,2.3632643553430714,2.4487163254714432,80,255046.0,47,79.0,0,0,-4,0,0,0,15.0,18.0,-967.0
1777586066.150134,init_hover,none,-,0,,,2,1,1.377080326351751,0.8949922997161228,2.374673008049268,2.454848028790694,80,255046.0,47,79.0,0,0,-4,0,0,0,15.0,18.0,-967.0
1777586066.200511,init_hover,none,-,0,,,2,1,1.380250646895395,0.9294573792525529,2.3662653758121417,2.4544098067919964,80,255048.99999999997,47,79.0,0,0,-4,0,0,0,10.0,10.0,-972.0
1777586066.250549,init_hover,none,-,0,,,2,1,1.380250646895395,0.9294573792525529,2.3662653758121417,2.4544098067919964,80,255048.99999999997,47,79.0,0,0,-4,0,0,0,10.0,10.0,-972.0
1777586066.300645,init_hover,none,-,0,,,2,1,1.4179190791260985,0.9279075881215646,2.3684489375530893,2.4622942854359007,70,255040.0,47,79.0,0,0,-4,0,0,0,-8.0,53.0,-1008.0
1777586066.35056,init_hover,none,-,0,,,2,1,1.4133595777298318,0.8909002028066346,2.3780151067719073,2.4630885078802964,70,255040.0,47,79.0,0,0,-4,0,0,0,-8.0,53.0,-1008.0
1777586066.402154,init_hover,none,-,0,,,2,1,1.450156519291639,0.8534906971211145,2.386721605667013,2.470776138624032,80,255038.0,47,79.0,0,0,-4,0,0,0,20.0,-18.0,-1036.0
1777586066.451921,init_hover,none,-,0,,,2,1,1.450156519291639,0.8534906971211145,2.386721605667013,2.470776138624032,80,255038.0,47,79.0,0,0,-4,0,0,0,20.0,-18.0,-1036.0
1777586066.502164,init_hover,none,-,0,,,2,1,1.419383286643279,0.9272838507647376,2.375954998722832,2.469630084921428,80,255030.00000000003,47,79.0,0,-1,-4,0,0,0,16.0,-9.0,-1016.0
1777586066.5524638,init_hover,none,-,0,,,2,1,1.4181395274798412,0.8941606442947649,2.390932104701176,2.4770126636942487,80,255030.00000000003,47,79.0,0,-1,-4,0,0,0,16.0,-9.0,-1016.0
1777586066.603412,init_hover,none,-,0,,,2,1,1.451591188461197,0.8927238828283277,2.386056018243359,2.47789724330945,80,255039.0,47,79.0,0,0,-4,0,0,0,10.0,-3.0,-995.0
1777586066.654295,init_hover,none,-,0,,,2,1,1.451591188461197,0.8927238828283277,2.386056018243359,2.47789724330945,80,255039.0,47,79.0,0,0,-4,0,0,0,10.0,-3.0,-995.0
1777586066.70477,init_hover,none,-,0,,,2,1,1.4199554006386057,0.8985706705812089,2.4043274392638634,2.491129399948235,80,255048.99999999997,47,79.0,0,0,-4,0,0,0,4.0,1.0,-980.0
1777586066.7555141,init_hover,none,-,0,,,2,1,1.4199554006386057,0.8985706705812089,2.4043274392638634,2.491129399948235,80,255048.99999999997,47,79.0,0,0,-4,0,0,0,4.0,1.0,-980.0
1777586066.8049228,init_hover,none,-,0,,,2,1,1.4214588103380628,0.9332555396494129,2.3963612920664192,2.490890692401535,80,255035.0,47,80.0,0,0,-4,0,0,0,0.0,11.0,-987.0
1777586066.855694,init_hover,none,-,0,,,2,1,1.4208609395812846,0.9337025096124887,2.396520869779654,2.491038855281334,80,255035.0,47,80.0,0,0,-4,0,0,0,0.0,11.0,-987.0
1777586066.906552,init_hover,none,-,0,,,2,1,1.4574274086457135,0.8605237689255079,2.413224850984863,2.4989950294741687,80,255036.0,47,80.0,0,0,-4,0,0,0,-1.0,5.0,-991.0
1777586066.957533,init_hover,none,-,0,,,2,1,1.458840794194548,0.8990360444918535,2.4050182271875338,2.4987365850011933,80,255036.0,47,80.0,0,0,-4,0,0,0,-1.0,5.0,-991.0
1777586067.00843,init_hover,none,-,0,,,2,1,1.4936427208982055,0.8596232141010216,2.406468212792339,2.4992050524149256,80,255033.0,47,80.0,0,0,-4,0,0,0,7.0,-1.0,-965.0
1777586067.0589492,init_hover,none,-,0,,,2,1,1.4222139972045833,0.9016673362161535,2.418291756727124,2.505607670070485,80,255033.0,47,80.0,0,0,-4,0,0,0,7.0,-1.0,-965.0
1777586067.109699,init_hover,none,-,0,,,2,1,1.4222139972045833,0.9016673362161535,2.418291756727124,2.505607670070485,80,255041.0,47,80.0,0,0,-4,0,0,0,7.0,17.0,-1005.0
1777586067.160125,init_hover,none,-,0,,,2,1,1.457223453190453,0.8593838068051578,2.421350039474621,2.5065958552917835,80,255041.0,47,80.0,0,0,-4,0,0,0,7.0,17.0,-1005.0
1777586067.2114859,init_hover,none,-,0,,,2,1,1.4221473071589772,0.9007362996734177,2.4189497342984327,2.5060452924507692,70,255035.0,47,80.0,0,0,-4,0,0,0,22.0,6.0,-982.0
1777586067.262261,init_hover,none,-,0,,,2,1,1.3905030877369304,0.9444049771705348,2.420479053375603,2.5114912479501466,70,255035.0,47,80.0,0,0,-4,0,0,0,22.0,6.0,-982.0
1777586067.312951,init_hover,none,-,0,,,2,1,1.46009701072794,0.8622267147734007,2.4279461779982094,2.5140138103015883,70,255042.0,47,80.0,0,0,-4,0,0,0,18.0,2.0,-984.0
1777586067.363349,init_hover,none,-,0,,,2,1,1.3903320012160945,0.9435128064905388,2.4211870494053724,2.5119538153001293,70,255042.0,47,80.0,0,0,-4,0,0,0,18.0,2.0,-984.0
1777586067.4132469,init_hover,none,-,0,,,2,1,1.4220474541077357,0.9005958189068041,2.4271825393248614,2.513948151141801,70,255042.99999999997,47,80.0,0,0,-4,0,0,0,14.0,-3.0,-1013.0
1777586067.463954,init_hover,none,-,0,,,2,1,1.4600942545359576,0.8612422376719995,2.428595361226671,2.5144594952874812,70,255042.99999999997,47,80.0,0,0,-4,0,0,0,14.0,-3.0,-1013.0
1777586067.514952,init_hover,none,-,0,,,2,1,1.4605919833029273,0.8956915716388664,2.422019312938851,2.5147629434055045,70,255042.0,47,80.0,0,0,-4,0,0,0,-4.0,40.0,-1022.0
1777586067.5654342,init_hover,none,-,0,,,2,1,1.4265862224018862,0.9362046984454382,2.4111105277598046,2.506580391859044,70,255042.0,47,80.0,0,0,-4,0,0,0,-4.0,40.0,-1022.0
1777586067.616333,init_hover,none,-,0,,,2,1,1.4230116800994228,0.8984775194111358,2.4282473724151767,2.514717483237436,70,255046.0,47,80.0,0,0,-4,0,0,0,0.0,41.0,-1012.0
1777586067.6674502,init_hover,none,-,0,,,2,1,1.4984031313957331,0.8598582529395219,2.42204091518185,2.515185378654344,70,255046.0,47,80.0,0,0,-4,0,0,0,0.0,41.0,-1012.0
1777586067.717791,init_hover,none,-,0,,,2,1,1.459939771517705,0.8970275707729443,2.422586814759877,2.5154538108620916,70,255044.0,47,80.0,0,0,-4,0,0,0,18.0,-11.0,-1024.0
1777586067.768679,init_hover,none,-,0,,,2,1,1.4610443333145564,0.8961271048475751,2.422706829282402,2.515593838857436,70,255044.0,47,80.0,0,0,-4,0,0,0,18.0,-11.0,-1024.0
1777586067.8191428,init_hover,none,-,0,,,2,1,1.4610443333145564,0.8961271048475751,2.422706829282402,2.515593838857436,70,255042.99999999997,47,79.5,0,0,-4,0,0,0,6.0,28.0,-1005.0
1777586067.869326,init_hover,none,-,0,,,2,1,1.4641594368363795,0.8986166416249568,2.4214180898258397,2.5154180773472694,70,255042.99999999997,47,79.5,0,0,-4,0,0,0,6.0,28.0,-1005.0
1777586067.9200552,init_hover,none,-,0,,,2,1,1.4648378818423493,0.8985086191247718,2.429145982567897,2.5229616137315927,70,255035.0,47,79.5,0,0,-4,0,0,0,9.0,-5.0,-1013.0
1777586067.971023,init_hover,none,-,0,,,2,1,1.467505361075435,0.8978814466050424,2.4290046972590082,2.5231946054187198,70,255035.0,47,79.5,0,0,-4,0,0,0,9.0,-5.0,-1013.0
1777586068.021589,init_hover,none,-,0,,,2,1,1.467505361075435,0.8978814466050424,2.4290046972590082,2.5231946054187198,70,255036.0,47,79.5,0,0,-4,0,0,0,22.0,15.0,-991.0
1777586068.072602,init_hover,none,-,0,,,2,1,1.4685306047400672,0.8624826974833988,2.4436142413889548,2.530743316452408,70,255036.0,47,79.5,0,0,-4,0,0,0,22.0,15.0,-991.0
1777586068.122807,init_hover,none,-,0,,,2,1,1.4671287913691975,0.8972867522229275,2.4299141473412638,2.523883155994289,70,255048.99999999997,47,79.5,0,0,-4,0,0,0,-15.0,28.0,-980.0
1777586068.174187,init_hover,none,-,0,,,2,1,1.5065893117030735,0.8618063180090065,2.4365485391482005,2.5311393856739812,70,255048.99999999997,47,79.5,0,0,-4,0,0,0,-15.0,28.0,-980.0
1777586068.2250319,init_hover,none,-,0,,,2,1,1.4353598529885843,0.9385927982953235,2.433783956390623,2.5304001166523498,70,255040.0,47,79.5,0,0,-4,0,0,0,22.0,6.0,-1006.0
1777586068.276375,init_hover,none,-,0,,,2,1,1.4714212532556763,0.9012808724985363,2.4357831618781445,2.5311183541753115,70,255040.0,47,79.5,0,0,-4,0,0,0,22.0,6.0,-1006.0
1777586068.327789,init_hover,none,-,0,,,2,1,1.4721119508318816,0.9011222553867343,2.4436307211628643,2.5387682663790154,70,255038.0,47,79.5,0,0,-4,0,0,0,0.0,5.0,-970.0
1777586068.378603,init_hover,none,-,0,,,2,1,1.5077848861220315,0.8992282612737523,2.429626754990263,2.531829480038672,70,255038.0,47,79.5,0,0,-4,0,0,0,0.0,5.0,-970.0
1777586068.429183,init_hover,none,-,0,,,2,1,1.5449048451263625,0.8624542989264072,2.4281565451553324,2.5311518082917077,70,255041.0,47,79.5,0,0,-4,0,0,0,2.0,45.0,-1005.0
1777586068.499899,recenter,right,-,1,,,2,,1.4363712704659797,0.9031969437602686,2.4498479681088945,2.538775712178027,70,255041.0,47,79.5,0,0,-4,0,0,0,2.0,45.0,-1005.0
1777586068.5514739,recenter,right,-,1,,,2,,1.473947956616645,0.9004697215348985,2.444035392826766,2.5393711050463255,70,255040.0,47,79.5,0,0,-4,0,0,0,-11.0,13.0,-1034.0
1777586068.6026208,recenter,right,-,1,,,2,,1.5116054404354353,0.8996960994103755,2.43639827579075,2.539187444188636,70,255040.0,47,79.5,0,0,-4,0,0,0,-11.0,13.0,-1034.0
1777586068.6534631,recenter,right,-,1,,,2,,1.5144051229216249,0.8654445756683626,2.4502153242302898,2.5465283070486486,70,255040.0,47,79.5,0,0,-4,0,0,0,9.0,11.0,-975.0
1777586068.703028,recenter,right,-,1,,,2,,1.5101609328987582,0.9013764746354392,2.436839453713455,2.5396513677960764,70,255040.0,47,79.5,0,0,-4,0,0,0,9.0,11.0,-975.0
1777586068.754205,recenter,right,-,1,,,2,,1.5160481439540003,0.9024238793540453,2.4426075620186247,2.5465794987500603,70,255040.0,47,79.5,0,0,-4,0,0,0,0.0,27.0,-990.0
1777586068.80401,recenter,right,-,1,,,2,,1.4431439383070046,0.9429339091048398,2.447418769735234,2.545783261427892,70,255040.0,47,79.5,0,0,-4,0,0,0,0.0,27.0,-990.0
1777586068.854374,recenter,right,-,1,,,2,,1.4774973975135834,0.9030047434502219,2.4506052618650456,2.5468576100846936,70,255042.99999999997,47,79.5,0,0,-4,0,0,0,25.0,11.0,-1020.0
1777586068.904418,recenter,right,-,1,,,2,,1.480887855807763,0.9059769046221825,2.45682337422179,2.554064770125647,70,255042.99999999997,47,79.5,0,0,-4,0,0,0,25.0,11.0,-1020.0
1777586068.955231,recenter,right,-,1,,,2,,1.5145614414768236,0.902469673083365,2.4433205942821337,2.546971687291873,70,255037.0,47,79.5,0,0,-4,0,0,0,-1.0,8.0,-1031.0
1777586069.005437,recenter,right,-,1,,,2,,1.4816859004124368,0.942207948697673,2.448754535032642,2.5539008475526237,70,255037.0,47,79.5,0,0,-4,0,0,0,-1.0,8.0,-1031.0
1777586069.05466,recenter,right,-,1,,,2,,1.5154406475483544,0.970087241101537,2.4202357535811894,2.53933448496344,70,255040.0,47,79.5,0,0,-4,0,0,0,15.0,-8.0,-1002.0
1777586069.104095,recenter,right,-,1,,,2,,1.484394157920208,0.871520398416694,2.4703339377578457,2.5611557840921058,70,255040.0,47,79.5,0,0,-4,0,0,0,15.0,-8.0,-1002.0
1777586069.154328,recenter,right,-,1,,,2,,1.4487649467673036,0.9479385241224229,2.452735455433797,2.5529468889905558,70,255044.0,47,79.5,0,0,-4,0,0,0,18.0,-3.0,-1003.0
1777586069.204397,recenter,right,-,1,,,2,,1.5548051422237337,0.8700261704212513,2.44794226344851,2.5536551591583736,70,255044.0,47,79.5,0,0,-4,0,0,0,18.0,-3.0,-1003.0
1777586069.254362,recenter,right,-,1,,,2,,1.51987483283388,0.9053262926060934,2.4490687781978404,2.554126540357102,70,255042.0,47,79.5,0,0,-4,0,0,0,9.0,-5.0,-1026.0
1777586069.304561,recenter,right,-,1,,,2,,1.4487649467673036,0.9479385241224229,2.452735455433797,2.5529468889905558,70,255042.0,47,79.5,0,0,-4,0,0,0,9.0,-5.0,-1026.0
1777586069.3557131,recenter,right,-,1,,,2,,1.51987483283388,0.9053262926060934,2.4490687781978404,2.554126540357102,70,255053.00000000003,47,79.5,0,0,-4,0,0,0,-5.0,31.0,-987.0
1777586069.4069068,recenter,right,-,1,,,2,,1.412723508399473,0.9538190382308371,2.464451836084912,2.559409907356536,70,255053.00000000003,47,79.5,0,0,-4,0,0,0,-5.0,31.0,-987.0
1777586069.45768,recenter,right,-,1,,,2,,1.5204070545968245,0.9058978944806682,2.448720274534179,2.554013932034996,70,255048.0,47,79.5,0,0,-4,0,0,0,19.0,4.0,-989.0
1777586069.5084229,recenter,right,-,1,,,2,,1.4471360887456464,0.9461383265257407,2.45377738018262,2.5532765586702455,70,255041.0,47,79.5,0,0,-4,0,0,0,4.0,23.0,-991.0
1777586069.559458,recenter,right,-,1,,,2,,1.5209317738946129,0.9064763020932899,2.448376440667565,2.5539059013305594,70,255041.0,47,79.5,0,0,-4,0,0,0,4.0,23.0,-991.0
1777586069.610604,recenter,right,-,1,,,2,,1.5209317738946129,0.9064763020932899,2.448376440667565,2.5539059013305594,70,255039.0,47,79.5,0,0,-4,0,0,0,2.0,3.0,-1016.0
1777586069.6620202,recenter,right,-,1,,,2,,1.517722619480311,0.9407588372242084,2.4342746800710464,2.546792109457038,70,255039.0,47,79.5,0,0,-4,0,0,0,2.0,3.0,-1016.0
1777586069.714551,recenter,right,-,1,,,2,,1.4862408472297337,0.9458454875033471,2.446626246525381,2.5534990597079394,70,255050.0,47,79.5,0,0,-4,0,0,0,-11.0,37.0,-1001.0
1777586069.765737,recenter,right,-,1,,,2,,1.484613289977275,0.9438010301841181,2.4477709226701143,2.5538504441570593,70,255050.0,47,79.5,0,0,-4,0,0,0,-11.0,37.0,-1001.0
1777586069.815787,recenter,right,-,1,,,2,,1.484613289977275,0.9438010301841181,2.4477709226701143,2.5538504441570593,70,255046.0,47,79.5,0,0,-4,0,0,0,24.0,5.0,-959.0
1777586069.86589,recenter,right,-,1,,,2,,1.4850423706535016,0.9088874993900179,2.4551089878285968,2.5537800865543128,70,255046.0,47,79.5,0,0,-4,0,0,0,24.0,5.0,-959.0
1777586069.9164789,recenter,right,-,1,,,2,,1.486321537594346,0.9754759194209228,2.4320795088179286,2.546113098229052,70,255050.0,47,79.5,0,0,-4,0,0,0,11.0,13.0,-985.0
1777586069.967293,recenter,right,-,1,,,2,,1.4888242852233318,0.9781760739071292,2.4303966928745404,2.5455971478217574,70,255050.0,47,79.5,0,0,-4,0,0,0,11.0,13.0,-985.0
1777586070.0187242,recenter,right,-,1,,,2,,1.485139863475198,0.9424056520371582,2.4402931747545016,2.5464868657128377,70,255046.99999999997,47,79.5,0,0,-4,0,0,0,0.0,21.0,-1001.0
1777586070.0698528,recenter,right,-,1,,,2,,1.4853160652262507,0.944152936747941,2.439732780872003,2.5463562484066395,70,255046.99999999997,47,79.5,0,0,-4,0,0,0,0.0,21.0,-1001.0
1777586070.120348,recenter,right,-,1,,,2,,1.5196036343830457,0.9055947991218689,2.441607245641523,2.546970745755109,70,255044.99999999997,47,79.5,0,0,-4,0,0,0,8.0,-9.0,-1019.0
1777586070.1708128,recenter,right,-,1,,,2,,1.4872452285055608,0.9424731973621121,2.4398418578523215,2.5464707683156265,70,255044.99999999997,47,79.5,0,0,-4,0,0,0,8.0,-9.0,-1019.0
1777586070.219157,recenter,right,-,1,,,2,,1.489001858494813,0.9098081157001136,2.454224948792019,2.553869070981962,70,255052.0,47,79.5,0,0,-4,0,0,0,21.0,-29.0,-976.0
1777586070.267064,recenter,right,-,1,,,2,,1.5211299755883536,0.942078223517454,2.4336314417530365,2.5471527724417165,70,255052.0,47,79.5,0,0,-4,0,0,0,21.0,-29.0,-976.0
1777586070.3144162,recenter,right,-,1,,,2,,1.4559318348951966,0.9822343885174598,2.4357367485722903,2.5455223883495335,70,255052.0,47,79.5,0,0,-4,0,0,0,21.0,-29.0,-976.0
1777586070.362987,recenter,right,-,1,,,2,,1.5218367962630643,0.9416111144366565,2.4339773787419072,2.5475286301517284,70,255039.0,47,79.5,0,0,-4,0,0,0,7.0,1.0,-970.0
1777586070.4122229,recenter,right,-,1,,,2,,1.4565954564722419,0.9817064189246583,2.436159350828035,2.5459250089733825,70,255039.0,47,79.5,0,0,-4,0,0,0,7.0,1.0,-970.0
1777586070.4613461,recenter,right,-,1,,,2,,1.4899166514992035,0.9415379004339341,2.4406279464251868,2.5475373198236393,70,255044.99999999997,47,79.5,0,0,-4,0,0,0,14.0,4.0,-980.0
1777586070.509943,recenter,right,-,1,,,2,,1.4899166514992035,0.9415379004339341,2.4406279464251868,2.5475373198236393,70,255044.99999999997,47,79.5,0,0,-4,0,0,0,14.0,4.0,-980.0
1777586070.558777,recenter,right,-,1,,,2,,1.4906425427341912,0.9410209418621494,2.441007468927699,2.5479307737132286,70,255046.99999999997,47,79.5,0,0,-4,0,0,0,1.0,-5.0,-1025.0
1777586070.610404,recenter,right,-,1,,,2,,1.4912236747063743,0.9076167912436349,2.4562269097838767,2.5557828815630974,70,255046.99999999997,47,79.5,0,0,-4,0,0,0,1.0,-5.0,-1025.0
1777586070.662233,recenter,right,-,1,,,2,,1.4920102089766414,0.907077435002755,2.4565904491113955,2.55617648167953,70,255044.99999999997,47,79.5,0,0,-4,0,0,0,0.0,-4.0,-1016.0
1777586070.713205,recenter,right,-,1,,,2,,1.5266994326831025,0.9378935210218095,2.4354777531721257,2.5491750858939226,70,255044.99999999997,47,79.5,0,0,-4,0,0,0,0.0,-4.0,-1016.0
1777586070.764867,recenter,right,-,1,,,2,,1.5274495658708038,0.9373937808880412,2.4358430987392827,2.549573831437371,70,255046.99999999997,47,79.5,0,0,-4,0,0,0,4.0,0.0,-971.0
1777586070.816459,recenter,right,-,1,,,2,,1.492251963734767,0.9412556417204385,2.4420775991383095,2.5493161172573453,70,255046.99999999997,47,79.5,0,0,-4,0,0,0,4.0,0.0,-971.0
1777586070.86751,recenter,right,-,1,,,2,,1.5275576864228309,0.9388327828450409,2.4361340664855624,2.5501778507123425,70,255044.0,47,79.5,0,0,-4,0,0,0,-7.0,25.0,-1015.0
1777586070.918059,recenter,right,-,1,,,2,,1.4973787730738108,0.9747741097970128,2.4333940587692573,2.5493445366311076,70,255044.0,47,79.5,0,0,-4,0,0,0,-7.0,25.0,-1015.0
1777586070.968919,recenter,right,-,1,,,2,,1.4981172346676637,0.9742435275602797,2.4338132857264414,2.5497693068582445,70,255037.0,47,79.5,0,0,-4,0,0,0,0.0,23.0,-975.0
1777586071.0197499,recenter,right,-,1,,,2,,1.4988635848886893,0.9737072546741171,2.4342363764239283,2.5501983504620194,70,255037.0,47,79.5,0,0,-4,0,0,0,0.0,23.0,-975.0
1777586071.070028,recenter,right,-,1,,,2,,1.46446497218477,0.9778389291323395,2.447514129868615,2.5573327813004574,70,255042.99999999997,47,79.5,0,0,-4,0,0,0,-14.0,37.0,-1034.0
1777586071.120332,recenter,right,-,1,,,2,,1.4976885041044221,0.9710198378792427,2.436020098670714,2.551068682630283,70,255042.99999999997,47,79.5,0,0,-4,0,0,0,-14.0,37.0,-1034.0
1777586071.170919,recenter,right,-,1,,,2,,1.5312770113243792,0.9374664099064648,2.4372556331360316,2.5517328280587734,70,255050.0,47,79.5,0,0,-4,0,0,0,14.0,12.0,-972.0
1777586071.220945,recenter,right,-,1,,,2,,1.5671737734246811,0.9009183712337536,2.4369366312081224,2.5517181365551056,70,255050.0,47,79.5,0,0,-4,0,0,0,14.0,12.0,-972.0
1777586071.271181,recenter,right,-,1,,,2,,1.5671737734246811,0.9009183712337536,2.4369366312081224,2.5517181365551056,70,255048.99999999997,47,79.5,0,0,-4,0,0,0,-8.0,36.0,-1012.0
1777586071.3210082,recenter,right,-,1,,,2,,1.5329169945498449,0.9364258950213881,2.4380154157999465,2.552581523009152,70,255048.99999999997,47,79.5,0,0,-4,0,0,0,-8.0,36.0,-1012.0
1777586071.370862,recenter,right,-,1,,,2,,1.5014046332434898,0.9380981608750264,2.4519991937528967,2.5599328669205335,70,255052.0,47,79.5,0,0,-4,0,0,0,-2.0,32.0,-1018.0
1777586071.420802,recenter,right,-,1,,,2,,1.535163831734562,0.9360785683848724,2.4383997092699454,2.553345589701118,70,255052.0,47,79.5,0,0,-4,0,0,0,-2.0,32.0,-1018.0
1777586071.472128,recenter,right,-,1,,,2,,1.5022205587437294,0.9688972118781053,2.437817176075853,2.5531984081300836,70,255044.0,47,79.5,0,-1,-4,0,0,0,2.0,27.0,-967.0
1777586071.52303,recenter,right,-,1,,,2,,1.5055711512094911,0.9711352858368534,2.4365090392943207,2.5531106521704396,70,255044.0,47,79.5,0,-1,-4,0,0,0,2.0,27.0,-967.0
1777586071.5739431,recenter,right,-,1,,,2,,1.5366516956759992,0.966001655228652,2.432176516654273,2.554180010171173,70,255048.99999999997,47,79.5,0,-1,-4,0,0,0,16.0,-10.0,-992.0
1777586071.6250181,recenter,right,-,1,,,2,,1.504481562901916,0.9684420729517255,2.438312910339464,2.5540160309476763,70,255048.99999999997,47,79.5,0,-1,-4,0,0,0,16.0,-10.0,-992.0
1777586071.677221,recenter,right,-,1,,,2,,1.5722158413833922,0.9348026311379535,2.4312581631902463,2.55430246436897,70,255050.0,47,79.5,0,0,-4,0,0,0,2.0,-1.0,-1051.0
1777586071.728002,recenter,right,-,1,,,2,,1.5085629482014191,1.0029251455872537,2.428925227418928,2.553787924604708,70,255050.0,47,79.5,0,0,-4,0,0,0,2.0,-1.0,-1051.0
1777586071.778234,recenter,right,-,1,,,2,,1.539481169008672,0.9663087287025505,2.4322244319672226,2.5548896640320775,70,255046.0,46,79.5,0,0,-4,0,0,0,25.0,-6.0,-1012.0
1777586071.8298922,recenter,right,-,1,,,2,,1.5423266445305475,0.936098809211578,2.4460976750066337,2.562208804582229,70,255046.0,46,79.5,0,0,-4,0,0,0,25.0,-6.0,-1012.0
1777586071.882178,recenter,right,-,1,,,2,,1.5735134725520472,0.9356797904836639,2.4314135234507934,2.554925099323018,70,255053.00000000003,46,79.5,0,-1,-4,0,0,0,-2.0,0.0,-1033.0
1777586071.9330812,recenter,right,-,1,,,2,,1.511218213010519,1.0043802951834986,2.428211407064126,2.5539832105783518,70,255053.00000000003,46,79.5,0,-1,-4,0,0,0,-2.0,0.0,-1033.0
1777586071.984834,recenter,right,-,1,,,2,,1.5467146993141956,0.9402573052137718,2.443929779951435,2.561946074299091,70,255050.0,46,79.5,0,-1,-4,0,0,0,23.0,25.0,-968.0
1777586072.035455,recenter,right,-,1,,,2,,1.5472714486933983,0.9410436060664958,2.4435465488174213,2.5618653279315713,70,255050.0,46,79.5,0,-1,-4,0,0,0,23.0,25.0,-968.0
1777586072.085351,recenter,right,-,1,,,2,,1.607516066056958,0.9714188591607852,2.414876898183203,2.5548435796543125,80,255042.99999999997,46,79.5,0,-1,-4,0,0,0,18.0,19.0,-974.0
1777586072.13642,recenter,right,-,1,,,2,,1.5466714674000928,0.9743658626715709,2.436261696725597,2.562053257136571,80,255042.99999999997,46,79.5,0,-1,-4,0,0,0,18.0,19.0,-974.0
1777586072.185913,recenter,right,-,1,,,2,,1.5472170548929687,0.9751195474626908,2.4358855626046347,2.56198116174673,80,255046.99999999997,46,79.5,0,0,-4,0,0,0,15.0,15.0,-988.0
1777586072.233662,recenter,right,-,1,,,2,,1.581351406518519,0.9444962845843136,2.442858839478352,2.5694367031325567,80,255046.99999999997,46,79.5,0,0,-4,0,0,0,15.0,15.0,-988.0
1777586072.280586,recenter,right,-,1,,,2,,1.5824401489088928,0.9454063177862632,2.4419274778255855,2.5689909274853053,80,255052.0,46,79.5,0,0,-4,0,0,0,-24.0,23.0,-990.0
1777586072.3299851,recenter,right,-,1,,,2,,1.5480279785764166,0.9784826378260165,2.442394827078461,2.569098931319758,80,255052.0,46,79.5,0,0,-4,0,0,0,-24.0,23.0,-990.0
1777586072.381587,recenter,right,-,1,,,2,,1.5804769133130725,0.9771751870564447,2.4355358795442896,2.569420102667271,80,255052.0,46,79.5,0,0,-4,0,0,0,7.0,15.0,-1012.0
1777586072.433465,recenter,right,-,1,,,2,,1.5519234177716668,0.9816419927421141,2.4484992646046817,2.5764462958842054,80,255052.0,46,79.5,0,0,-4,0,0,0,7.0,15.0,-1012.0
1777586072.4809651,recenter,right,-,1,,,2,,1.5524524641688893,0.9824098524832178,2.4481333501490297,2.576385425658924,80,255050.0,46,79.5,0,0,-4,0,0,0,-4.0,23.0,-1004.0
1777586072.531473,recenter,right,-,1,,,2,,1.519211516620547,0.9848261431327309,2.454182749308915,2.575774676420354,80,255042.99999999997,46,79.5,0,0,-4,0,0,0,-16.0,26.0,-962.0
1777586072.581256,recenter,right,-,1,,,2,,1.5228962356042741,0.9878820782983743,2.4604199062663357,2.5831554204780596,80,255042.99999999997,46,79.5,0,0,-4,0,0,0,-16.0,26.0,-962.0
1777586072.63011,recenter,right,-,1,,,2,,1.518685519758242,0.987563723655776,2.461683646752999,2.5834380531482193,80,255048.99999999997,46,79.5,0,0,-4,0,0,0,0.0,28.0,-1000.0
1777586072.681026,recenter,right,-,1,,,2,,1.5508604414325422,0.9828143589583329,2.4483098351327097,2.5763037188481532,80,255048.99999999997,46,79.5,0,0,-4,0,0,0,0.0,28.0,-1000.0
1777586072.732536,recenter,right,-,1,,,2,,1.5508604414325422,0.9828143589583329,2.4483098351327097,2.5763037188481532,80,255053.00000000003,46,79.5,0,0,-4,0,0,0,0.0,16.0,-963.0
1777586072.783511,recenter,right,-,1,,,2,,1.519424232522061,0.985477946039483,2.461823921591198,2.5832465967360543,80,255053.00000000003,46,79.5,0,0,-4,0,0,0,0.0,16.0,-963.0
1777586072.834702,recenter,right,-,1,,,2,,1.5220876059501922,1.0199837155732534,2.4521321154621663,2.5826163454031996,80,255056.0,46,79.5,0,0,-4,0,0,0,35.0,-11.0,-984.0
1777586072.886145,recenter,right,-,1,,,2,,1.5220876059501922,1.0199837155732534,2.4521321154621663,2.5826163454031996,80,255056.0,46,79.5,0,0,-4,0,0,0,35.0,-11.0,-984.0
1777586072.937872,recenter,right,-,1,,,2,,1.5519032288683285,0.9519117836882002,2.462722592887104,2.5834485403285585,80,255054.0,46,79.5,0,0,-4,0,0,0,-10.0,23.0,-1000.0
1777586072.9880152,recenter,right,-,1,,,2,,1.5524034499459523,0.9868626631993996,2.454273454265576,2.5832180599559083,80,255054.0,46,79.5,0,0,-4,0,0,0,-10.0,23.0,-1000.0
1777586073.037601,recenter,right,-,1,,,2,,1.5203393504040437,0.9896137029251246,2.46830803477841,2.5905485737209477,80,255051.00000000003,46,79.5,0,0,-4,0,0,0,11.0,10.0,-1018.0
1777586073.088474,recenter,right,-,1,,,2,,1.5210808089377816,0.9875482535783143,2.468396232055859,2.590312359186386,80,255051.00000000003,46,79.5,0,0,-4,0,0,0,11.0,10.0,-1018.0
1777586073.139047,recenter,right,-,1,,,2,,1.5496190270718326,0.9818404593281798,2.4480959817692662,2.575615136425751,80,255050.0,46,79.5,0,0,-4,0,0,0,14.0,-8.0,-1018.0
1777586073.1898081,recenter,right,-,1,,,2,,1.5490092941951952,0.9839764503325251,2.455796298781133,2.58328766512032,80,255050.0,46,79.5,0,0,-4,0,0,0,14.0,-8.0,-1018.0
1777586073.240715,recenter,right,-,1,,,2,,1.5840816437501852,0.950215099598095,2.4550838863824356,2.5828908051960586,80,255046.0,46,79.5,0,0,-4,0,0,0,4.0,17.0,-1019.0
1777586073.2902179,recenter,right,-,1,,,2,,1.5512451790972623,0.9837141333607098,2.454736766270067,2.582697432654674,80,255046.0,46,79.5,0,0,-4,0,0,0,4.0,17.0,-1019.0
1777586073.340626,recenter,right,-,1,,,2,,1.5181109257395313,1.0181987891557762,2.452736485638997,2.5819614525141694,80,255052.0,46,79.5,0,0,-4,0,0,0,-15.0,30.0,-973.0
1777586073.3917382,recenter,right,-,1,,,2,,1.5162538298252208,0.9877053527619366,2.468960001781738,2.5899187417508527,80,255052.0,46,79.5,0,0,-4,0,0,0,-15.0,30.0,-973.0
1777586073.442917,recenter,right,-,1,,,2,,1.5473013875274324,0.9801684999190476,2.4566271722930595,2.5828572087392603,80,255048.99999999997,46,79.5,0,0,-4,0,0,0,-8.0,39.0,-983.0
1777586073.493813,recenter,right,-,1,,,2,,1.5153168432827462,0.984802181126458,2.4613589225518107,2.5818274120565397,80,255048.99999999997,46,79.5,0,0,-4,0,0,0,-8.0,39.0,-983.0
1777586073.544263,recenter,right,-,1,,,2,,1.5459879161462093,0.9487202162563119,2.4638259671387273,2.5825636636205385,80,255051.00000000003,46,79.5,0,0,-4,0,0,0,1.0,1.0,-986.0
1777586073.5950441,recenter,right,-,1,,,2,,1.5094166522911368,0.981497915701909,2.4556851201067094,2.5744969529425896,80,255051.00000000003,46,79.5,0,0,-4,0,0,0,1.0,1.0,-986.0
1777586073.646465,recenter,right,-,1,,,2,,1.543834193214983,0.9790044765056236,2.449141567470756,2.574741973681335,80,255048.99999999997,46,79.5,0,0,-4,0,0,0,-7.0,5.0,-1033.0
1777586073.6971729,recenter,right,-,1,,,2,,1.5090846276267624,0.9494764950801402,2.4708351049563766,2.5818825869152575,80,255048.99999999997,46,79.5,0,0,-4,0,0,0,-7.0,5.0,-1033.0
1777586073.748878,recenter,right,-,1,,,2,,1.5749266261883519,0.9420703252342914,2.450584724488135,2.574829383647491,80,255046.0,45,79.5,0,0,-4,0,0,0,12.0,28.0,-996.0
1777586073.800203,recenter,right,-,1,,,2,,1.507397350020328,0.9806822634534454,2.4560130273755005,2.574226865009228,80,255046.0,45,79.5,0,0,-4,0,0,0,12.0,28.0,-996.0
1777586073.8507671,recenter,right,-,1,,,2,,1.5419136640611892,0.9781540859834014,2.4494955544710644,2.574482673821876,80,255046.0,45,79.0,0,0,-4,0,0,0,-3.0,32.0,-972.0
1777586073.901731,recenter,right,-,1,,,2,,1.5735786267084562,0.9418511666065629,2.4506021007895025,2.5744991326787385,80,255046.0,45,79.0,0,0,-4,0,0,0,-3.0,32.0,-972.0
1777586073.952159,recenter,right,-,1,,,2,,1.53959444433747,0.9424985747614693,2.4580510425128916,2.57438959669604,80,255042.99999999997,45,79.0,0,0,-4,0,0,0,8.0,6.0,-983.0
1777586074.002957,recenter,right,-,1,,,2,,1.5713443053779983,0.9412085031624283,2.443184215301355,2.566805420962189,80,255042.99999999997,45,79.0,0,0,-4,0,0,0,8.0,6.0,-983.0
1777586074.054525,recenter,right,-,1,,,2,,1.5713443053779983,0.9412085031624283,2.443184215301355,2.566805420962189,80,255048.99999999997,45,79.0,0,0,-4,0,0,0,-6.0,-8.0,-1034.0
1777586074.105273,recenter,right,-,1,,,2,,1.5062618361405637,0.9799735085951475,2.45573922034718,2.5735822185731614,80,255048.99999999997,45,79.0,0,0,-4,0,0,0,-6.0,-8.0,-1034.0
1777586074.155277,recenter,right,-,1,,,2,,1.5687920653630694,0.94024676570944,2.4441392083742883,2.56694515940485,80,255042.99999999997,45,79.0,0,0,-4,0,0,0,9.0,32.0,-999.0
1777586074.2060559,recenter,right,-,1,,,2,,1.535087717859988,0.9410038777365269,2.451413240535294,2.5667939024008763,80,255042.99999999997,45,79.0,0,0,-4,0,0,0,9.0,32.0,-999.0
1777586074.257138,recenter,right,-,1,,,2,,1.5358694788572653,0.9411170303156644,2.4507931667785856,2.566388685526222,80,255046.0,45,79.0,0,0,-4,0,0,0,3.0,6.0,-965.0
1777586074.307967,recenter,right,-,1,,,2,,1.501825854489987,0.9767243013234777,2.449572045224995,2.5660949539561906,80,255046.0,45,79.0,0,0,-4,0,0,0,3.0,6.0,-965.0
1777586074.3574789,recenter,right,-,1,,,2,,1.5337135143093048,0.9408635343633219,2.451409699852,2.566474818635251,80,255042.99999999997,45,79.0,0,0,-4,0,0,0,-16.0,24.0,-1028.0
1777586074.407312,recenter,right,-,1,,,2,,1.5327285282592569,0.902707563249029,2.4599618095433975,2.56669567408781,80,255042.99999999997,45,79.0,0,0,-4,0,0,0,-16.0,24.0,-1028.0
1777586074.458356,recenter,right,-,1,,,2,,1.59933782184254,0.9039051577608191,2.4355929114360757,2.558366483314417,80,255041.0,45,79.0,0,0,-4,0,0,0,-14.0,37.0,-1009.0
1777586074.490189,pre_hover,right,x,1,,,2,1,1.4960526508997023,0.9727579526656149,2.443930520259554,2.558694255408892,80,255041.0,45,79.0,0,0,-4,0,0,0,-14.0,37.0,-1009.0
1777586074.541287,pre_hover,right,x,1,,,2,1,1.5319624745984264,0.936334497953161,2.453070177572086,2.566747370539044,80,255041.0,45,79.0,0,0,-4,0,0,0,-14.0,37.0,-1009.0
1777586074.59225,pre_hover,right,x,1,,,2,1,1.5284053282631809,0.933390473047412,2.4468848787913484,2.5594849477448416,80,255051.00000000003,45,79.0,0,0,-4,0,0,0,0.0,0.0,-973.0
1777586074.6437051,pre_hover,right,x,1,,,2,1,1.4955220091416743,0.9370128783585994,2.460388303301841,2.5665999875499304,80,255051.00000000003,45,79.0,0,0,-4,0,0,0,0.0,0.0,-973.0
1777586074.6941361,pre_hover,right,x,1,,,2,1,1.4929292493775919,0.9361285708619286,2.453511444456083,2.559322468440307,80,255046.99999999997,45,79.0,0,0,-4,0,0,0,27.0,12.0,-976.0
1777586074.745745,pre_hover,right,x,1,,,2,1,1.5276391185541194,0.8962865812313705,2.4550234227764918,2.559656894296595,80,255046.99999999997,45,79.0,0,0,-4,0,0,0,27.0,12.0,-976.0
1777586074.796663,pre_hover,right,x,1,,,2,1,1.5261967796208404,0.895465370968004,2.456037095220254,2.560173274958113,80,255042.0,45,79.0,0,0,-4,0,0,0,-13.0,5.0,-1017.0
1777586074.848232,pre_hover,right,x,1,,,2,1,1.5233375120290196,0.9267623117880635,2.4429919221728498,2.5533449074535204,80,255042.0,45,79.0,0,0,-4,0,0,0,-13.0,5.0,-1017.0
1777586074.898717,pre_hover,right,x,1,,,2,1,1.5197110780346632,0.9252485084198727,2.4368016733968116,2.5463676081231386,80,255046.0,45,79.0,0,0,-4,0,0,0,12.0,-1.0,-1027.0
1777586074.94981,pre_hover,right,x,1,,,2,1,1.51939797031539,0.8878729625667666,2.444752361442292,2.5464894242759155,80,255046.0,45,79.0,0,0,-4,0,0,0,12.0,-1.0,-1027.0
1777586075.00057,pre_hover,right,x,1,,,2,1,1.5203205484653246,0.9239811291828185,2.4373290408353085,2.5467356655519087,70,255042.99999999997,45,79.0,0,0,-4,0,0,0,17.0,22.0,-1002.0
1777586075.0509608,pre_hover,right,x,1,,,2,1,1.550042779668626,0.9198755508420884,2.424561496943354,2.539944113615328,70,255042.99999999997,45,79.0,0,0,-4,0,0,0,17.0,22.0,-1002.0
1777586075.101152,pre_hover,right,x,1,,,2,1,1.4806624491696354,0.8854248574826108,2.454218030794093,2.54752032866837,70,255030.00000000003,45,79.0,0,0,-4,0,0,0,-6.0,34.0,-1007.0
1777586075.151603,pre_hover,right,x,1,,,2,1,1.513906959809337,0.9193125185934669,2.433203536168259,2.540524611911895,70,255030.00000000003,45,79.0,0,0,-4,0,0,0,-6.0,34.0,-1007.0
1777586075.20271,pre_hover,right,x,1,,,2,1,1.4105556401503407,0.965020008629628,2.4480495004154568,2.5457317023393196,70,255048.0,45,79.0,0,0,-4,0,0,0,14.0,-1.0,-992.0
1777586075.253771,pre_hover,right,x,1,,,2,1,1.5514636156806243,0.8840955336393204,2.432048134346902,2.5403383107155886,70,255048.0,45,79.0,0,0,-4,0,0,0,14.0,-1.0,-992.0
1777586075.304919,pre_hover,right,x,1,,,2,1,1.580804438983908,0.882172314732454,2.418081984807672,2.533168850015584,70,255053.00000000003,45,79.0,0,0,-4,0,0,0,8.0,19.0,-1017.0
1777586075.3558772,pre_hover,right,x,1,,,2,1,1.5485943484513691,0.8802630943677924,2.4342348586192752,2.5410839706475095,70,255053.00000000003,45,79.0,0,0,-4,0,0,0,8.0,19.0,-1017.0
1777586075.4070442,pre_hover,right,x,1,,,2,1,1.5489541120222499,0.8823401908489855,2.433850960449861,2.541187355252871,70,255046.99999999997,45,79.0,0,-1,-4,0,0,0,5.0,7.0,-995.0
1777586075.4577081,pre_hover,right,x,1,,,2,1,1.5485943484513691,0.8802630943677924,2.4342348586192752,2.5410839706475095,70,255046.99999999997,45,79.0,0,-1,-4,0,0,0,5.0,7.0,-995.0
1777586075.508846,pre_hover,right,x,1,,,2,1,1.5167638853266734,0.8825505265968812,2.448283424114266,2.5483311497310397,70,255042.0,45,79.0,0,0,-4,0,0,0,-21.0,37.0,-1008.0
1777586075.5593631,pre_hover,right,x,1,,,2,1,1.5507899933853366,0.8835164188555611,2.4325275857774433,2.540540926591139,70,255042.0,45,79.0,0,0,-4,0,0,0,-21.0,37.0,-1008.0
1777586075.6112618,pre_hover,right,x,1,,,2,1,1.5175007045834985,0.8831301314242239,2.4478009927164885,2.5481270382534373,70,255037.0,45,79.0,0,0,-4,0,0,0,2.0,13.0,-1012.0
1777586075.662942,pre_hover,right,x,1,,,2,1,1.4806010654268884,0.9189076919458867,2.447919092828013,2.548048363332609,70,255037.0,45,79.0,0,0,-4,0,0,0,2.0,13.0,-1012.0
1777586075.714607,pre_hover,right,x,1,,,2,1,1.5898494311595153,0.8521771994728299,2.4352148201805615,2.5461063983245746,70,255039.0,45,79.0,0,0,-4,0,0,0,1.0,9.0,-1023.0
1777586075.7653491,pre_hover,right,x,1,,,2,1,1.5166828850920737,0.920671070455927,2.43986220475714,2.5477415774680057,70,255039.0,45,79.0,0,0,-4,0,0,0,1.0,9.0,-1023.0
1777586075.816267,pre_hover,right,x,1,,,2,1,1.5563019142948327,0.8882240932493053,2.4447630186932727,2.5543493893059037,70,255039.0,44,79.0,0,0,-4,0,0,0,0.0,2.0,-1009.0
1777586075.866223,pre_hover,right,x,1,,,2,1,1.56142328574793,0.8548123769688809,2.448707822953654,2.5530805718226968,70,255039.0,44,79.0,0,0,-4,0,0,0,0.0,2.0,-1009.0
1777586075.915862,pre_hover,right,x,1,,,2,1,1.523885943762619,0.8918907109791079,2.4507629002735793,2.5539482663078643,70,255032.00000000003,44,79.5,0,0,-4,0,0,0,-1.0,25.0,-972.0
1777586075.965705,pre_hover,right,x,1,,,2,1,1.5252264313984125,0.8931661029037026,2.4498723328385412,2.553615095604757,70,255032.00000000003,44,79.5,0,0,-4,0,0,0,-1.0,25.0,-972.0
1777586076.016017,pre_hover,right,x,1,,,2,1,1.490541824781331,0.8942104516877243,2.4645814201303127,2.561061660497211,70,255040.0,44,79.5,0,0,-4,0,0,0,7.0,-8.0,-1001.0
1777586076.0663302,pre_hover,right,x,1,,,2,1,1.4912585225474353,0.8948658957858612,2.464144096858298,2.5609047855921996,70,255040.0,44,79.5,0,0,-4,0,0,0,7.0,-8.0,-1001.0
1777586076.117579,pre_hover,right,x,1,,,2,1,1.5290731769023642,0.8955415218270586,2.455991849867717,2.5607373533786886,70,255038.0,44,79.5,0,0,-4,0,0,0,0.0,26.0,-1017.0
1777586076.168187,pre_hover,right,x,1,,,2,1,1.4928596421762819,0.9328432256694251,2.4555353878348947,2.5605637213194665,70,255038.0,44,79.5,0,0,-4,0,0,0,0.0,26.0,-1017.0
1777586076.217695,pre_hover,right,x,1,,,2,1,1.5659949682572405,0.9001899678849459,2.4460916184984987,2.5600594747298087,70,255039.0,44,79.5,0,0,-4,0,0,0,19.0,6.0,-974.0
1777586076.266319,pre_hover,right,x,1,,,2,1,1.5004869294889027,0.9377126009624237,2.4600787268525743,2.5674129683663254,70,255039.0,44,79.5,0,0,-4,0,0,0,19.0,6.0,-974.0
1777586076.3135118,pre_hover,right,x,1,,,2,1,1.5361268405829782,0.9365770541813185,2.4530858805987084,2.5676793533967843,70,255037.0,44,79.5,0,0,-4,0,0,0,-9.0,27.0,-1000.0
1777586076.361724,pre_hover,right,x,1,,,2,1,1.5017838692428964,0.9390485559243977,2.459273690556117,2.5671750002946925,80,255042.99999999997,44,79.5,0,0,-4,0,0,0,3.0,5.0,-973.0
1777586076.411597,pre_hover,right,x,1,,,2,1,1.572218326127154,0.9035686945626055,2.4514150348021215,2.567187355015822,80,255042.99999999997,44,79.5,0,0,-4,0,0,0,3.0,5.0,-973.0
1777586076.4596639,pre_hover,right,x,1,,,2,1,1.5410049705679674,0.9066733664832608,2.4658912662271404,2.574883301304744,80,255058.0,44,79.5,0,0,-4,0,0,0,-13.0,33.0,-1028.0
1777586076.50843,pre_hover,right,x,1,,,2,1,1.5046996066527074,0.9745151960667903,2.4507232417131335,2.5672619287754785,80,255058.0,44,79.5,0,0,-4,0,0,0,-13.0,33.0,-1028.0
1777586076.557624,pre_hover,right,x,1,,,2,1,1.5053157653964488,0.9751745326306884,2.450337163440611,2.5671622426880836,80,255044.0,44,79.5,0,0,-4,0,0,0,0.0,28.0,-964.0
1777586076.607235,pre_hover,right,x,1,,,2,1,1.5418388464786763,0.9421740146793922,2.458433758576769,2.5751579646803826,80,255044.0,44,79.5,0,0,-4,0,0,0,0.0,28.0,-964.0
1777586076.656288,pre_hover,right,x,1,,,2,1,1.5423973022850124,0.9428992757303807,2.4580550546522253,2.575066816378943,80,255050.0,44,79.5,0,0,-4,0,0,0,1.0,3.0,-983.0
1777586076.706883,pre_hover,right,x,1,,,2,1,1.511678123240402,0.9817265853541797,2.455125040363656,2.5744629120908495,80,255050.0,44,79.5,0,0,-4,0,0,0,1.0,3.0,-983.0
1777586076.757042,pre_hover,right,x,1,,,2,1,1.5108469292686681,0.9816556690819266,2.4557359374411045,2.5748644424431575,80,255048.0,44,79.5,0,0,-4,0,0,0,3.0,40.0,-976.0
1777586076.809818,pre_hover,right,x,1,,,2,1,1.513302920367928,1.0126334614630874,2.4393171163505776,2.5669179262850195,80,255048.0,44,79.5,0,0,-4,0,0,0,3.0,40.0,-976.0
1777586076.860912,pre_hover,right,x,1,,,2,1,1.546081024031187,0.9757740291959022,2.4502463933954366,2.57554413781841,80,255048.0,44,78.5,0,0,-4,0,0,0,4.0,22.0,-973.0
1777586076.913023,pre_hover,right,x,1,,,2,1,1.5468750429599507,0.9456586552840922,2.456945559168526,2.575538227519994,80,255048.0,44,78.5,0,0,-4,0,0,0,4.0,22.0,-973.0
1777586076.964519,pre_hover,right,x,1,,,2,1,1.5162905357271161,0.9843156196179167,2.454097998991809,2.574990805666394,80,255048.0,44,78.5,0,0,-4,0,0,0,31.0,-13.0,-972.0
1777586077.015656,pre_hover,right,x,1,,,2,1,1.5155028485073487,0.9842391611145133,2.454711335060379,2.575400225726652,80,255048.0,44,78.5,0,0,-4,0,0,0,31.0,-13.0,-972.0
1777586077.065769,pre_hover,right,x,1,,,2,1,1.5485432368915788,0.946994445150064,2.456907563931953,2.5761400162783388,80,255050.0,44,78.5,0,0,-4,0,0,0,-11.0,14.0,-994.0
1777586077.1170828,pre_hover,right,x,1,,,2,1,1.482846412645292,0.9889671559327377,2.4674570857675597,2.582318229629428,80,255050.0,44,78.5,0,0,-4,0,0,0,-11.0,14.0,-994.0
1777586077.1684742,pre_hover,right,x,1,,,2,1,1.4868632735238376,1.0226556911374105,2.458085328519913,2.5820378461782862,80,255046.99999999997,44,78.5,0,0,-4,0,0,0,10.0,27.0,-999.0
1777586077.2189949,pre_hover,right,x,1,,,2,1,1.549792054669683,0.9812935676467174,2.4490407410390653,2.5764266080046867,80,255046.99999999997,44,78.5,0,0,-4,0,0,0,10.0,27.0,-999.0
1777586077.269654,pre_hover,right,x,1,,,2,1,1.5191571411207607,0.9834289445765991,2.4629866333665174,2.583837577458881,80,255046.0,44,78.5,0,0,-4,0,0,0,-5.0,33.0,-950.0
1777586077.319975,pre_hover,right,x,1,,,2,1,1.5533000291818864,0.9808194945359695,2.4563638275351045,2.5840308552237925,80,255046.0,44,78.5,0,0,-4,0,0,0,-5.0,33.0,-950.0
1777586077.371679,pre_hover,right,x,1,,,2,1,1.5501348636880965,0.980047456489123,2.449809356585798,2.576949612165504,80,255048.99999999997,44,78.5,0,0,-4,0,0,0,5.0,-5.0,-1038.0
1777586077.422563,pre_hover,right,x,1,,,2,1,1.5181767721614743,0.9829301618253667,2.4636883468053363,2.5841971695205155,80,255048.99999999997,44,78.5,0,0,-4,0,0,0,5.0,-5.0,-1038.0
1777586077.472907,pre_hover,right,x,1,,,2,1,1.583646129661962,0.9774188550414737,2.443182734051819,2.5774400498936374,80,255044.99999999997,44,78.5,0,0,-4,0,0,0,-1.0,16.0,-1022.0
1777586077.523695,response,right,x,1,1777586077.5234718,0.0002231597900390625,2,1,1.5527453994981806,0.979090981566329,2.4578868726269296,2.584972286162783,80,255044.99999999997,44,78.5,0,0,-4,0,0,0,-1.0,16.0,-1022.0
1777586077.573898,response,right,x,1,1777586077.5234718,0.05042624473571777,2,1,1.5515158838200365,0.9776158455865367,2.4508153895916123,2.577655118327029,80,255048.0,44,78.5,0,0,-4,0,0,0,-1.0,25.0,-987.0
1777586077.624744,response,right,x,1,1777586077.5234718,0.1012721061706543,2,1,1.487452642787621,1.0188526830414666,2.4607148214176244,2.5837387938049443,80,255048.0,44,78.5,0,0,-4,0,0,0,-1.0,25.0,-987.0
1777586077.675123,response,right,x,1,1777586077.5234718,0.15165114402770996,2,1,1.5548057706431033,0.9784284931438847,2.458346931001091,2.5857027280764653,80,255055.00000000003,44,78.5,0,0,-4,0,0,0,2.0,2.0,-987.0
1777586077.7256188,response,right,x,1,1777586077.5234718,0.2021470069885254,2,1,1.5542116566379636,0.9776862930354234,2.4587554870596637,2.5857978572696685,80,255055.00000000003,44,78.5,0,0,-4,0,0,0,2.0,2.0,-987.0
1777586077.776782,response,right,x,1,1777586077.5234718,0.2533102035522461,2,1,1.5527592365424217,1.0085274124216583,2.451888346824277,2.586040380687093,80,255048.0,44,78.5,0,4,-4,0,0,0,11.0,19.0,-990.0
1777586077.82767,response,right,x,1,1777586077.5234718,0.3041982650756836,2,1,1.5552997630579106,0.9445208507967755,2.474221625483307,2.5935754154860957,80,255048.0,44,78.5,0,4,-4,0,0,0,11.0,19.0,-990.0
1777586077.8778949,response,right,x,1,1777586077.5234718,0.35442304611206055,2,1,1.5547031440689771,0.94012625630841,2.476919504018315,2.59510350086082,80,255040.0,44,79.5,0,2,-4,0,0,0,-9.0,5.0,-984.0
1777586077.9285948,response,right,x,1,1777586077.5234718,0.4051229953765869,2,1,1.5901910178754446,0.9380253937581277,2.470317545343307,2.5962021371111343,80,255040.0,44,79.5,0,2,-4,0,0,0,-9.0,5.0,-984.0
1777586077.9788532,response,right,x,1,1777586077.5234718,0.4553813934326172,2,1,1.5953528792677707,0.933745762150076,2.473267714582415,2.599304287200964,80,255044.99999999997,44,79.5,0,0,-4,0,0,0,5.0,5.0,-1041.0
1777586078.028811,response,right,x,1,1777586077.5234718,0.5053391456604004,2,1,1.5953528792677707,0.933745762150076,2.473267714582415,2.599304287200964,80,255044.99999999997,44,79.5,0,0,-4,0,0,0,5.0,5.0,-1041.0
1777586078.078018,response,right,x,1,1777586077.5234718,0.5545461177825928,2,1,1.5966986983405214,0.9317092299032029,2.474604711522554,2.6004677502432427,80,255044.99999999997,44,79.5,0,0,-4,0,0,0,5.0,5.0,-1041.0
1777586078.128625,response,right,x,1,1777586077.5234718,0.6051530838012695,2,1,1.5963871004129486,0.9576670499994467,2.4640874639494794,2.5958422799135983,80,255038.0,44,79.5,0,0,-4,0,0,0,1.0,15.0,-981.0
1777586078.179132,response,right,x,1,1777586077.5234718,0.6556601524353027,2,1,1.5687177573962552,0.9566727971121185,2.481712797419702,2.6061893445218405,80,255041.0,44,79.5,0,0,-4,0,0,0,-13.0,21.0,-1008.0
1777586078.228555,response,right,x,1,1777586077.5234718,0.7050831317901611,2,1,1.5672266066291676,0.9525042083439177,2.476351880456324,2.599870296638921,80,255041.0,44,79.5,0,0,-4,0,0,0,-13.0,21.0,-1008.0
1777586078.2780008,response,right,x,1,1777586077.5234718,0.7545289993286133,2,1,1.606963807490032,0.9500640550832075,2.4699082580308658,2.6021956750764237,80,255048.99999999997,44,79.5,0,0,-4,0,0,0,17.0,-10.0,-1036.0
1777586078.3248289,response,right,x,1,1777586077.5234718,0.8013570308685303,2,1,1.5764200770479604,0.9476349175234197,2.4876859420149002,2.611655692125863,80,255048.99999999997,44,79.5,0,0,-4,0,0,0,17.0,-10.0,-1036.0
1777586078.375341,response,right,x,1,1777586077.5234718,0.8518691062927246,2,1,1.5446603053123233,0.9400916620061336,2.500206302612515,2.6152218657648922,80,255041.0,44,79.5,0,0,-4,0,0,0,15.0,10.0,-967.0
1777586078.424843,response,right,x,1,1777586077.5234718,0.9013712406158447,2,1,1.6477296705266802,0.9051665619604781,2.475052337698685,2.607801958690747,80,255041.0,44,79.5,0,0,-4,0,0,0,15.0,10.0,-967.0
1777586078.473032,response,right,x,1,1777586077.5234718,0.9495601654052734,2,1,1.6161751550895378,0.9292441645152699,2.482806856681134,2.6122980486548495,80,255041.0,44,79.5,0,0,-4,0,0,0,15.0,10.0,-967.0
1777586078.522648,response,right,x,1,1777586077.5234718,0.9991762638092041,2,1,1.6863495023712158,0.9011098835503413,2.4693553153419705,2.611494290287592,80,255042.99999999997,44,79.5,0,0,-4,0,0,0,-22.0,25.0,-1004.0
1777586078.572204,response,right,x,1,1777586077.5234718,1.0487322807312012,2,1,1.6882882878681245,0.8957235346970829,2.465822874991224,2.6076359103408184,80,255042.99999999997,44,79.5,0,0,-4,0,0,0,-22.0,25.0,-1004.0
1777586078.6196961,response,right,x,1,1777586077.5234718,1.096224308013916,2,1,1.687443291251348,0.9225176458734742,2.463269802251266,2.6102300832720924,80,255044.99999999997,44,79.5,0,0,-4,0,1,0,-1.0,-4.0,-1060.0
1777586078.671293,response,right,x,1,1777586077.5234718,1.1478211879730225,4,1,1.6133229612687183,0.8628426135178041,2.486855997522844,2.55894415132205,80,255044.99999999997,44,79.5,0,0,-4,0,1,0,-1.0,-4.0,-1060.0
1777586078.720766,response,right,x,1,1777586077.5234718,1.1972942352294922,4,1,1.5811966512626952,0.9053428785699518,2.4605094179879408,2.546541628531193,80,255044.99999999997,43,79.5,0,-1,-4,0,1,0,-3.0,16.0,-985.0
1777586078.7713091,response,right,x,1,1777586077.5234718,1.2478373050689697,4,1,1.6364681725222692,0.8418136419428149,2.4922134527176194,2.557045673761568,80,255044.99999999997,43,79.5,0,-1,-4,0,1,0,-3.0,16.0,-985.0
1777586078.821428,response,right,x,1,1777586077.5234718,1.2979562282562256,4,1,1.6368951327606927,0.8855650359839249,2.4741988401478436,2.54740621993664,80,255053.00000000003,43,79.5,0,-2,-4,0,1,0,-10.0,30.0,-980.0
1777586078.873077,response,right,x,1,1777586077.5234718,1.3496050834655762,4,1,1.6947431792113452,0.8578339635195453,2.490846663464684,2.5509039114955234,80,255053.00000000003,43,79.5,0,-2,-4,0,1,0,-10.0,30.0,-980.0
1777586078.939413,response,right,x,1,1777586077.5234718,1.4159412384033203,4,1,1.7001848283789571,0.8613725589004232,2.480611990948122,2.5409033088403983,80,255044.0,43,79.0,0,-1,-4,0,0,0,0.0,-6.0,-1002.0
1777586078.9894981,response,right,x,1,1777586077.5234718,1.4660263061523438,4,1,1.7072943692375593,0.8680721903798106,2.477524092303819,2.538285600485661,80,255041.0,43,79.0,0,-1,-4,0,0,0,21.0,-7.0,-1006.0
1777586079.039435,response,right,x,1,1777586077.5234718,1.515963077545166,4,1,1.7072943692375593,0.8680721903798106,2.477524092303819,2.538285600485661,80,255041.0,43,79.0,0,-1,-4,0,0,0,21.0,-7.0,-1006.0
1777586079.0898821,response,right,x,1,1777586077.5234718,1.5664103031158447,4,1,1.7231633257913574,0.8280075644052085,2.4926828257092195,2.5442674169514254,80,255041.0,43,79.0,0,-1,-4,0,0,0,21.0,-7.0,-1006.0
1777586079.140245,response,right,x,1,1777586077.5234718,1.6167731285095215,4,1,1.7287854820180217,0.8332726424504506,2.4900025962134182,2.5419275022332477,70,255046.99999999997,43,79.0,0,0,-4,0,0,0,2.0,4.0,-987.0
1777586079.191387,response,right,x,1,1777586077.5234718,1.6679151058197021,4,1,1.7653603090328955,0.8937295936521867,2.477239759287125,2.536836912617369,70,255046.0,43,79.0,0,-1,-4,0,0,0,5.0,-1.0,-1001.0
1777586079.2420459,response,right,x,1,1777586077.5234718,1.718574047088623,4,1,1.6916972788369473,0.8265410931317387,2.4781428950068585,2.533412733859119,70,255046.0,43,79.0,0,-1,-4,0,0,0,5.0,-1.0,-1001.0
1777586079.29205,response,right,x,1,1777586077.5234718,1.768578052520752,4,1,1.7429811780253797,0.8406806481693238,2.478454603911224,2.5304140633834806,70,255046.0,43,79.0,0,-1,-4,0,0,0,5.0,-1.0,-1001.0
1777586079.3427682,response,right,x,1,1777586077.5234718,1.8192963600158691,4,1,1.759185287137004,0.7983307389445053,2.493841646905398,2.5369086036669093,70,255036.0,43,79.0,0,0,-4,0,0,0,8.0,10.0,-1040.0
1777586079.393269,response,right,x,1,1777586077.5234718,1.8697972297668457,4,1,1.7178381108557144,0.7315180267860295,2.4934071584484183,2.531125992828368,70,255036.0,43,79.0,0,0,-4,0,0,0,8.0,10.0,-1040.0
1777586079.4448729,response,right,x,1,1777586077.5234718,1.921401023864746,4,1,1.7546903710591077,0.8504664252019791,2.47355051417249,2.5261727891116945,70,255048.0,43,79.0,0,0,-4,0,0,0,18.0,17.0,-964.0
1777586079.495338,response,right,x,1,1777586077.5234718,1.9718661308288574,4,1,1.7264205989782115,0.7391063313424499,2.491128563394173,2.528944505515748,70,255048.0,43,79.0,0,0,-4,0,0,0,18.0,17.0,-964.0
1777586079.546117,response,right,x,1,1777586077.5234718,2.0226452350616455,4,1,1.7326570538543147,0.744566794308079,2.489057024338849,2.5269751476823363,70,255044.0,43,79.0,0,0,-4,0,0,0,-4.0,32.0,-992.0
1777586079.5964181,response,right,x,1,1777586077.5234718,2.072946310043335,4,1,1.7802777353732406,0.8120930165914482,2.47943673417644,2.52303488812178,70,255044.0,43,79.0,0,0,-4,0,0,0,-4.0,32.0,-992.0
1777586079.6478279,response,right,x,1,1777586077.5234718,2.1243560314178467,4,1,1.7321665691279344,0.8035101379450974,2.4688165700562776,2.5158717047380645,70,255051.00000000003,43,79.0,0,0,-4,0,0,0,7.0,11.0,-974.0
1777586079.698708,response,right,x,1,1777586077.5234718,2.175236225128174,4,1,1.782429745269876,0.8210489329826374,2.4749686755033653,2.5199382858379744,70,255051.00000000003,43,79.0,0,0,-4,0,0,0,7.0,11.0,-974.0
1777586079.7496881,response,right,x,1,1777586077.5234718,2.2262163162231445,4,1,1.6944078379054106,0.6983074252198643,2.485293509487041,2.521717216059993,70,255041.0,43,79.0,0,0,-4,0,0,0,-2.0,9.0,-1011.0
1777586079.800475,response,right,x,1,1777586077.5234718,2.277003049850464,4,1,1.793943169397366,0.8330747127783359,2.4689376644224272,2.515087735068046,70,255044.0,43,79.0,0,0,-4,0,0,0,33.0,-20.0,-985.0
1777586079.850917,response,right,x,1,1777586077.5234718,2.3274452686309814,4,1,1.764939846626645,0.7124619955088334,2.48742935627379,2.5179735059753723,70,255044.0,43,79.0,0,0,-4,0,0,0,33.0,-20.0,-985.0
1777586079.9014761,response,right,x,1,1777586077.5234718,2.378004312515259,4,1,1.8466238142076736,0.8617727530348585,2.460180154245352,2.507836661578317,70,255044.0,43,79.0,0,0,-4,0,0,0,33.0,-20.0,-985.0
1777586079.951843,response,right,x,1,1777586077.5234718,2.4283711910247803,4,1,1.7716029712980894,0.7238412363489385,2.483636004536182,2.5150519183723263,70,255040.0,43,80.0,0,0,-4,0,0,0,28.0,-5.0,-1005.0
1777586080.002229,response,right,x,1,1777586077.5234718,2.47875714302063,4,1,1.7794482619931733,0.7293714805072741,2.4739523174096547,2.505507675128134,70,255037.0,43,80.0,0,0,-4,0,0,0,13.0,16.0,-1011.0
1777586080.0524192,response,right,x,1,1777586077.5234718,2.528947353363037,4,1,1.8183102749839786,0.8076659574056411,2.4603654197546674,2.500520083448325,70,255037.0,43,80.0,0,0,-4,0,0,0,13.0,16.0,-1011.0
1777586080.102392,response,right,x,1,1777586077.5234718,2.5789201259613037,4,1,1.8408299206074121,0.7624506542092027,2.4747658612919823,2.5062265777712054,70,255040.0,43,80.0,0,0,-4,0,0,0,-4.0,34.0,-1020.0
1777586080.152779,response,right,x,1,1777586077.5234718,2.629307270050049,4,1,1.781533017572943,0.7462478295362398,2.466897504897074,2.5006396544757803,70,255040.0,43,80.0,0,0,-4,0,0,0,-4.0,34.0,-1020.0
1777586080.203385,response,right,x,1,1777586077.5234718,2.679913282394409,4,1,1.8737243747941847,0.7131724920242106,2.4808278901632654,2.5037031700850028,70,255042.0,43,80.0,0,0,-4,0,0,0,0.0,-12.0,-1038.0
1777586080.251484,response,right,x,1,1777586077.5234718,2.7280120849609375,4,1,1.8743646673845282,0.7181394232137993,2.4788848533561954,2.502372283574723,70,255042.0,43,80.0,0,0,-4,0,0,0,0.0,-12.0,-1038.0
1777586080.297442,response,right,x,1,1777586077.5234718,2.773970127105713,4,1,1.8085497106499724,0.6999706735937461,2.4782482813411315,2.50366734257544,70,255036.0,43,80.0,0,0,-4,0,0,0,0.0,4.0,-1004.0
1777586080.3455439,response,right,x,1,1777586077.5234718,2.8220720291137695,4,1,1.9492509900035617,0.8479040237399768,2.4458956960210023,2.487086494738802,70,255036.0,43,80.0,0,0,-4,0,0,0,0.0,4.0,-1004.0
1777586080.392291,response,right,x,1,1777586077.5234718,2.868819236755371,4,1,1.9434041407384306,0.8507524011602794,2.443845735374378,2.4857117284079515,70,255040.0,43,80.0,0,0,-4,0,0,0,2.0,18.0,-995.0
