timestamp,elapsed,phase,wp_idx,wp_name,wp_x,wp_y,wp_z,pos_x,pos_y,pos_z,marker_id,err_x_cm,err_y_cm,err_z_cm,err_3d_cm,cmd_lr,cmd_fb,cmd_ud,feedback,publish_count,tello_height_cm,tello_baro_cm,tello_battery,tello_temp_c,tello_pitch,tello_roll,tello_yaw,tello_vgx,tello_vgy,tello_vgz
1778083905.348688,0.003641843795776367,nav,1,front-left,-0.4065405440298569,1.3005432075128642,3.2624277892639992,-0.10243284897809422,1.275334011030686,3.5902428658242664,0,-30.410769505176265,2.520919648217812,-32.78150765602672,44.78612711512202,-30,30,14,ok,0,90,248371.0,51,70.5,0,0,0,0,0,0
1778083905.4197278,0.07468175888061523,nav,1,front-left,-0.4065405440298569,1.3005432075128642,3.2624277892639992,-0.10042610305637009,1.276212825986533,3.5901711772353817,0,-30.611444097348684,2.4330381526331157,-32.77433879713825,44.912553567648246,-19,19,1,ok,3,90,248381.0,51,70.5,0,0,0,0,0,0
1778083905.4903061,0.14526009559631348,nav,1,front-left,-0.4065405440298569,1.3005432075128642,3.2624277892639992,-0.17401300967471284,1.2266346260818413,3.6122958865835946,0,-23.252753435514407,7.390858143102297,-34.98680973195953,42.654333679529294,11,29,22,ok,7,90,248376.00000000003,51,70.5,0,0,0,0,0,0
1778083905.560725,0.21567893028259277,nav,1,front-left,-0.4065405440298569,1.3005432075128642,3.2624277892639992,-0.15483304172221507,1.3448714376643767,3.5700806636173836,0,-25.170750230764185,-4.432823015151244,-30.76528743533844,39.99649357183906,-22,4,-30,ok,10,90,248378.00000000003,51,70.5,0,0,0,0,0,0
1778083905.6320179,0.2869718074798584,nav,1,front-left,-0.4065405440298569,1.3005432075128642,3.2624277892639992,-0.10567739190470446,1.2795487220984796,3.590406744976046,0,-30.086315212515245,2.0994485414384645,-32.79789557120467,44.55666056993748,-30,27,24,ok,14,90,248378.00000000003,51,70.5,0,0,0,0,0,0
1778083905.7031949,0.35814881324768066,nav,1,front-left,-0.4065405440298569,1.3005432075128642,3.2624277892639992,-0.10619993971723408,1.2807567815450982,3.590352925822101,0,-30.034060431262283,1.978642596776603,-32.792513655810176,44.5118946393095,-18,20,1,ok,17,90,248376.00000000003,51,70.5,-1,-1,0,0,0,0
1778083905.774518,0.4294719696044922,nav,1,front-left,-0.4065405440298569,1.3005432075128642,3.2624277892639992,-0.09154220123320508,1.3917915653300557,3.5470249529354754,0,-31.499834279665183,-9.124835781719142,-28.459716367147614,43.421856747359406,-25,3,-30,ok,21,90,248376.00000000003,51,70.5,-1,-1,0,0,0,0
1778083905.846507,0.5014610290527344,nav,1,front-left,-0.4065405440298569,1.3005432075128642,3.2624277892639992,-0.037433795414752884,1.441611940179747,3.535279267589188,0,-36.9106748615104,-14.106873266688268,-27.285147832518895,48.01959063066813,-30,13,-27,ok,25,90,248373.0,51,70.0,-2,-1,0,0,0,0
1778083905.918423,0.5733768939971924,nav,1,front-left,-0.4065405440298569,1.3005432075128642,3.2624277892639992,-0.10357887641082437,1.2805771682862501,3.5920452204229956,0,-30.296166761903255,1.9966039226614107,-32.96174311589964,44.81429076675872,3,30,30,ok,28,90,248383.0,51,70.0,-2,-1,0,0,0,0
1778083905.989137,0.6440908908843994,nav,1,front-left,-0.4065405440298569,1.3005432075128642,3.2624277892639992,-0.09629291406931666,1.3911602621713248,3.5486980080254855,0,-31.024762996054022,-9.06170546584606,-28.62702187614863,43.17588223080751,-22,3,-30,ok,32,90,248373.0,51,70.0,-2,-2,0,0,0,0
1778083906.06047,0.7154240608215332,nav,1,front-left,-0.4065405440298569,1.3005432075128642,3.2624277892639992,-0.16313505669792297,1.34284704424367,3.557106550483955,0,-24.340548733193394,-4.230383673080573,-29.467876121995573,38.45405286566952,7,22,13,ok,35,90,248375.0,51,70.0,-1,-2,0,1,-1,0
1778083906.1316779,0.7866318225860596,nav,1,front-left,-0.4065405440298569,1.3005432075128642,3.2624277892639992,-0.1651460935255682,1.3320998367745827,3.545106228471369,0,-24.139445050428872,-3.1556629261718427,-28.26784392073698,37.30605870061105,-15,14,1,ok,39,90,248375.0,51,70.0,-1,-2,0,1,-1,0
1778083906.2026722,0.85762619972229,nav,1,front-left,-0.4065405440298569,1.3005432075128642,3.2624277892639992,-0.10260797829017569,1.3668703004227378,3.510172172509356,0,-30.39325657396812,-6.63270929098736,-24.774438324535673,39.768274692347774,-30,4,-17,ok,42,90,248371.0,51,70.0,-1,-2,0,1,-1,0
1778083906.273503,0.9284570217132568,nav,1,front-left,-0.4065405440298569,1.3005432075128642,3.2624277892639992,-0.1051130843302259,1.3641341853277131,3.511870042994944,0,-30.1427459699631,-6.35909778148489,-24.944225373094486,39.638840026771014,-19,17,-3,ok,46,90,248366.0,51,70.0,-1,-1,0,1,-1,0
1778083906.345637,1.0005910396575928,nav,1,front-left,-0.4065405440298569,1.3005432075128642,3.2624277892639992,-0.16842468253962714,1.3135614338417096,3.5212497624104198,0,-23.811586149022975,-1.3018226328845417,-25.882197314642053,35.193387375100706,5,21,16,ok,50,90,248366.0,51,70.0,-1,-1,0,1,-1,0
1778083906.417324,1.0722780227661133,nav,1,front-left,-0.4065405440298569,1.3005432075128642,3.2624277892639992,-0.1713120269479442,1.3020567191736985,3.511305512210243,0,-23.52285170819127,-0.15135116608342436,-24.887772294624355,34.24541822565617,-15,14,3,ok,53,90,248371.0,51,70.0,-1,0,0,1,-1,0
1778083906.487607,1.1425609588623047,nav,1,front-left,-0.4065405440298569,1.3005432075128642,3.2624277892639992,-0.18014352104117765,1.294326370976901,3.499373721023751,0,-22.639702298867924,0.6216836535963166,-23.6945931759752,32.77768076788663,-13,12,2,ok,57,90,248364.0,51,70.0,-1,0,0,1,-1,0
1778083906.557885,1.212838888168335,nav,1,front-left,-0.4065405440298569,1.3005432075128642,3.2624277892639992,-0.18263247860473225,1.287124331442215,3.4871531882384676,0,-22.390806542512465,1.3418876070649288,-22.472539897446843,31.751597273468835,-15,12,3,ok,60,90,248373.99999999997,51,70.0,-1,0,0,1,-1,0
1778083906.629705,1.2846589088439941,nav,1,front-left,-0.4065405440298569,1.3005432075128642,3.2624277892639992,-0.21567128875080377,1.171291391313309,3.527120407068693,0,-19.08692552790531,12.925181619955527,-26.469261780469377,35.09975591396123,-2,30,30,ok,64,90,248373.99999999997,51,70.0,-1,0,0,1,-1,0
1778083906.700724,1.355677843093872,nav,1,front-left,-0.4065405440298569,1.3005432075128642,3.2624277892639992,-0.22938178334825693,1.3325151068471508,3.4441620640487014,0,-17.715876068159996,-3.197189933428657,-18.173427478470217,25.580221942900298,-8,-15,-30,ok,67,90,248371.0,50,70.0,-1,0,0,1,-1,0
1778083906.772096,1.4270498752593994,nav,1,front-left,-0.4065405440298569,1.3005432075128642,3.2624277892639992,-0.23406078808478298,1.3249743535729195,3.433032252091256,0,-17.24797559450739,-2.4431146060055253,-17.060446282725692,24.382786929565068,-11,9,0,ok,71,90,248377.0,50,70.5,-1,0,0,1,-1,0
1778083906.8428092,1.4977631568908691,nav,1,front-left,-0.4065405440298569,1.3005432075128642,3.2624277892639992,-0.33013598892526574,1.3414226104249882,3.399847961812076,0,-7.640455510459115,-4.0879402912124,-13.742017254807681,16.245948863124458,26,0,-8,ok,74,90,248377.0,50,70.5,-1,0,0,1,-1,0
1778083906.914199,1.569153070449829,nav,1,front-left,-0.4065405440298569,1.3005432075128642,3.2624277892639992,-0.24016634993950473,1.313548081576957,3.425488794278437,0,-16.637419409035218,-1.3004874064092675,-16.306100501443765,23.332036037379066,-30,22,8,ok,78,90,248366.0,50,70.5,-1,0,0,1,-1,0
1778083906.985858,1.6408119201660156,nav,1,front-left,-0.4065405440298569,1.3005432075128642,3.2624277892639992,-0.24430782773618945,1.297100430597521,3.404029821903204,0,-16.223271629366746,0.34427769153433374,-14.16020326392049,21.536583432955393,-11,4,5,ok,82,90,248367.99999999997,50,70.5,0,0,0,1,-1,0
1778083907.055746,1.7107000350952148,nav,1,front-left,-0.4065405440298569,1.3005432075128642,3.2624277892639992,-0.31181637075608887,1.2535968227044378,3.3921466937309255,0,-9.472417327376803,4.694638480842639,-12.971890446692624,16.734284037591575,15,7,18,ok,85,90,248367.99999999997,50,70.5,0,0,0,1,-1,0
1778083907.126472,1.781425952911377,nav,1,front-left,-0.4065405440298569,1.3005432075128642,3.2624277892639992,-0.3192355801864307,1.2477133718933744,3.3955192693029392,0,-8.730496384342617,5.282983561948984,-13.309148003894,16.77095414764462,-6,12,5,ok,89,90,248367.0,50,70.5,0,0,0,1,-1,0
1778083907.197938,1.8528919219970703,nav,1,front-left,-0.4065405440298569,1.3005432075128642,3.2624277892639992,-0.32270954430188564,1.2428585333648685,3.3829444856241646,0,-8.383099972797126,5.768467414799572,-12.051669636016538,15.773215350244813,-7,6,5,ok,92,90,248367.0,50,70.5,0,0,0,1,-1,0
1778083907.269784,1.9247379302978516,nav,1,front-left,-0.4065405440298569,1.3005432075128642,3.2624277892639992,-0.3930200528390429,1.207299721372976,3.3792192734797224,0,-1.3520491190814,9.324348613988832,-11.679148421572316,15.005799603777179,20,9,18,ok,96,90,248366.0,50,70.5,0,1,0,1,-1,0
1778083907.3407202,1.9956741333007812,nav,1,front-left,-0.4065405440298569,1.3005432075128642,3.2624277892639992,-0.3266578990231363,1.2295438707419921,3.376292109405982,0,-7.988264500672059,7.099933677087211,-11.386432014198267,15.616410021694927,-30,9,-2,ok,99,80,248366.0,50,70.5,0,1,0,1,0,0
1778083907.412261,2.0672149658203125,nav,1,front-left,-0.4065405440298569,1.3005432075128642,3.2624277892639992,-0.4152473743389654,1.254200267194928,3.323772283241542,0,0.8706830309108515,4.634294031793629,-6.1344493977542935,7.737327673495686,27,-10,-5,ok,103,80,248359.0,50,70.5,0,0,0,1,0,0
1778083907.483882,2.138835906982422,nav,1,front-left,-0.4065405440298569,1.3005432075128642,3.2624277892639992,-0.35752313081035525,1.2729587467487025,3.3214996494070546,0,-4.901741321950165,2.7584460764161767,-5.907186014305532,8.156650007902536,-26,6,-4,ok,106,80,248359.0,50,70.5,0,0,0,1,0,0
1778083907.554729,2.2096829414367676,nav,1,front-left,-0.4065405440298569,1.3005432075128642,3.2624277892639992,-0.29583565343338886,1.297569996154619,3.314032539469287,0,-11.070489059646803,0.29732113582452424,-5.1604750205287875,12.217799732974393,-30,4,-8,ok,110,80,248366.0,50,70.5,0,0,0,0,0,0
1778083907.624775,2.279728889465332,nav,1,front-left,-0.4065405440298569,1.3005432075128642,3.2624277892639992,-0.35911685317440173,1.263507567300461,3.3120995553346555,0,-4.742369085545517,3.7035640212403242,-4.9671766070656265,7.802518468337234,16,6,14,ok,113,80,248362.0,50,70.5,0,0,0,0,0,0
1778083907.696723,2.3516769409179688,nav,1,front-left,-0.4065405440298569,1.3005432075128642,3.2624277892639992,-0.4259197254775688,1.2368787989247818,3.3047054064371575,0,1.937918144771189,6.366440858808242,-4.2277617173158255,7.884228883216019,20,3,13,ok,117,80,248362.0,50,70.5,0,0,0,0,0,0
1778083907.76827,2.4232239723205566,nav,1,front-left,-0.4065405440298569,1.3005432075128642,3.2624277892639992,-0.47559186065209885,1.150187106328063,3.3127047485427514,0,6.905131662224195,15.035610118480115,-5.02769592787522,17.29243017192106,17,9,30,ok,121,80,248361.0,50,70.5,0,0,0,0,0,0
1778083907.839927,2.4948809146881104,nav,1,front-left,-0.4065405440298569,1.3005432075128642,3.2624277892639992,-0.3298340475753062,1.332224238946611,3.2625762526019084,0,-7.670649645455069,-3.1681031433746787,-0.01484633379091882,8.299154410179842,-30,-13,-30,ok,124,80,248369.99999999997,50,70.0,0,0,0,0,0,0
1778083907.911754,2.5667078495025635,nav,1,front-left,-0.4065405440298569,1.3005432075128642,3.2624277892639992,-0.42658438623754585,1.2275040064379201,3.2827972261485416,0,2.0043842207688956,7.3039201074944105,-2.0369436884542402,7.843082597490738,30,12,30,ok,128,80,248367.99999999997,50,70.0,0,-1,0,0,0,0
1778083907.982686,2.6376399993896484,nav,1,front-left,-0.4065405440298569,1.3005432075128642,3.2624277892639992,-0.3862149197048353,1.2987223162634023,3.2484303759531126,0,-2.0325624325021607,0.18208912494619423,1.3997413310886664,2.474619624386876,-19,-8,-24,ok,131,80,248364.0,50,70.0,0,0,0,0,0,0
1778083908.053948,2.708901882171631,nav,1,front-left,-0.4065405440298569,1.3005432075128642,3.2624277892639992,-0.42936774488452234,1.216978183368047,3.274607320539902,0,2.2827200854665444,8.356502414481714,-1.2179531275902544,8.747877080345724,12,13,30,ok,135,80,248364.0,50,70.0,0,0,0,0,0,0
1778083908.124637,2.7795908451080322,nav,1,front-left,-0.4065405440298569,1.3005432075128642,3.2624277892639992,-0.4861423737333849,1.1372687739815954,3.292661364277481,0,7.960182970352802,16.32744335312688,-3.0233575013481673,18.414413103653892,21,12,30,ok,138,80,248365.0,50,70.0,0,0,0,0,0,0
1778083908.197008,2.851961851119995,nav,1,front-left,-0.4065405440298569,1.3005432075128642,3.2624277892639992,-0.4861423737333849,1.1372687739815954,3.292661364277481,0,7.960182970352802,16.32744335312688,-3.0233575013481673,18.414413103653892,1,5,11,ok,142,80,248365.0,50,70.0,0,1,0,0,0,0
1778083908.2686179,2.923571825027466,nav,1,front-left,-0.4065405440298569,1.3005432075128642,3.2624277892639992,-0.4984897291385635,1.192315345835318,3.2514907024320747,0,9.194918510870659,10.822786167754629,1.0937086831924514,14.243434471298814,6,-10,-10,ok,146,80,248365.0,50,70.0,0,1,0,0,0,0
1778083908.342324,2.9972779750823975,nav,1,front-left,-0.4065405440298569,1.3005432075128642,3.2624277892639992,-0.4984897291385635,1.192315345835318,3.2514907024320747,0,9.194918510870659,10.822786167754629,1.0937086831924514,14.243434471298814,2,3,8,ok,149,80,248365.0,50,70.0,0,1,0,0,0,0
1778083908.4159832,3.070937156677246,nav,1,front-left,-0.4065405440298569,1.3005432075128642,3.2624277892639992,-0.4984897291385635,1.192315345835318,3.2514907024320747,0,9.194918510870659,10.822786167754629,1.0937086831924514,14.243434471298814,2,3,8,ok,153,80,248365.0,50,70.0,0,1,0,0,0,0
1778083908.491761,3.146714925765991,nav,1,front-left,-0.4065405440298569,1.3005432075128642,3.2624277892639992,-0.4984897291385635,1.192315345835318,3.2514907024320747,0,9.194918510870659,10.822786167754629,1.0937086831924514,14.243434471298814,2,3,8,ok,157,80,248365.0,50,70.0,0,1,0,0,0,0
1778083908.56916,3.224113941192627,nav,1,front-left,-0.4065405440298569,1.3005432075128642,3.2624277892639992,-0.4984897291385635,1.192315345835318,3.2514907024320747,0,9.194918510870659,10.822786167754629,1.0937086831924514,14.243434471298814,2,3,8,ok,161,80,248365.0,50,70.0,0,1,0,0,0,0
1778083908.6435468,3.2985007762908936,nav,1,front-left,-0.4065405440298569,1.3005432075128642,3.2624277892639992,-0.5042327672090737,1.194446370706593,3.250341019729791,0,9.769222317921683,10.609683680627114,1.2086769534208397,14.472870913459952,4,2,7,ok,164,80,248362.0,50,70.0,0,0,0,0,0,0
1778083908.716455,3.3714089393615723,nav,1,front-left,-0.4065405440298569,1.3005432075128642,3.2624277892639992,-0.5042327672090737,1.194446370706593,3.250341019729791,0,9.769222317921683,10.609683680627114,1.2086769534208397,14.472870913459952,2,3,8,ok,168,80,248364.0,50,70.0,0,0,0,0,0,0
1778083908.7903419,3.445295810699463,nav,1,front-left,-0.4065405440298569,1.3005432075128642,3.2624277892639992,-0.5042327672090737,1.194446370706593,3.250341019729791,0,9.769222317921683,10.609683680627114,1.2086769534208397,14.472870913459952,2,3,8,ok,172,80,248364.0,50,70.0,0,0,0,0,0,0
1778083908.795603,3.450556993484497,hover_at_wp,1,front-left,-0.4065405440298569,1.3005432075128642,3.2624277892639992,-0.5042327672090737,1.194446370706593,3.250341019729791,0,9.769222317921683,10.609683680627114,1.2086769534208397,14.472870913459952,2,3,8,ok,172,80,248364.0,50,70.0,0,0,0,0,0,0
1778083908.8683121,3.523266077041626,hover_at_wp,1,front-left,-0.4065405440298569,1.3005432075128642,3.2624277892639992,-0.4446444245844252,1.212309496697726,3.264564157639241,0,3.8103880554568317,8.82337108151383,-0.21363683752415596,9.613353997102674,-21,9,1,ok,176,80,248369.99999999997,49,70.0,0,0,0,0,0,0
1778083908.9394119,3.5943658351898193,hover_at_wp,1,front-left,-0.4065405440298569,1.3005432075128642,3.2624277892639992,-0.46507155371865405,1.2700980339495296,3.218931010979563,0,5.8531009688797155,3.044517356333465,4.349677828443621,7.902377749523898,7,-14,-16,ok,179,80,248379.0,49,70.0,0,0,0,0,0,0
1778083909.00911,3.6640639305114746,hover_at_wp,1,front-left,-0.4065405440298569,1.3005432075128642,3.2624277892639992,-0.46507155371865405,1.2700980339495296,3.218931010979563,0,5.8531009688797155,3.044517356333465,4.349677828443621,7.902377749523898,0,1,3,ok,183,80,248379.0,49,70.0,0,0,0,0,0,0
1778083909.080933,3.735887050628662,hover_at_wp,1,front-left,-0.4065405440298569,1.3005432075128642,3.2624277892639992,-0.46507155371865405,1.2700980339495296,3.218931010979563,0,5.8531009688797155,3.044517356333465,4.349677828443621,7.902377749523898,0,1,3,ok,186,80,248379.0,49,70.0,0,0,0,0,0,0
1778083909.1537862,3.8087401390075684,hover_at_wp,1,front-left,-0.4065405440298569,1.3005432075128642,3.2624277892639992,-0.4622101456414764,1.2692103869979836,3.220151942944809,0,5.5669601611619495,3.133282051488062,4.227584631919035,7.660350753730505,0,1,3,ok,190,80,248379.0,49,70.0,0,0,0,0,0,0
1778083909.228089,3.883043050765991,hover_at_wp,1,front-left,-0.4065405440298569,1.3005432075128642,3.2624277892639992,-0.23377236535062706,1.063735192337595,3.305465890771979,0,-17.276817867922983,23.680801517526916,-4.303810150797993,29.62754761987566,-30,30,30,ok,194,80,248379.0,49,70.0,0,0,0,0,0,0
1778083909.3019478,3.956901788711548,hover_at_wp,1,front-left,-0.4065405440298569,1.3005432075128642,3.2624277892639992,-0.23377236535062706,1.063735192337595,3.305465890771979,0,-17.276817867922983,23.680801517526916,-4.303810150797993,29.62754761987566,-13,6,18,ok,197,80,248379.0,49,70.0,0,0,0,0,0,0
1778083909.3757162,4.030670166015625,hover_at_wp,1,front-left,-0.4065405440298569,1.3005432075128642,3.2624277892639992,-0.23377236535062706,1.063735192337595,3.305465890771979,0,-17.276817867922983,23.680801517526916,-4.303810150797993,29.62754761987566,-13,6,18,ok,201,80,248369.0,49,70.0,0,0,0,0,0,0
1778083909.452831,4.107784986495972,hover_at_wp,1,front-left,-0.4065405440298569,1.3005432075128642,3.2624277892639992,-0.23377236535062706,1.063735192337595,3.305465890771979,0,-17.276817867922983,23.680801517526916,-4.303810150797993,29.62754761987566,-13,6,18,ok,205,80,248376.00000000003,49,70.0,0,0,0,0,0,0
1778083909.5272791,4.182233095169067,hover_at_wp,1,front-left,-0.4065405440298569,1.3005432075128642,3.2624277892639992,-0.45191535370300895,1.2140611692284176,3.239184829328681,0,4.537480967315205,8.648203828444668,2.324295993531811,10.039049499460633,30,-19,-30,ok,209,80,248366.0,49,70.0,-1,-1,0,0,0,0
1778083909.600051,4.2550048828125,hover_at_wp,1,front-left,-0.4065405440298569,1.3005432075128642,3.2624277892639992,-0.2683014856817611,1.2809916239700923,3.2235791399525833,0,-13.82390583480958,1.9551583542771978,3.884864931141596,14.49190091924438,-30,-3,-19,ok,212,80,248366.0,49,70.0,-1,-1,0,0,0,0
1778083909.672386,4.3273398876190186,hover_at_wp,1,front-left,-0.4065405440298569,1.3005432075128642,3.2624277892639992,-0.4287272935487765,1.1476757474452144,3.24799515279246,0,2.218674951891958,15.286746006764984,1.443263647153925,15.514191309014274,30,11,30,ok,216,80,248371.0,49,70.0,-2,-2,0,0,0,0
1778083909.74398,4.3989338874816895,hover_at_wp,1,front-left,-0.4065405440298569,1.3005432075128642,3.2624277892639992,-0.44648077917230095,1.2041902220861749,3.21726664359389,0,3.9940235142444047,9.635298542668934,4.516114567010909,11.366023606392144,5,-9,-10,ok,219,80,248371.99999999997,49,70.0,-2,-2,0,0,-1,0
1778083909.814374,4.469327926635742,hover_at_wp,1,front-left,-0.4065405440298569,1.3005432075128642,3.2624277892639992,-0.4528558044651023,1.2165731862274431,3.226769845078921,0,4.631526043524542,8.397002128542109,3.565794418507817,10.231107861500059,1,5,3,ok,223,80,248365.0,49,70.5,-1,-1,0,1,-1,0
1778083909.8872151,4.542169094085693,hover_at_wp,1,front-left,-0.4065405440298569,1.3005432075128642,3.2624277892639992,-0.4170870149859358,1.2895046305943516,3.205227518164773,0,1.0546470956078913,1.1038576918512621,5.72002710992261,5.920261179912839,-15,-6,-22,ok,227,80,248365.0,49,70.5,-1,-1,0,1,-1,0
1778083909.959114,4.614068031311035,hover_at_wp,1,front-left,-0.4065405440298569,1.3005432075128642,3.2624277892639992,-0.4965912262815712,1.6013271244651035,3.321523524832223,0,9.005068225171431,-30.078391695223928,-5.909573556822378,31.94877087361581,29,30,-30,ok,230,80,248366.0,49,70.5,0,0,0,0,-1,0
1778083910.030375,4.685328960418701,hover_at_wp,1,front-left,-0.4065405440298569,1.3005432075128642,3.2624277892639992,-0.37633822080805324,1.468310417228904,3.039149431086064,0,-3.020232322180366,-16.776720971603986,22.32783581779354,28.091144906275073,-30,-30,30,ok,234,90,248369.99999999997,49,70.5,0,0,0,0,-1,0
1778083910.100553,4.755506992340088,hover_at_wp,1,front-left,-0.4065405440298569,1.3005432075128642,3.2624277892639992,-0.5304208186990993,1.276711318416619,3.1443364757549657,0,12.388027466924239,2.383188909624523,11.809131350903357,17.279999917914214,30,30,30,ok,237,90,248369.99999999997,49,70.5,0,0,0,0,-1,0
1778083910.1693969,4.824350833892822,hover_at_wp,1,front-left,-0.4065405440298569,1.3005432075128642,3.2624277892639992,-0.5892127655580657,1.2602576226986706,3.1323362305362865,0,18.267222152820878,4.028558481419364,13.009155872771272,22.785057058098076,29,-8,10,ok,241,90,248375.0,49,70.5,0,0,0,0,-1,0
1778083910.23866,4.893614053726196,hover_at_wp,1,front-left,-0.4065405440298569,1.3005432075128642,3.2624277892639992,-0.5950830861105723,1.2577792067064024,3.1347685504130816,0,18.854254208071534,4.276400080646181,12.765923885091768,23.16763501163402,10,-3,5,ok,244,80,248371.99999999997,49,70.5,0,0,0,0,0,0
1778083910.3086011,4.963555097579956,hover_at_wp,1,front-left,-0.4065405440298569,1.3005432075128642,3.2624277892639992,-0.5706550626285689,1.3521465700681508,3.094964551030573,0,16.4114518598712,-5.1603362555286525,16.7463238233426,24.008419023651793,-1,-20,-30,ok,248,80,248371.99999999997,49,70.5,0,0,0,0,0,0
1778083910.379422,5.034375905990601,hover_at_wp,1,front-left,-0.4065405440298569,1.3005432075128642,3.2624277892639992,-0.5658977574339001,1.2992055359040742,3.1181212152542432,0,15.935721340404324,0.13376716087900586,14.4306574009756,21.49904605596907,5,2,20,ok,251,80,248369.0,49,70.5,0,0,0,0,0,0
1778083910.4492831,5.104237079620361,hover_at_wp,1,front-left,-0.4065405440298569,1.3005432075128642,3.2624277892639992,-0.6122697186210413,1.2831250340560667,3.1056310023148614,0,20.57291745911844,1.7418173456797525,15.679678694913779,25.925492944612337,26,-10,9,ok,255,80,248369.0,49,70.5,0,0,0,0,0,0
1778083910.521426,5.176379919052124,hover_at_wp,1,front-left,-0.4065405440298569,1.3005432075128642,3.2624277892639992,-0.7119798928195071,1.2164279733594685,3.09740444428765,0,30.543934878965022,8.411523415339573,16.50233449763494,35.721320355343735,30,-9,30,ok,258,80,248371.99999999997,49,70.5,0,1,0,0,0,0
1778083910.594047,5.2490010261535645,hover_at_wp,1,front-left,-0.4065405440298569,1.3005432075128642,3.2624277892639992,-0.6253919801883263,1.3208805857976027,3.0815317437362753,0,21.885143615846943,-2.033737828473847,18.0896045527724,28.46628520753798,-19,-13,-30,ok,262,80,248369.0,49,70.5,0,1,0,0,0,0
1778083910.667146,5.322099924087524,hover_at_wp,1,front-left,-0.4065405440298569,1.3005432075128642,3.2624277892639992,-0.5362521641968415,1.3467373457432443,3.0968171967135882,0,12.971162016698463,-4.61941382303801,16.5610592550411,21.537379408388986,-25,-1,-10,ok,266,80,248369.0,49,70.5,0,1,0,0,0,0
1778083910.7371562,5.392110109329224,hover_at_wp,1,front-left,-0.4065405440298569,1.3005432075128642,3.2624277892639992,-0.6663413435682559,1.2208780101178722,3.106722836488949,0,25.9800799538399,7.9665197394992004,15.570495277505003,31.31884918630552,30,-2,30,ok,269,80,248369.0,49,70.5,0,1,0,0,0,0
1778083910.8090072,5.463961124420166,hover_at_wp,1,front-left,-0.4065405440298569,1.3005432075128642,3.2624277892639992,-0.6230591710463893,1.2698145655108002,3.0882466284220422,0,21.65186270165324,3.0728642002064044,17.418116084195702,27.957761369012896,-4,-14,-12,ok,273,80,248371.0,48,70.5,0,1,0,0,0,0
1778083910.881074,5.536027908325195,hover_at_wp,1,front-left,-0.4065405440298569,1.3005432075128642,3.2624277892639992,-0.6230591710463893,1.2698145655108002,3.0882466284220422,0,21.65186270165324,3.0728642002064044,17.418116084195702,27.957761369012896,11,-7,4,ok,276,80,248362.0,48,70.5,0,1,0,0,0,0
1778083910.9522262,5.607180118560791,hover_at_wp,1,front-left,-0.4065405440298569,1.3005432075128642,3.2624277892639992,-0.576404729609919,1.2829768398808876,3.1037599216365668,0,16.986418558006207,1.756636763197661,15.866786762743246,23.310493566631305,-8,-1,-1,ok,280,80,248380.00000000003,48,70.5,0,1,0,0,0,0
1778083911.0224378,5.677391767501831,hover_at_wp,1,front-left,-0.4065405440298569,1.3005432075128642,3.2624277892639992,-0.6241267510574082,1.2715783414322122,3.08760196155104,0,21.75862070275513,2.8964866080652074,17.48258277129593,28.06185863253321,28,-13,8,ok,283,80,248380.00000000003,48,70.5,0,1,0,0,0,0
1778083911.095024,5.749978065490723,hover_at_wp,1,front-left,-0.4065405440298569,1.3005432075128642,3.2624277892639992,-0.6241267510574082,1.2715783414322122,3.08760196155104,0,21.75862070275513,2.8964866080652074,17.48258277129593,28.06185863253321,11,-8,4,ok,287,80,248380.00000000003,48,70.5,0,1,0,0,0,0
1778083911.166005,5.820958852767944,hover_at_wp,1,front-left,-0.4065405440298569,1.3005432075128642,3.2624277892639992,-0.6676592743935151,1.2675674840645885,3.079099913568866,0,26.111873036365825,3.2975723448275707,18.332787569513307,32.074834323898884,29,-11,5,ok,291,80,248371.99999999997,48,70.5,0,1,0,0,0,0
1778083911.238024,5.892977952957153,hover_at_wp,1,front-left,-0.4065405440298569,1.3005432075128642,3.2624277892639992,-0.6557836679634131,1.22718738820075,3.09124715182847,0,24.924312393355624,7.335581931211421,17.118063743552938,31.11366607906304,9,-3,21,ok,294,80,248371.0,48,70.5,0,0,0,0,0,0
1778083911.3071759,5.962129831314087,hover_at_wp,1,front-left,-0.4065405440298569,1.3005432075128642,3.2624277892639992,-0.5628266662534451,1.2968451851732765,3.0935504125421835,0,15.628612222358823,0.36980223395877143,16.88773767218157,23.01273467829334,-25,-7,-22,ok,298,80,248371.99999999997,48,70.5,0,0,0,0,0,0
1778083911.377493,6.03244686126709,hover_at_wp,1,front-left,-0.4065405440298569,1.3005432075128642,3.2624277892639992,-0.5591483027072989,1.301420238398289,3.091818402185562,0,15.260775867744197,-0.08770308854246789,17.06093870784371,22.89049150870429,6,-8,0,ok,301,80,248371.99999999997,48,70.5,0,0,0,0,0,0
1778083911.448725,6.103678941726685,hover_at_wp,1,front-left,-0.4065405440298569,1.3005432075128642,3.2624277892639992,-0.608284042869559,1.2877298421020547,3.088365021663609,0,20.174349883970205,1.2813365410809574,17.406276760039006,26.676294480670137,28,-9,8,ok,305,80,248375.0,48,70.5,0,0,0,0,0,0
1778083911.519875,6.174829006195068,hover_at_wp,1,front-left,-0.4065405440298569,1.3005432075128642,3.2624277892639992,-0.608284042869559,1.2877298421020547,3.088365021663609,0,20.174349883970205,1.2813365410809574,17.406276760039006,26.676294480670137,11,-8,3,ok,308,80,248375.0,48,70.5,0,0,0,0,0,0
1778083911.591279,6.246232986450195,hover_at_wp,1,front-left,-0.4065405440298569,1.3005432075128642,3.2624277892639992,-0.5981636163292712,1.2933985780285204,3.0851550396880087,0,19.162307229941426,0.7144629484343801,17.72727495759905,26.11437828288603,7,-9,0,ok,312,80,248378.00000000003,48,70.5,0,0,0,0,0,0
1778083911.661185,6.316138982772827,hover_at_wp,1,front-left,-0.4065405440298569,1.3005432075128642,3.2624277892639992,-0.548067716529575,1.306456452110746,3.098798421934838,0,14.152717249971808,-0.5913244597881784,16.36293673291611,21.642429824301352,-10,-3,-2,ok,315,80,248378.00000000003,48,70.5,0,0,0,0,0,0
1778083911.731009,6.385962963104248,hover_at_wp,1,front-left,-0.4065405440298569,1.3005432075128642,3.2624277892639992,-0.5858507392354082,1.2512749713867959,3.110775961565017,0,17.93101952055513,4.926823612606834,15.165182769898244,23.9953708119022,23,-3,25,ok,319,80,248373.0,48,70.5,0,-1,0,0,0,0
1778083911.802655,6.457608938217163,nav,2,front-right,0.19345945597014308,1.3005432075128642,3.2624277892639992,,,,,,,,,0,0,0,lost,322,80,248373.0,48,70.5,0,-1,0,0,0,0
1778083911.874627,6.529581069946289,nav,2,front-right,0.19345945597014308,1.3005432075128642,3.2624277892639992,,,,,,,,,0,0,0,lost,326,80,248379.0,48,70.0,0,0,0,0,0,0
1778083911.945621,6.600574970245361,nav,2,front-right,0.19345945597014308,1.3005432075128642,3.2624277892639992,,,,,,,,,0,0,0,lost,330,80,248373.0,48,70.0,0,0,0,0,0,0
1778083912.016524,6.671478033065796,nav,2,front-right,0.19345945597014308,1.3005432075128642,3.2624277892639992,,,,,,,,,0,0,0,lost,333,80,248373.0,48,70.0,0,0,0,0,0,0
1778083912.088369,6.743322849273682,nav,2,front-right,0.19345945597014308,1.3005432075128642,3.2624277892639992,,,,,,,,,0,0,0,lost,337,80,248367.0,48,70.0,0,0,0,0,0,0
1778083912.1610749,6.816028833389282,nav,2,front-right,0.19345945597014308,1.3005432075128642,3.2624277892639992,,,,,,,,,0,0,0,lost,340,80,248367.0,48,70.0,0,0,0,0,0,0
1778083912.233195,6.88814902305603,nav,2,front-right,0.19345945597014308,1.3005432075128642,3.2624277892639992,,,,,,,,,0,0,0,lost,344,80,248363.0,48,70.0,0,0,0,0,0,0
1778083912.303711,6.958664894104004,nav,2,front-right,0.19345945597014308,1.3005432075128642,3.2624277892639992,,,,,,,,,0,0,0,lost,347,80,248365.0,48,70.0,0,0,0,0,0,0
1778083912.37437,7.029324054718018,nav,2,front-right,0.19345945597014308,1.3005432075128642,3.2624277892639992,,,,,,,,,0,0,0,lost,351,80,248365.0,48,70.0,0,0,0,0,0,0
1778083912.445937,7.100890874862671,nav,2,front-right,0.19345945597014308,1.3005432075128642,3.2624277892639992,,,,,,,,,0,0,0,lost,355,80,248365.0,48,70.0,0,0,0,0,0,0
1778083912.518448,7.1734020709991455,nav,2,front-right,0.19345945597014308,1.3005432075128642,3.2624277892639992,,,,,,,,,0,0,0,lost,358,80,248377.0,48,70.0,0,0,0,0,0,0
1778083912.589539,7.244493007659912,nav,2,front-right,0.19345945597014308,1.3005432075128642,3.2624277892639992,,,,,,,,,0,0,0,lost,362,80,248377.0,48,70.0,0,0,0,0,0,0
1778083912.660078,7.315032005310059,nav,2,front-right,0.19345945597014308,1.3005432075128642,3.2624277892639992,,,,,,,,,0,0,0,lost,365,80,248371.0,48,70.0,-1,0,0,0,0,0
1778083912.730187,7.385140895843506,nav,2,front-right,0.19345945597014308,1.3005432075128642,3.2624277892639992,,,,,,,,,0,0,0,lost,369,80,248376.00000000003,47,70.0,0,0,0,0,0,0
1778083912.801143,7.456096887588501,nav,2,front-right,0.19345945597014308,1.3005432075128642,3.2624277892639992,,,,,,,,,0,0,0,lost,372,80,248376.00000000003,47,70.0,0,0,0,0,0,0
1778083912.872419,7.5273730754852295,nav,2,front-right,0.19345945597014308,1.3005432075128642,3.2624277892639992,,,,,,,,,0,0,0,lost,376,80,248371.0,47,71.0,0,0,0,0,0,0
1778083912.944324,7.599277973175049,nav,2,front-right,0.19345945597014308,1.3005432075128642,3.2624277892639992,,,,,,,,,0,0,0,lost,379,80,248371.0,47,71.0,0,0,0,0,0,0
1778083913.0157492,7.670703172683716,nav,2,front-right,0.19345945597014308,1.3005432075128642,3.2624277892639992,,,,,,,,,0,0,0,lost,383,80,248369.99999999997,47,71.0,0,0,0,0,0,0
1778083913.0859709,7.740924835205078,nav,2,front-right,0.19345945597014308,1.3005432075128642,3.2624277892639992,,,,,,,,,0,0,0,lost,387,80,248371.99999999997,47,71.0,0,0,0,0,0,0
1778083913.1562471,7.811201095581055,nav,2,front-right,0.19345945597014308,1.3005432075128642,3.2624277892639992,,,,,,,,,0,0,0,lost,390,80,248371.99999999997,47,71.0,0,0,0,0,0,0
1778083913.227246,7.882200002670288,nav,2,front-right,0.19345945597014308,1.3005432075128642,3.2624277892639992,,,,,,,,,0,0,0,lost,394,80,248371.99999999997,47,71.0,0,0,0,0,0,0
1778083913.2969532,7.951907157897949,nav,2,front-right,0.19345945597014308,1.3005432075128642,3.2624277892639992,,,,,,,,,0,0,0,lost,397,80,248367.99999999997,47,71.0,0,0,0,0,0,0
1778083913.3683891,8.023343086242676,nav,2,front-right,0.19345945597014308,1.3005432075128642,3.2624277892639992,,,,,,,,,0,0,0,lost,401,80,248376.00000000003,47,71.0,0,0,0,0,0,0
1778083913.4376981,8.092652082443237,nav,2,front-right,0.19345945597014308,1.3005432075128642,3.2624277892639992,,,,,,,,,0,0,0,lost,404,80,248371.0,47,71.0,0,0,0,0,0,0
1778083913.510452,8.165405988693237,nav,2,front-right,0.19345945597014308,1.3005432075128642,3.2624277892639992,,,,,,,,,0,0,0,lost,408,80,248367.0,47,71.0,0,0,0,0,0,0
1778083913.5824928,8.237446784973145,nav,2,front-right,0.19345945597014308,1.3005432075128642,3.2624277892639992,,,,,,,,,0,0,0,lost,411,80,248367.0,47,71.0,0,0,0,0,0,0
1778083913.653683,8.308636903762817,nav,2,front-right,0.19345945597014308,1.3005432075128642,3.2624277892639992,,,,,,,,,0,0,0,lost,415,80,248371.0,47,71.0,0,0,0,0,0,0
1778083913.7252622,8.380216121673584,nav,2,front-right,0.19345945597014308,1.3005432075128642,3.2624277892639992,,,,,,,,,0,0,0,lost,418,80,248378.00000000003,47,71.0,0,0,0,0,0,0
1778083913.797188,8.452142000198364,nav,2,front-right,0.19345945597014308,1.3005432075128642,3.2624277892639992,,,,,,,,,0,0,0,lost,422,80,248378.00000000003,47,71.0,0,0,0,0,0,0
1778083913.867053,8.52200698852539,nav,2,front-right,0.19345945597014308,1.3005432075128642,3.2624277892639992,,,,,,,,,0,0,0,lost,426,80,248369.99999999997,47,70.5,0,0,0,0,0,0
1778083913.938528,8.59348201751709,nav,2,front-right,0.19345945597014308,1.3005432075128642,3.2624277892639992,,,,,,,,,0,0,0,lost,429,80,248369.99999999997,47,70.5,0,0,0,0,0,0
1778083914.010188,8.665142059326172,nav,2,front-right,0.19345945597014308,1.3005432075128642,3.2624277892639992,,,,,,,,,0,0,0,lost,433,80,248367.0,47,70.5,0,0,0,0,0,0
1778083914.080779,8.735733032226562,nav,2,front-right,0.19345945597014308,1.3005432075128642,3.2624277892639992,,,,,,,,,0,0,0,lost,436,80,248377.0,47,70.5,0,0,0,0,0,0
1778083914.1506639,8.805617809295654,nav,2,front-right,0.19345945597014308,1.3005432075128642,3.2624277892639992,,,,,,,,,0,0,0,lost,440,80,248366.0,47,70.5,0,0,0,0,0,0
1778083914.2220328,8.876986742019653,nav,2,front-right,0.19345945597014308,1.3005432075128642,3.2624277892639992,,,,,,,,,0,0,0,lost,443,80,248352.0,47,70.5,0,0,0,0,0,0
1778083914.29267,8.94762396812439,nav,2,front-right,0.19345945597014308,1.3005432075128642,3.2624277892639992,,,,,,,,,0,0,0,lost,447,80,248352.0,47,70.5,0,0,0,0,0,0
1778083914.362591,9.017544984817505,nav,2,front-right,0.19345945597014308,1.3005432075128642,3.2624277892639992,,,,,,,,,0,0,0,lost,450,80,248373.99999999997,47,70.5,0,0,0,0,0,0
1778083914.431575,9.086529016494751,nav,2,front-right,0.19345945597014308,1.3005432075128642,3.2624277892639992,,,,,,,,,0,0,0,lost,454,80,248371.99999999997,47,70.5,0,0,0,0,0,0
1778083914.50105,9.156003952026367,nav,2,front-right,0.19345945597014308,1.3005432075128642,3.2624277892639992,,,,,,,,,0,0,0,lost,457,80,248371.99999999997,47,70.5,0,0,0,0,0,0
1778083914.570237,9.225190877914429,nav,2,front-right,0.19345945597014308,1.3005432075128642,3.2624277892639992,,,,,,,,,0,0,0,lost,461,80,248375.0,47,70.5,0,0,0,0,0,0
1778083914.639939,9.294893026351929,nav,2,front-right,0.19345945597014308,1.3005432075128642,3.2624277892639992,,,,,,,,,0,0,0,lost,464,80,248362.0,47,70.5,0,0,0,0,0,0
1778083914.7107809,9.365734815597534,nav,2,front-right,0.19345945597014308,1.3005432075128642,3.2624277892639992,,,,,,,,,0,0,0,lost,468,80,248362.0,47,70.5,0,0,0,0,0,0
1778083914.780324,9.435277938842773,nav,2,front-right,0.19345945597014308,1.3005432075128642,3.2624277892639992,,,,,,,,,0,0,0,lost,471,80,248363.0,46,70.5,0,0,0,0,0,0
1778083914.8566048,9.511558771133423,nav,2,front-right,0.19345945597014308,1.3005432075128642,3.2624277892639992,,,,,,,,,0,0,0,lost,475,80,248363.0,46,70.5,0,0,0,0,0,0
1778083914.9295309,9.584484815597534,nav,2,front-right,0.19345945597014308,1.3005432075128642,3.2624277892639992,,,,,,,,,0,0,0,lost,479,80,248363.0,46,70.5,0,0,0,0,0,0
1778083915.0043242,9.659278154373169,nav,2,front-right,0.19345945597014308,1.3005432075128642,3.2624277892639992,,,,,,,,,0,0,0,lost,482,80,248363.0,46,70.5,0,0,0,0,0,0
1778083915.080781,9.735734939575195,nav,2,front-right,0.19345945597014308,1.3005432075128642,3.2624277892639992,,,,,,,,,0,0,0,lost,486,80,248371.99999999997,46,70.0,0,0,0,0,0,0
1778083915.15556,9.810513973236084,nav,2,front-right,0.19345945597014308,1.3005432075128642,3.2624277892639992,,,,,,,,,0,0,0,lost,490,80,248369.99999999997,46,70.0,0,0,0,0,0,0
1778083915.231266,9.88621997833252,nav,2,front-right,0.19345945597014308,1.3005432075128642,3.2624277892639992,,,,,,,,,0,0,0,lost,494,80,248377.0,46,70.0,0,0,0,0,0,0
1778083915.3088288,9.963782787322998,nav,2,front-right,0.19345945597014308,1.3005432075128642,3.2624277892639992,,,,,,,,,0,0,0,lost,497,80,248377.0,46,70.0,0,0,0,0,0,0
1778083915.381043,10.035996913909912,nav,2,front-right,0.19345945597014308,1.3005432075128642,3.2624277892639992,,,,,,,,,0,0,0,lost,501,80,248369.99999999997,46,70.0,0,0,0,0,0,0
1778083915.4553869,10.11034083366394,nav,2,front-right,0.19345945597014308,1.3005432075128642,3.2624277892639992,,,,,,,,,0,0,0,lost,505,80,248366.0,46,70.0,0,0,0,0,0,0
1778083915.530276,10.185230016708374,nav,2,front-right,0.19345945597014308,1.3005432075128642,3.2624277892639992,,,,,,,,,0,0,0,lost,509,80,248366.0,46,70.0,0,0,0,0,0,0
1778083915.604362,10.259315967559814,nav,2,front-right,0.19345945597014308,1.3005432075128642,3.2624277892639992,,,,,,,,,0,0,0,lost,512,80,248362.0,46,70.0,0,0,0,0,0,0
1778083915.677674,10.332628011703491,nav,2,front-right,0.19345945597014308,1.3005432075128642,3.2624277892639992,,,,,,,,,0,0,0,lost,516,80,248362.0,46,70.0,0,0,0,0,0,0
1778083915.7525408,10.40749478340149,nav,2,front-right,0.19345945597014308,1.3005432075128642,3.2624277892639992,,,,,,,,,0,0,0,lost,520,80,248362.0,46,70.0,0,0,0,0,0,0
1778083915.8367832,10.491737127304077,nav,2,front-right,0.19345945597014308,1.3005432075128642,3.2624277892639992,,,,,,,,,0,0,0,lost,524,80,248367.0,46,70.0,0,0,0,0,0,0
1778083915.912228,10.567182064056396,nav,2,front-right,0.19345945597014308,1.3005432075128642,3.2624277892639992,,,,,,,,,0,0,0,lost,528,80,248376.00000000003,46,70.0,0,0,0,0,0,0
1778083915.985038,10.639991998672485,nav,2,front-right,0.19345945597014308,1.3005432075128642,3.2624277892639992,,,,,,,,,0,0,0,lost,531,80,248364.0,46,70.5,0,0,0,0,0,0
1778083916.0557702,10.710724115371704,nav,2,front-right,0.19345945597014308,1.3005432075128642,3.2624277892639992,,,,,,,,,0,0,0,lost,535,80,248364.0,46,70.5,0,0,0,0,0,0
1778083916.1267872,10.78174114227295,nav,2,front-right,0.19345945597014308,1.3005432075128642,3.2624277892639992,,,,,,,,,0,0,0,lost,539,80,248364.0,46,70.5,0,0,0,0,0,0
1778083916.1986299,10.853583812713623,nav,2,front-right,0.19345945597014308,1.3005432075128642,3.2624277892639992,,,,,,,,,0,0,0,lost,542,80,248364.0,46,70.5,0,0,0,0,0,0
1778083916.270143,10.925096988677979,nav,2,front-right,0.19345945597014308,1.3005432075128642,3.2624277892639992,,,,,,,,,0,0,0,lost,546,80,248364.0,46,70.5,0,0,0,0,0,0
1778083916.3420422,10.9969961643219,nav,2,front-right,0.19345945597014308,1.3005432075128642,3.2624277892639992,,,,,,,,,0,0,0,lost,549,80,248364.0,46,70.5,0,0,0,0,0,0
1778083916.410879,11.06583285331726,nav,2,front-right,0.19345945597014308,1.3005432075128642,3.2624277892639992,,,,,,,,,0,0,0,lost,553,80,248371.0,46,70.5,0,0,0,0,0,0
1778083916.477891,11.132844924926758,nav,2,front-right,0.19345945597014308,1.3005432075128642,3.2624277892639992,,,,,,,,,0,0,0,lost,556,80,248362.0,46,70.5,0,0,0,0,0,0
1778083916.546765,11.201719045639038,nav,2,front-right,0.19345945597014308,1.3005432075128642,3.2624277892639992,,,,,,,,,0,0,0,lost,560,80,248362.0,46,70.5,0,0,0,0,0,0
1778083916.6143968,11.26935076713562,nav,2,front-right,0.19345945597014308,1.3005432075128642,3.2624277892639992,,,,,,,,,0,0,0,lost,563,80,248367.0,46,70.5,0,0,0,0,0,0
1778083916.68249,11.337444067001343,nav,2,front-right,0.19345945597014308,1.3005432075128642,3.2624277892639992,,,,,,,,,0,0,0,lost,566,80,248366.0,46,70.5,0,0,0,0,0,0
1778083916.7512,11.406153917312622,nav,2,front-right,0.19345945597014308,1.3005432075128642,3.2624277892639992,,,,,,,,,0,0,0,lost,570,80,248366.0,45,70.5,0,0,0,0,0,0
1778083916.8217359,11.47668981552124,nav,2,front-right,0.19345945597014308,1.3005432075128642,3.2624277892639992,,,,,,,,,0,0,0,lost,573,80,248366.0,45,70.5,0,0,0,0,0,0
1778083916.893409,11.548362970352173,nav,2,front-right,0.19345945597014308,1.3005432075128642,3.2624277892639992,,,,,,,,,0,0,0,lost,577,80,248362.0,45,70.0,0,0,0,0,0,0
1778083916.967828,11.622781991958618,nav,2,front-right,0.19345945597014308,1.3005432075128642,3.2624277892639992,,,,,,,,,0,0,0,lost,581,80,248362.0,45,70.0,0,0,0,0,0,0
1778083917.042707,11.69766092300415,nav,2,front-right,0.19345945597014308,1.3005432075128642,3.2624277892639992,,,,,,,,,0,0,0,lost,584,80,248362.0,45,70.0,0,0,0,0,0,0
1778083917.114132,11.769085884094238,nav,2,front-right,0.19345945597014308,1.3005432075128642,3.2624277892639992,,,,,,,,,0,0,0,lost,588,80,248373.99999999997,45,70.0,0,0,0,0,0,0
1778083917.184206,11.839159965515137,nav,2,front-right,0.19345945597014308,1.3005432075128642,3.2624277892639992,,,,,,,,,0,0,0,lost,591,80,248375.0,45,70.0,0,0,0,0,0,0
1778083917.254602,11.909555912017822,nav,2,front-right,0.19345945597014308,1.3005432075128642,3.2624277892639992,,,,,,,,,0,0,0,lost,595,80,248375.0,45,70.0,0,0,0,0,0,0
1778083917.325052,11.980005979537964,nav,2,front-right,0.19345945597014308,1.3005432075128642,3.2624277892639992,,,,,,,,,0,0,0,lost,598,80,248360.0,45,70.0,0,0,0,0,0,0
1778083917.401412,12.056365966796875,nav,2,front-right,0.19345945597014308,1.3005432075128642,3.2624277892639992,,,,,,,,,0,0,0,lost,602,80,248360.0,45,70.0,0,0,0,0,0,0
1778083917.472527,12.12748098373413,nav,2,front-right,0.19345945597014308,1.3005432075128642,3.2624277892639992,,,,,,,,,0,0,0,lost,606,80,248355.00000000003,45,70.0,0,0,0,0,0,0
1778083917.543682,12.198636054992676,nav,2,front-right,0.19345945597014308,1.3005432075128642,3.2624277892639992,,,,,,,,,0,0,0,lost,609,80,248355.00000000003,45,70.0,0,0,0,0,0,0
1778083917.615368,12.2703218460083,nav,2,front-right,0.19345945597014308,1.3005432075128642,3.2624277892639992,,,,,,,,,0,0,0,lost,613,80,248360.0,45,70.0,0,0,0,0,0,0
1778083917.685472,12.340425968170166,nav,2,front-right,0.19345945597014308,1.3005432075128642,3.2624277892639992,,,,,,,,,0,0,0,lost,617,80,248352.0,45,70.0,0,0,0,0,0,0
1778083917.757204,12.412158012390137,nav,2,front-right,0.19345945597014308,1.3005432075128642,3.2624277892639992,,,,,,,,,0,0,0,lost,620,80,248355.00000000003,45,70.0,0,0,0,0,0,0
1778083917.827879,12.482832908630371,nav,2,front-right,0.19345945597014308,1.3005432075128642,3.2624277892639992,,,,,,,,,0,0,0,lost,624,80,248360.0,45,70.5,0,0,0,0,0,0
1778083917.899364,12.554317951202393,nav,2,front-right,0.19345945597014308,1.3005432075128642,3.2624277892639992,,,,,,,,,0,0,0,lost,627,80,248360.0,45,70.5,0,0,0,0,0,0
1778083917.971275,12.626229047775269,nav,2,front-right,0.19345945597014308,1.3005432075128642,3.2624277892639992,,,,,,,,,0,0,0,lost,631,80,248366.0,45,70.5,0,0,0,0,0,0
1778083918.04404,12.698993921279907,nav,2,front-right,0.19345945597014308,1.3005432075128642,3.2624277892639992,,,,,,,,,0,0,0,lost,634,80,248366.0,45,70.5,0,0,0,0,0,0
1778083918.1166348,12.771588802337646,nav,2,front-right,0.19345945597014308,1.3005432075128642,3.2624277892639992,,,,,,,,,0,0,0,lost,638,80,248363.0,45,70.5,0,0,0,0,0,0
1778083918.1876302,12.842584133148193,nav,2,front-right,0.19345945597014308,1.3005432075128642,3.2624277892639992,,,,,,,,,0,0,0,lost,642,80,248364.0,45,70.5,0,0,0,0,0,0
1778083918.258703,12.913656949996948,nav,2,front-right,0.19345945597014308,1.3005432075128642,3.2624277892639992,,,,,,,,,0,0,0,lost,645,80,248364.0,45,70.5,0,0,0,0,0,0
1778083918.3295732,12.984527111053467,nav,2,front-right,0.19345945597014308,1.3005432075128642,3.2624277892639992,,,,,,,,,0,0,0,lost,649,80,248364.0,45,70.5,0,0,0,0,0,0
1778083918.398159,13.053112983703613,nav,2,front-right,0.19345945597014308,1.3005432075128642,3.2624277892639992,,,,,,,,,0,0,0,lost,652,80,248356.0,45,70.5,0,0,0,0,0,0
1778083918.4688342,13.123788118362427,nav,2,front-right,0.19345945597014308,1.3005432075128642,3.2624277892639992,,,,,,,,,0,0,0,lost,656,80,248363.0,45,70.5,0,0,0,0,0,0
1778083918.5415711,13.19652509689331,nav,2,front-right,0.19345945597014308,1.3005432075128642,3.2624277892639992,,,,,,,,,0,0,0,lost,659,80,248369.0,45,70.5,0,0,0,0,0,0
1778083918.6113951,13.266349077224731,nav,2,front-right,0.19345945597014308,1.3005432075128642,3.2624277892639992,,,,,,,,,0,0,0,lost,663,80,248369.0,45,70.5,0,0,0,0,0,0
1778083918.6807392,13.335693120956421,nav,2,front-right,0.19345945597014308,1.3005432075128642,3.2624277892639992,,,,,,,,,0,0,0,lost,666,80,248373.99999999997,44,70.5,0,0,0,0,0,0
1778083918.752705,13.40765905380249,nav,2,front-right,0.19345945597014308,1.3005432075128642,3.2624277892639992,,,,,,,,,0,0,0,lost,670,80,248366.0,44,70.5,0,0,0,0,0,0
1778083918.82114,13.476094007492065,nav,2,front-right,0.19345945597014308,1.3005432075128642,3.2624277892639992,,,,,,,,,0,0,0,lost,673,80,248366.0,44,70.5,0,0,0,0,0,0
1778083918.887962,13.542916059494019,nav,2,front-right,0.19345945597014308,1.3005432075128642,3.2624277892639992,,,,,,,,,0,0,0,lost,677,80,248366.0,44,70.0,0,0,0,0,0,0
1778083918.960004,13.614958047866821,nav,2,front-right,0.19345945597014308,1.3005432075128642,3.2624277892639992,,,,,,,,,0,0,0,lost,680,80,248367.99999999997,44,70.0,0,0,0,0,0,0
1778083919.032795,13.687748908996582,nav,2,front-right,0.19345945597014308,1.3005432075128642,3.2624277892639992,,,,,,,,,0,0,0,lost,684,80,248367.99999999997,44,70.0,0,0,0,0,0,0
1778083919.107157,13.762110948562622,nav,2,front-right,0.19345945597014308,1.3005432075128642,3.2624277892639992,,,,,,,,,0,0,0,lost,688,80,248367.99999999997,44,70.0,0,0,0,0,0,0
1778083919.1793249,13.83427882194519,nav,2,front-right,0.19345945597014308,1.3005432075128642,3.2624277892639992,,,,,,,,,0,0,0,lost,691,80,248367.99999999997,44,70.0,0,0,0,0,0,0
1778083919.252531,13.907485008239746,nav,2,front-right,0.19345945597014308,1.3005432075128642,3.2624277892639992,,,,,,,,,0,0,0,lost,695,80,248356.0,44,70.0,0,0,0,0,0,0
1778083919.324679,13.97963285446167,nav,2,front-right,0.19345945597014308,1.3005432075128642,3.2624277892639992,,,,,,,,,0,0,0,lost,698,80,248356.0,44,70.0,0,0,0,0,0,0
1778083919.395484,14.050437927246094,nav,2,front-right,0.19345945597014308,1.3005432075128642,3.2624277892639992,,,,,,,,,0,0,0,lost,702,80,248364.0,44,70.0,0,0,0,0,0,0
1778083919.467086,14.122040033340454,nav,2,front-right,0.19345945597014308,1.3005432075128642,3.2624277892639992,,,,,,,,,0,0,0,lost,706,80,248369.99999999997,44,70.0,0,0,0,0,0,0
1778083919.539632,14.194586038589478,nav,2,front-right,0.19345945597014308,1.3005432075128642,3.2624277892639992,,,,,,,,,0,0,0,lost,709,80,248369.99999999997,44,70.0,0,0,0,0,0,0
1778083919.611155,14.266108989715576,nav,2,front-right,0.19345945597014308,1.3005432075128642,3.2624277892639992,,,,,,,,,0,0,0,lost,713,80,248369.99999999997,44,70.0,0,0,0,0,0,0
1778083919.681061,14.336014986038208,nav,2,front-right,0.19345945597014308,1.3005432075128642,3.2624277892639992,,,,,,,,,0,0,0,lost,716,80,248363.0,44,70.0,0,0,0,0,0,0
1778083919.751538,14.406491994857788,nav,2,front-right,0.19345945597014308,1.3005432075128642,3.2624277892639992,,,,,,,,,0,0,0,lost,720,80,248363.0,44,70.0,0,0,0,0,0,0
1778083919.821268,14.476222038269043,nav,2,front-right,0.19345945597014308,1.3005432075128642,3.2624277892639992,,,,,,,,,0,0,0,lost,723,80,248363.0,44,70.0,0,0,0,0,0,0
1778083919.892365,14.547318935394287,nav,2,front-right,0.19345945597014308,1.3005432075128642,3.2624277892639992,,,,,,,,,0,0,0,lost,727,80,248363.0,44,69.5,0,0,0,0,0,0
1778083919.964834,14.61978793144226,nav,2,front-right,0.19345945597014308,1.3005432075128642,3.2624277892639992,,,,,,,,,0,0,0,lost,730,80,248366.0,44,69.5,0,0,0,0,0,0
1778083920.037171,14.692124843597412,nav,2,front-right,0.19345945597014308,1.3005432075128642,3.2624277892639992,,,,,,,,,0,0,0,lost,734,80,248366.0,44,69.5,0,0,0,0,0,0
1778083920.108602,14.763556003570557,nav,2,front-right,0.19345945597014308,1.3005432075128642,3.2624277892639992,,,,,,,,,0,0,0,lost,738,80,248366.0,44,69.5,0,0,0,0,0,0
1778083920.178977,14.833930969238281,nav,2,front-right,0.19345945597014308,1.3005432075128642,3.2624277892639992,,,,,,,,,0,0,0,lost,741,80,248367.99999999997,44,69.5,0,0,0,0,0,0
1778083920.248563,14.903517007827759,nav,2,front-right,0.19345945597014308,1.3005432075128642,3.2624277892639992,,,,,,,,,0,0,0,lost,745,80,248367.99999999997,44,69.5,0,0,0,0,0,0
1778083920.318371,14.97332501411438,nav,2,front-right,0.19345945597014308,1.3005432075128642,3.2624277892639992,,,,,,,,,0,0,0,lost,748,80,248367.0,44,69.5,0,0,0,0,0,0
1778083920.390046,15.044999837875366,nav,2,front-right,0.19345945597014308,1.3005432075128642,3.2624277892639992,,,,,,,,,0,0,0,lost,752,80,248361.0,44,69.5,0,0,0,0,0,0
1778083920.461055,15.116008996963501,nav,2,front-right,0.19345945597014308,1.3005432075128642,3.2624277892639992,,,,,,,,,0,0,0,lost,755,80,248361.0,44,69.5,0,0,0,0,0,0
1778083920.532209,15.18716287612915,nav,2,front-right,0.19345945597014308,1.3005432075128642,3.2624277892639992,,,,,,,,,0,0,0,lost,759,80,248366.0,44,69.5,0,0,0,0,0,0
1778083920.605599,15.260552883148193,nav,2,front-right,0.19345945597014308,1.3005432075128642,3.2624277892639992,,,,,,,,,0,0,0,lost,763,80,248361.0,44,69.5,0,0,0,0,0,0
1778083920.678292,15.333245992660522,nav,2,front-right,0.19345945597014308,1.3005432075128642,3.2624277892639992,,,,,,,,,0,0,0,lost,766,80,248366.0,43,69.5,0,0,0,0,0,0
1778083920.749753,15.404706954956055,nav,2,front-right,0.19345945597014308,1.3005432075128642,3.2624277892639992,,,,,,,,,0,0,0,lost,770,80,248366.0,43,69.5,0,0,0,0,0,0
1778083920.82131,15.476263999938965,nav,2,front-right,0.19345945597014308,1.3005432075128642,3.2624277892639992,,,,,,,,,0,0,0,lost,773,80,248361.0,43,69.5,0,0,0,0,0,0
1778083920.893335,15.548289060592651,nav,2,front-right,0.19345945597014308,1.3005432075128642,3.2624277892639992,,,,,,,,,0,0,0,lost,777,80,248361.0,43,70.0,0,0,0,0,0,0
1778083920.9646962,15.61965012550354,nav,2,front-right,0.19345945597014308,1.3005432075128642,3.2624277892639992,,,,,,,,,0,0,0,lost,780,80,248361.0,43,70.0,0,0,0,0,0,0
1778083921.036459,15.691412925720215,nav,2,front-right,0.19345945597014308,1.3005432075128642,3.2624277892639992,,,,,,,,,0,0,0,lost,784,80,248361.0,43,70.0,0,0,0,0,0,0
1778083921.1074262,15.762380123138428,nav,2,front-right,0.19345945597014308,1.3005432075128642,3.2624277892639992,,,,,,,,,0,0,0,lost,788,80,248367.0,43,70.0,0,0,0,0,0,0
1778083921.181269,15.836222887039185,nav,2,front-right,0.19345945597014308,1.3005432075128642,3.2624277892639992,,,,,,,,,0,0,0,lost,791,80,248367.0,43,70.0,0,0,0,0,0,0
1778083921.254171,15.909124851226807,nav,2,front-right,0.19345945597014308,1.3005432075128642,3.2624277892639992,,,,,,,,,0,0,0,lost,795,80,248367.0,43,70.0,0,0,0,0,0,0
1778083921.324687,15.97964096069336,nav,2,front-right,0.19345945597014308,1.3005432075128642,3.2624277892639992,,,,,,,,,0,0,0,lost,798,80,248367.0,43,70.0,0,0,0,0,0,0
1778083921.39595,16.050904035568237,nav,2,front-right,0.19345945597014308,1.3005432075128642,3.2624277892639992,,,,,,,,,0,0,0,lost,802,80,248367.0,43,70.0,0,0,0,0,0,0
1778083921.467814,16.12276792526245,nav,2,front-right,0.19345945597014308,1.3005432075128642,3.2624277892639992,,,,,,,,,0,0,0,lost,806,80,248367.99999999997,43,70.0,0,0,0,0,0,0
1778083921.541934,16.196887969970703,nav,2,front-right,0.19345945597014308,1.3005432075128642,3.2624277892639992,,,,,,,,,0,0,0,lost,809,80,248367.99999999997,43,70.0,0,0,0,0,0,0
1778083921.617782,16.272736072540283,nav,2,front-right,0.19345945597014308,1.3005432075128642,3.2624277892639992,,,,,,,,,0,0,0,lost,813,80,248367.99999999997,43,70.0,0,0,0,0,0,0
1778083921.692189,16.347142934799194,nav,2,front-right,0.19345945597014308,1.3005432075128642,3.2624277892639992,,,,,,,,,0,0,0,lost,817,80,248367.0,43,70.0,0,0,0,0,0,0
1778083921.767585,16.422538995742798,nav,2,front-right,0.19345945597014308,1.3005432075128642,3.2624277892639992,,,,,,,,,0,0,0,lost,821,80,248367.0,43,70.0,0,0,0,0,0,0
1778083921.838641,16.493594884872437,nav,2,front-right,0.19345945597014308,1.3005432075128642,3.2624277892639992,,,,,,,,,0,0,0,lost,824,80,248367.0,43,70.0,0,0,0,0,0,0
1778083921.9075,16.562453985214233,nav,2,front-right,0.19345945597014308,1.3005432075128642,3.2624277892639992,,,,,,,,,0,0,0,lost,828,80,248367.0,43,70.0,0,0,0,0,0,0
1778083921.976714,16.631667852401733,nav,2,front-right,0.19345945597014308,1.3005432075128642,3.2624277892639992,,,,,,,,,0,0,0,lost,831,80,248367.0,43,70.0,0,0,0,0,0,0
1778083922.053498,16.708451986312866,nav,2,front-right,0.19345945597014308,1.3005432075128642,3.2624277892639992,,,,,,,,,0,0,0,lost,835,80,248367.0,43,70.0,0,0,0,0,0,0
1778083922.125261,16.78021502494812,nav,2,front-right,0.19345945597014308,1.3005432075128642,3.2624277892639992,,,,,,,,,0,0,0,lost,838,80,248367.0,43,70.0,0,0,0,0,0,0
1778083922.1998599,16.854813814163208,nav,2,front-right,0.19345945597014308,1.3005432075128642,3.2624277892639992,,,,,,,,,0,0,0,lost,842,80,248367.0,43,70.0,0,0,0,0,0,0
1778083922.276342,16.93129587173462,nav,2,front-right,0.19345945597014308,1.3005432075128642,3.2624277892639992,,,,,,,,,0,0,0,lost,846,80,248367.0,43,70.0,0,0,0,0,0,0
1778083922.353036,17.00798988342285,nav,2,front-right,0.19345945597014308,1.3005432075128642,3.2624277892639992,,,,,,,,,0,0,0,lost,850,80,248367.0,43,70.0,0,0,0,0,0,0
1778083922.428651,17.08360505104065,nav,2,front-right,0.19345945597014308,1.3005432075128642,3.2624277892639992,,,,,,,,,0,0,0,lost,854,80,248367.0,43,70.0,0,0,0,0,0,0
1778083922.505506,17.160459995269775,nav,2,front-right,0.19345945597014308,1.3005432075128642,3.2624277892639992,,,,,,,,,0,0,0,lost,857,80,248367.0,43,70.0,0,0,0,0,0,0
1778083922.578849,17.233803033828735,nav,2,front-right,0.19345945597014308,1.3005432075128642,3.2624277892639992,,,,,,,,,0,0,0,lost,861,80,248367.0,43,70.0,0,0,0,0,0,0
1778083922.651527,17.306480884552002,nav,2,front-right,0.19345945597014308,1.3005432075128642,3.2624277892639992,,,,,,,,,0,0,0,lost,865,90,248363.0,43,70.5,0,0,0,0,0,0
1778083922.718657,17.373610973358154,nav,2,front-right,0.19345945597014308,1.3005432075128642,3.2624277892639992,,,,,,,,,0,0,0,lost,868,90,248371.99999999997,42,70.5,0,0,0,0,0,0
1778083922.78492,17.439873933792114,nav,2,front-right,0.19345945597014308,1.3005432075128642,3.2624277892639992,,,,,,,,,0,0,0,lost,871,90,248371.99999999997,42,70.5,0,0,0,0,0,0
1778083922.853533,17.50848698616028,nav,2,front-right,0.19345945597014308,1.3005432075128642,3.2624277892639992,,,,,,,,,0,0,0,lost,875,90,248371.0,42,70.5,0,0,0,0,0,0
1778083922.9240901,17.579044103622437,nav,2,front-right,0.19345945597014308,1.3005432075128642,3.2624277892639992,,,,,,,,,0,0,0,lost,878,90,248371.0,42,70.5,0,0,0,0,0,0
1778083922.996501,17.65145492553711,nav,2,front-right,0.19345945597014308,1.3005432075128642,3.2624277892639992,,,,,,,,,0,0,0,lost,882,90,248367.0,42,70.5,0,0,0,0,0,0
1778083923.0678241,17.72277808189392,nav,2,front-right,0.19345945597014308,1.3005432075128642,3.2624277892639992,,,,,,,,,0,0,0,lost,886,90,248359.0,42,70.5,0,0,0,0,0,0
1778083923.1407511,17.79570508003235,nav,2,front-right,0.19345945597014308,1.3005432075128642,3.2624277892639992,,,,,,,,,0,0,0,lost,889,90,248359.0,42,70.5,0,0,0,0,0,0
1778083923.21294,17.867893934249878,nav,2,front-right,0.19345945597014308,1.3005432075128642,3.2624277892639992,,,,,,,,,0,0,0,lost,893,90,248367.99999999997,42,70.5,0,0,0,0,0,0
1778083923.2869298,17.94188380241394,nav,2,front-right,0.19345945597014308,1.3005432075128642,3.2624277892639992,,,,,,,,,0,0,0,lost,897,90,248367.99999999997,42,70.5,0,0,0,0,0,0
1778083923.360397,18.015351057052612,nav,2,front-right,0.19345945597014308,1.3005432075128642,3.2624277892639992,,,,,,,,,0,0,0,lost,900,90,248367.99999999997,42,70.5,0,0,0,0,0,0
1778083923.4366632,18.091617107391357,nav,2,front-right,0.19345945597014308,1.3005432075128642,3.2624277892639992,,,,,,,,,0,0,0,lost,904,90,248373.99999999997,42,70.5,0,0,0,0,0,0
1778083923.513424,18.16837787628174,nav,2,front-right,0.19345945597014308,1.3005432075128642,3.2624277892639992,,,,,,,,,0,0,0,lost,908,90,248373.99999999997,42,70.5,0,0,0,0,0,0
1778083923.589382,18.244335889816284,nav,2,front-right,0.19345945597014308,1.3005432075128642,3.2624277892639992,,,,,,,,,0,0,0,lost,912,90,248369.0,42,70.5,0,0,0,0,0,0
1778083923.6628559,18.31780982017517,nav,2,front-right,0.19345945597014308,1.3005432075128642,3.2624277892639992,,,,,,,,,0,0,0,lost,915,80,248367.0,42,70.5,0,0,0,0,0,0
1778083923.734507,18.389461040496826,nav,2,front-right,0.19345945597014308,1.3005432075128642,3.2624277892639992,,,,,,,,,0,0,0,lost,919,80,248367.0,42,70.5,0,0,0,0,0,0
1778083923.8075788,18.46253275871277,nav,2,front-right,0.19345945597014308,1.3005432075128642,3.2624277892639992,,,,,,,,,0,0,0,lost,923,80,248360.0,42,70.5,0,0,0,0,0,0
1778083923.881006,18.53595995903015,nav,2,front-right,0.19345945597014308,1.3005432075128642,3.2624277892639992,,,,,,,,,0,0,0,lost,926,80,248366.0,42,70.5,0,0,0,0,0,0
1778083923.955193,18.61014699935913,nav,2,front-right,0.19345945597014308,1.3005432075128642,3.2624277892639992,,,,,,,,,0,0,0,lost,930,80,248366.0,42,70.5,0,0,0,0,0,0
1778083924.030557,18.685510873794556,nav,2,front-right,0.19345945597014308,1.3005432075128642,3.2624277892639992,,,,,,,,,0,0,0,lost,934,80,248366.0,42,70.5,0,0,0,0,0,0
1778083924.108227,18.76318097114563,nav,2,front-right,0.19345945597014308,1.3005432075128642,3.2624277892639992,,,,,,,,,0,0,0,lost,938,80,248366.0,42,70.5,0,0,0,0,0,0
1778083924.1829498,18.83790373802185,nav,2,front-right,0.19345945597014308,1.3005432075128642,3.2624277892639992,,,,,,,,,0,0,0,lost,941,80,248366.0,42,70.5,0,0,0,0,0,0
1778083924.256792,18.91174602508545,nav,2,front-right,0.19345945597014308,1.3005432075128642,3.2624277892639992,,,,,,,,,0,0,0,lost,945,80,248366.0,42,70.5,0,0,0,0,0,0
1778083924.332492,18.987446069717407,nav,2,front-right,0.19345945597014308,1.3005432075128642,3.2624277892639992,,,,,,,,,0,0,0,lost,949,80,248367.0,42,70.0,0,0,0,0,0,0
1778083924.409008,19.06396198272705,nav,2,front-right,0.19345945597014308,1.3005432075128642,3.2624277892639992,,,,,,,,,0,0,0,lost,953,80,248367.0,42,70.0,0,0,0,0,0,0
1778083924.482669,19.137623071670532,nav,2,front-right,0.19345945597014308,1.3005432075128642,3.2624277892639992,,,,,,,,,0,0,0,lost,956,80,248367.0,42,70.0,0,0,0,0,0,0
1778083924.5540748,19.209028720855713,nav,2,front-right,0.19345945597014308,1.3005432075128642,3.2624277892639992,,,,,,,,,0,0,0,lost,960,80,248361.0,42,70.0,0,0,0,0,0,0
1778083924.6240718,19.27902579307556,nav,2,front-right,0.19345945597014308,1.3005432075128642,3.2624277892639992,,,,,,,,,0,0,0,lost,963,80,248361.0,42,70.0,0,0,0,0,0,0
1778083924.695102,19.350055932998657,nav,2,front-right,0.19345945597014308,1.3005432075128642,3.2624277892639992,,,,,,,,,0,0,0,lost,967,80,248363.0,42,70.0,0,0,0,0,0,0
1778083924.764224,19.419178009033203,nav,2,front-right,0.19345945597014308,1.3005432075128642,3.2624277892639992,,,,,,,,,0,0,0,lost,970,80,248361.0,41,70.0,0,0,0,0,0,0
1778083924.836386,19.491339921951294,nav,2,front-right,0.19345945597014308,1.3005432075128642,3.2624277892639992,,,,,,,,,0,0,0,lost,974,80,248361.0,41,70.0,0,0,0,0,0,0
1778083924.909122,19.56407594680786,nav,2,front-right,0.19345945597014308,1.3005432075128642,3.2624277892639992,,,,,,,,,0,0,0,lost,978,80,248366.0,41,70.0,0,0,0,0,0,0
1778083924.98333,19.6382839679718,nav,2,front-right,0.19345945597014308,1.3005432075128642,3.2624277892639992,,,,,,,,,0,0,0,lost,981,80,248366.0,41,70.0,0,0,0,0,0,0
1778083925.056402,19.711355924606323,nav,2,front-right,0.19345945597014308,1.3005432075128642,3.2624277892639992,,,,,,,,,0,0,0,lost,985,80,248366.0,41,70.0,0,0,0,0,0,0
1778083925.133599,19.78855299949646,nav,2,front-right,0.19345945597014308,1.3005432075128642,3.2624277892639992,,,,,,,,,0,0,0,lost,988,80,248366.0,41,70.0,0,0,0,0,0,0
1778083925.204258,19.859211921691895,nav,2,front-right,0.19345945597014308,1.3005432075128642,3.2624277892639992,,,,,,,,,0,0,0,lost,992,80,248361.0,41,70.0,0,0,0,0,0,0
1778083925.275724,19.930677890777588,nav,2,front-right,0.19345945597014308,1.3005432075128642,3.2624277892639992,,,,,,,,,0,0,0,lost,996,80,248366.0,41,70.0,0,0,0,0,0,0
