timestamp,phase,command,axis,repeat,t_send,t_since_cmd,marker_id,pos_x,pos_y,pos_z,marker_dist,tello_height_cm,tello_baro_cm,tello_battery,tello_temp_c,tello_pitch,tello_roll,tello_yaw,tello_vgx,tello_vgy,tello_vgz,tello_agx,tello_agy,tello_agz
1776458838.223493,init_hover,none,-,0,,,0,0.22035511434273825,0.8293118794637371,2.7766590978844876,2.794812347966298,70,253016.0,62,81.0,0,0,0,0,0,0,25.0,8.0,-982.0
1776458838.408222,init_hover,none,-,0,,,0,-0.1798757842168261,0.789336366786628,2.7858507338946437,2.798065022310401,70,253005.00000000003,62,81.0,0,0,0,0,0,0,-9.0,4.0,-1007.0
1776458838.45981,init_hover,none,-,0,,,0,-0.092946821976366,-0.0899676803065701,2.683947247367876,2.772772500266968,70,253005.00000000003,62,81.0,0,0,0,0,0,0,-9.0,4.0,-1007.0
1776458838.5096881,init_hover,none,-,0,,,0,0.1791470524263309,1.0776597021921972,2.747851036943949,2.7948054992656144,70,253021.99999999997,62,81.0,0,0,0,0,0,0,-15.0,17.0,-1015.0
1776458838.559384,init_hover,none,-,0,,,0,-0.5136307337679009,0.5711090282826253,2.731980031659295,2.779993905083759,70,253019.99999999997,62,81.0,0,0,0,0,1,0,-16.0,24.0,-1017.0
1776458838.609182,init_hover,none,-,0,,,0,0.19202955297825583,0.8287590021832762,2.7805434249570715,2.7965385333245307,70,253019.99999999997,62,81.0,0,0,0,0,1,0,-16.0,24.0,-1017.0
1776458838.659115,init_hover,none,-,0,,,0,-0.5732382078076534,0.3326501474189455,2.69449226218965,2.767736717530325,70,253023.99999999997,62,81.0,0,0,0,0,1,0,-7.0,9.0,-1010.0
1776458838.716396,init_hover,none,-,0,,,0,-0.013453473941675523,0.41020383860025256,2.823765622345251,2.8301688763715216,70,253023.99999999997,62,81.0,0,0,0,0,1,0,-7.0,9.0,-1010.0
1776458838.7687418,init_hover,none,-,0,,,0,0.16399247328457492,1.0773487187390127,2.7501545777437024,2.7960875401282435,70,253019.0,62,81.0,0,0,0,0,1,0,31.0,-17.0,-1009.0
1776458838.8209841,init_hover,none,-,0,,,0,0.007711268777158102,0.4072764614477662,2.8238792752211093,2.830458617786444,70,253019.0,62,81.0,0,0,0,0,1,0,31.0,-17.0,-1009.0
1776458838.872725,init_hover,none,-,0,,,0,0.31311541882981314,0.511587196584421,2.8056920545399384,2.8244939359512373,70,253016.0,62,81.0,0,0,0,0,1,0,-12.0,22.0,-1024.0
1776458838.924105,init_hover,none,-,0,,,0,0.43458578430965056,0.7612683841826107,2.7625492775195704,2.8011695425990917,70,253016.0,62,81.0,0,0,0,0,1,0,-12.0,22.0,-1024.0
1776458838.9740648,init_hover,none,-,0,,,0,0.09203831886373282,1.3146462041164897,2.7078165343439657,2.802045794212495,70,253013.0,62,80.5,0,0,0,0,1,0,-9.0,35.0,-995.0
1776458839.025696,init_hover,none,-,0,,,0,0.180440938933697,1.4230833999619876,2.6682936506154524,2.7981808772220207,70,253013.0,62,80.5,0,0,0,0,1,0,-9.0,35.0,-995.0
1776458839.07647,init_hover,none,-,0,,,0,0.09758062606976346,1.11893130213504,2.7758219224212146,2.825597108562001,70,253026.00000000003,62,80.5,0,0,0,0,1,0,-10.0,-1.0,-1029.0
1776458839.1266592,init_hover,none,-,0,,,0,0.2221976903176687,1.2629580934965317,2.732882367863334,2.8209096553936934,70,253026.00000000003,62,80.5,0,0,0,0,1,0,-10.0,-1.0,-1029.0
1776458839.1775239,init_hover,none,-,0,,,0,0.0795961924268353,1.3130230554952473,2.711040472023639,2.80436764217297,70,253017.99999999997,62,80.5,0,0,0,0,1,0,1.0,4.0,-1014.0
1776458839.2273548,init_hover,none,-,0,,,0,-0.21258504831650243,-0.02486383646966328,2.749263327547442,2.827383253309064,70,253017.99999999997,62,80.5,0,0,0,0,1,0,1.0,4.0,-1014.0
1776458839.279121,init_hover,none,-,0,,,0,-0.5701493195680843,0.3625809004303583,2.7653215998802114,2.833450480634603,70,253017.0,62,80.5,0,0,0,0,1,0,-9.0,7.0,-1004.0
1776458839.329648,init_hover,none,-,0,,,0,-0.4320547671391275,0.4485702761329076,2.827757235632005,2.8645790732230223,70,253017.0,62,80.5,0,0,0,0,1,0,-9.0,7.0,-1004.0
1776458839.38078,init_hover,none,-,0,,,0,0.11434845206377092,1.0736058601496845,2.820895499480345,2.8626612615267573,70,253011.0,62,80.5,0,0,0,0,1,0,-2.0,22.0,-972.0
1776458839.432299,init_hover,none,-,0,,,0,-0.5741233265491887,0.6095087853442536,2.812442671770744,2.870460205800385,70,253011.0,62,80.5,0,0,0,0,1,0,-2.0,22.0,-972.0
1776458839.483927,init_hover,none,-,0,,,0,0.17335912173051188,1.2370995968810714,2.783879637362686,2.86110732352979,70,253017.99999999997,62,80.5,0,0,0,0,1,0,7.0,-2.0,-1019.0
1776458839.5360188,init_hover,none,-,0,,,0,-0.32760676900031777,0.22744632469463083,2.836988476763148,2.8800392451085197,70,253017.99999999997,62,80.5,0,0,0,0,1,0,7.0,-2.0,-1019.0
1776458839.587696,init_hover,none,-,0,,,0,-0.3643271446339883,0.4144572576570042,2.874552763865658,2.903483075514822,70,253021.0,62,80.5,0,0,0,0,1,0,-14.0,2.0,-1019.0
1776458839.63669,init_hover,none,-,0,,,0,-0.3719771742122581,0.283762523538557,2.8715105281506537,2.9127213860810106,70,253021.0,62,80.5,0,0,0,0,1,0,-14.0,2.0,-1019.0
1776458839.686774,init_hover,none,-,0,,,0,-0.31553948281260485,0.24796323317222035,2.8467168163736076,2.885704711684217,70,253019.0,62,80.5,0,0,0,0,1,0,6.0,14.0,-985.0
1776458839.733896,init_hover,none,-,0,,,0,-0.1795609394684539,-0.01723951837043558,2.8280228294913945,2.9001620434288617,70,253019.0,62,80.5,0,0,0,0,1,0,6.0,14.0,-985.0
1776458839.78268,init_hover,none,-,0,,,0,0.3801707265592209,1.128959119075522,2.8110198932872184,2.8855086850401612,70,253017.99999999997,62,80.5,0,0,0,0,1,0,6.0,-5.0,-1002.0
1776458839.834529,init_hover,none,-,0,,,0,0.38152899731325296,0.9594833542331247,2.867940160643489,2.915454239529984,70,253017.99999999997,62,80.5,0,0,0,0,1,0,6.0,-5.0,-1002.0
1776458839.8875399,init_hover,none,-,0,,,0,0.6075946025014612,0.8252371722232612,2.8308946751026367,2.9041121958809555,70,253013.0,62,80.5,0,0,0,0,2,0,4.0,10.0,-989.0
1776458839.937475,init_hover,none,-,0,,,0,0.3562061390224764,1.1531333215432533,2.8452505850277214,2.9203236424203673,70,253013.0,62,80.5,0,0,0,0,2,0,4.0,10.0,-989.0
1776458839.988595,init_hover,none,-,0,,,0,-0.36614924956354195,0.3567603420648028,2.894622508449629,2.9278098077866335,70,253016.0,62,80.5,0,0,0,0,2,0,-13.0,14.0,-1006.0
1776458840.036923,init_hover,none,-,0,,,0,0.3536540958269547,1.1407313182628145,2.852808594782892,2.9250604192926613,70,253016.0,62,80.5,0,0,0,0,2,0,-13.0,14.0,-1006.0
1776458840.089748,init_hover,none,-,0,,,0,0.3708525244785493,1.29553839381949,2.8161466394434758,2.924378078675514,70,253025.0,62,80.5,0,0,0,0,2,0,0.0,3.0,-999.0
1776458840.142812,init_hover,none,-,0,,,0,0.3512626871102811,1.1219848011669886,2.8638462006734686,2.9321440396264875,70,253025.0,62,80.5,0,0,0,0,2,0,0.0,3.0,-999.0
1776458840.1936672,init_hover,none,-,0,,,0,0.3458295107647663,0.8363248289346045,2.939012047434732,2.9687100380894833,70,253030.00000000003,62,80.5,0,0,0,0,2,0,21.0,6.0,-981.0
1776458840.246872,init_hover,none,-,0,,,0,0.5749827018945364,0.9256337507545347,2.89041273425588,2.964983679796056,70,253030.00000000003,62,80.5,0,0,0,0,2,0,21.0,6.0,-981.0
1776458840.29811,init_hover,none,-,0,,,0,0.5777901737186805,0.9200684442551239,2.892201135538231,2.9666669348382184,70,253023.99999999997,62,80.5,0,0,0,0,2,0,8.0,17.0,-991.0
1776458840.349911,init_hover,none,-,0,,,0,0.42177808653161647,0.8592768042104839,2.962515981901424,3.0036015312456534,70,253023.99999999997,62,80.5,0,0,0,0,2,0,8.0,17.0,-991.0
1776458840.401639,init_hover,none,-,0,,,0,-0.12416330972697569,0.0449659320868131,2.9446064703947084,2.9990309450749253,70,253032.00000000003,62,80.5,0,0,0,0,2,0,14.0,-5.0,-990.0
1776458840.454599,init_hover,none,-,0,,,0,0.5908964580885632,0.889690185016756,2.903259401368751,2.9769101731682617,70,253032.00000000003,62,80.5,0,0,0,0,2,0,14.0,-5.0,-990.0
1776458840.506725,init_hover,none,-,0,,,0,0.4302942662859279,1.0619914019825007,2.9505494334308677,3.0173384248743984,70,253027.0,62,80.5,0,0,0,0,2,0,-7.0,25.0,-1016.0
1776458840.5572228,init_hover,none,-,0,,,0,0.43232049095576164,1.0541930162414155,2.954053119600734,3.0198712118773434,70,253027.0,62,80.5,0,0,0,0,2,0,-7.0,25.0,-1016.0
1776458840.609241,init_hover,none,-,0,,,0,0.36155071598587346,1.046780638897513,2.974733194665381,3.029747421645519,70,253021.99999999997,62,80.5,0,0,0,0,2,0,1.0,6.0,-1020.0
1776458840.659883,init_hover,none,-,0,,,0,-0.5755037574741872,0.2077035629007895,2.920178709302501,3.0020900658859757,70,253021.99999999997,62,80.5,0,0,0,0,2,0,1.0,6.0,-1020.0
1776458840.711663,init_hover,none,-,0,,,0,0.36388150761401145,1.018420319631145,2.9887148502438228,3.0397206732743762,70,253025.0,62,80.5,0,0,0,0,2,0,19.0,-4.0,-984.0
1776458840.7623098,init_hover,none,-,0,,,0,0.5844849905059539,0.9870882254255096,2.9611544668992744,3.0430076856996826,70,253025.0,62,80.5,0,0,0,0,2,0,19.0,-4.0,-984.0
1776458840.812747,init_hover,none,-,0,,,0,0.6419768873190653,0.966653377528363,2.953003119590717,3.0441413317087203,70,253017.0,62,80.5,0,0,0,0,2,0,10.0,12.0,-1004.0
1776458840.864023,init_hover,none,-,0,,,0,0.5944460434278976,0.9628127435799166,2.9718390684894853,3.0523477250227438,70,253017.0,62,80.5,0,0,0,0,2,0,10.0,12.0,-1004.0
1776458840.914794,init_hover,none,-,0,,,0,0.6048683623260593,0.9537866908933155,2.977101140643411,3.0584574478021676,70,253021.99999999997,62,80.5,0,0,0,0,2,0,6.0,20.0,-997.0
1776458840.966229,init_hover,none,-,0,,,0,0.6065199773239608,0.9376245545755773,2.982195402422034,3.061918718870985,70,253021.99999999997,62,80.5,0,0,0,0,2,0,6.0,20.0,-997.0
1776458841.017816,init_hover,none,-,0,,,2,-0.4771355998579873,1.3292155980325688,3.065644437884495,3.1199706905950135,60,253017.99999999997,62,80.5,0,0,0,0,2,0,6.0,-7.0,-1001.0
1776458841.069978,init_hover,none,-,0,,,2,-0.8453013155962442,1.3038641583486863,2.9232126409946586,3.058110509015111,60,253017.99999999997,62,80.5,0,0,0,0,2,0,6.0,-7.0,-1001.0
1776458841.12202,init_hover,none,-,0,,,2,-0.665009575084243,1.3102920605289858,3.0024128827081986,3.090793104695493,60,253014.0,62,80.5,0,0,0,0,2,0,2.0,21.0,-1008.0
1776458841.173846,init_hover,none,-,0,,,2,0.7397931320987725,0.8794053411082711,2.971739991371927,3.0648124781743085,60,253014.0,62,80.5,0,0,0,0,2,0,2.0,21.0,-1008.0
1776458841.225503,init_hover,none,-,0,,,2,-0.6463391760058476,1.279626238239461,3.0020645583459284,3.0835591085673393,60,253016.0,62,80.5,0,0,0,0,2,0,18.0,12.0,-998.0
1776458841.277208,init_hover,none,-,0,,,2,-0.8001740258639778,1.3496200311528685,2.9075192358016158,3.0358163225740635,60,253016.0,62,80.5,0,0,0,0,2,0,18.0,12.0,-998.0
1776458841.327893,init_hover,none,-,0,,,2,-0.6248028813641947,1.306382112202899,2.9938302412603655,3.073640862678008,60,253017.99999999997,62,80.5,0,0,0,0,2,0,28.0,3.0,-962.0
1776458841.379524,init_hover,none,-,0,,,2,-0.6149020493562797,1.3250131948908368,2.986601462744198,3.066516982575098,60,253017.99999999997,62,80.5,0,0,0,0,2,0,28.0,3.0,-962.0
1776458841.43013,init_hover,none,-,0,,,2,-0.39356475055788936,1.3397148935699437,3.0203154059632342,3.0647356449282523,60,253015.0,62,80.5,0,0,0,0,2,0,-8.0,-3.0,-1018.0
1776458841.480052,init_hover,none,-,0,,,2,-0.6002231607466681,1.352841817684353,2.97561534358914,3.0559862342632758,60,253015.0,62,80.5,0,0,0,0,2,0,-8.0,-3.0,-1018.0
1776458841.530462,init_hover,none,-,0,,,2,0.8148837929066749,0.7458523016890752,2.9081581958263345,3.0308432391746347,70,253017.0,62,80.5,0,0,0,0,2,0,9.0,-7.0,-1015.0
1776458841.581911,init_hover,none,-,0,,,2,0.6562209927617141,0.7824593707901154,2.949834870569669,3.0297649546337713,70,253017.0,62,80.5,0,0,0,0,2,0,9.0,-7.0,-1015.0
1776458841.633595,init_hover,none,-,0,,,2,-0.3218694716757969,1.463462399959499,3.02133551189158,3.073575381927411,70,253015.0,62,80.5,0,0,0,0,2,0,6.0,9.0,-996.0
1776458841.685292,init_hover,none,-,0,,,2,-0.3692125079313727,1.4300494214124237,2.9822142998954213,3.0355992013720905,70,253015.0,62,80.5,0,0,0,0,2,0,6.0,9.0,-996.0
1776458841.735759,init_hover,none,-,0,,,2,-0.4166683383286526,1.1109281434832639,3.0299259549563318,3.0604523929805283,70,253015.0,62,80.5,0,0,0,0,2,0,12.0,18.0,-985.0
1776458841.788089,init_hover,none,-,0,,,2,0.6267911443743981,0.7451174906352048,2.938199919536534,3.0151038123770726,70,253015.0,62,80.5,0,0,0,0,2,0,12.0,18.0,-985.0
1776458841.83956,init_hover,none,-,0,,,2,0.6243142278496022,0.7317239383388248,2.934045710865014,3.011704589398048,70,253019.99999999997,62,80.5,0,0,-1,0,2,0,26.0,1.0,-1002.0
1776458841.890522,init_hover,none,-,0,,,2,-0.5961400225686194,1.2892325822074227,2.901446868891415,2.9761438718782203,70,253011.0,62,80.5,0,0,-1,1,2,0,22.0,1.0,-1002.0
1776458841.941677,init_hover,none,-,0,,,2,-0.6824957124420699,1.1109661403794708,2.902607263222313,2.983830224111863,70,253011.0,62,80.5,0,0,-1,1,2,0,22.0,1.0,-1002.0
1776458841.993251,init_hover,none,-,0,,,2,-0.7461749811311257,1.3337849731251707,2.848599038668177,2.963563057174838,70,253011.0,62,80.5,0,0,-1,1,2,0,22.0,1.0,-1002.0
1776458842.044634,init_hover,none,-,0,,,2,0.3880923482395685,0.6835598090307423,2.9538421759054585,2.9959862592109223,70,253011.0,62,80.5,0,0,-1,1,2,0,5.0,12.0,-1017.0
1776458842.094601,init_hover,none,-,0,,,2,0.3920618641506853,0.798464997816662,2.965751274790516,2.9983344520496575,70,253011.0,62,80.5,0,0,-1,1,2,0,5.0,12.0,-1017.0
1776458842.146028,init_hover,none,-,0,,,2,0.38818446440835813,0.7619862534803175,2.9559805669010255,2.9908458391961377,70,253012.0,62,80.5,0,0,0,1,2,0,21.0,5.0,-1009.0
1776458842.196754,init_hover,none,-,0,,,2,0.38818446440835813,0.7619862534803175,2.9559805669010255,2.9908458391961377,70,253008.0,62,80.5,0,0,0,1,2,0,4.0,15.0,-1006.0
1776458842.247765,init_hover,none,-,0,,,2,0.3885901031309166,0.4635014762295053,2.876077526199484,2.951381857870811,70,253008.0,62,80.5,0,0,0,1,2,0,4.0,15.0,-1006.0
1776458842.298232,init_hover,none,-,0,,,2,0.3275503595768494,0.6770343642663376,2.9173424856423282,2.953385044056655,70,253007.00000000003,62,80.5,0,0,0,1,3,0,22.0,3.0,-1008.0
1776458842.350077,init_hover,none,-,0,,,2,0.13056831740551225,0.5860321386511455,2.9356699369698127,2.967587480524912,70,253007.00000000003,62,80.5,0,0,0,1,3,0,22.0,3.0,-1008.0
1776458842.401477,init_hover,none,-,0,,,2,-0.08757139151295334,1.4507646524161266,2.8958095454095787,2.931990866930622,70,253014.0,62,80.5,0,0,0,1,3,0,25.0,21.0,-968.0
1776458842.4535758,init_hover,none,-,0,,,2,-0.39352763002272495,1.380273027230369,2.8539389175229215,2.905931677755373,70,253014.0,62,80.5,0,0,0,1,3,0,25.0,21.0,-968.0
1776458842.505693,init_hover,none,-,0,,,2,0.2659403639955493,1.2701879811224224,2.8932247194488947,2.9179573505408247,70,253010.0,62,80.5,0,0,0,1,3,0,12.0,4.0,-1027.0
1776458842.557276,init_hover,none,-,0,,,2,0.15621543131976123,0.5654530942959772,2.8563300102689215,2.893415870869968,70,253010.0,62,80.5,0,0,0,1,3,0,12.0,4.0,-1027.0
1776458842.60902,init_hover,none,-,0,,,2,-0.07753581593616428,1.5195872588680028,2.8372907547196453,2.885515820290789,70,253007.00000000003,62,80.5,0,0,0,1,3,0,8.0,28.0,-964.0
1776458842.659224,init_hover,none,-,0,,,2,0.18248363943779186,0.5495681755109741,2.848058016049889,2.8892254273353273,70,253007.00000000003,62,80.5,0,0,0,1,3,0,8.0,28.0,-964.0
1776458842.711103,init_hover,none,-,0,,,2,0.20741343716192293,1.2484816611979432,2.835921140855762,2.8543321788151528,70,253011.0,62,80.5,0,0,0,2,3,0,18.0,12.0,-960.0
1776458842.761426,init_hover,none,-,0,,,2,0.46481908572930036,1.1967022720132474,2.8103539571934646,2.8553174833959116,70,253011.0,62,80.5,0,0,0,2,3,0,18.0,12.0,-960.0
1776458842.811332,init_hover,none,-,0,,,2,-0.3909465149624023,1.2206247486599815,2.793981230567397,2.8298136995296055,70,253017.99999999997,62,80.5,0,0,0,2,3,0,10.0,6.0,-1010.0
1776458842.861165,init_hover,none,-,0,,,2,-0.012752229308081982,0.8144915144672176,2.823753669627756,2.829869397038176,70,253017.99999999997,62,80.5,0,0,0,2,3,0,10.0,6.0,-1010.0
1776458842.911475,init_hover,none,-,0,,,2,0.025844732023284724,0.8166376742702963,2.823528405697059,2.8295940257302874,70,253007.00000000003,62,80.5,0,0,0,2,3,0,17.0,3.0,-1011.0
1776458842.9616199,init_hover,none,-,0,,,2,0.4405823932045487,1.1488735566576191,2.76021297460502,2.7991162616532432,70,253007.00000000003,62,80.5,0,0,0,2,3,0,17.0,3.0,-1011.0
1776458843.012238,init_hover,none,-,0,,,2,0.022075602054012017,0.4402088091567291,2.7191313508482167,2.7762436515402285,70,253017.99999999997,62,81.0,0,0,0,2,3,0,-12.0,8.0,-1034.0
1776458843.062748,init_hover,none,-,0,,,2,0.1857756252820982,1.3918699755072579,2.7405717923094053,2.7746726670825517,70,253017.99999999997,62,81.0,0,0,0,2,3,0,-12.0,8.0,-1034.0
1776458843.114387,init_hover,none,-,0,,,2,0.570899894437809,1.1967763477822375,2.706246363337195,2.77279948780856,70,253012.0,62,81.0,0,0,0,2,3,0,11.0,14.0,-1003.0
1776458843.1656299,init_hover,none,-,0,,,2,0.4373748581727775,1.0838033283185355,2.712307197166662,2.748623309258836,70,253012.0,62,81.0,0,0,0,2,3,0,11.0,14.0,-1003.0
1776458843.216822,init_hover,none,-,0,,,2,-0.14877137715312833,0.2442084032992713,2.6131942845472165,2.7243601504011385,70,253015.0,62,81.0,0,0,0,2,3,0,21.0,10.0,-1001.0
1776458843.266936,pre_hover,right,x,1,,,2,-0.1862068284616084,0.450156691407136,2.6603444927011686,2.7229457333585474,70,253015.0,62,81.0,0,0,0,2,3,0,21.0,10.0,-1001.0
1776458843.317631,pre_hover,right,x,1,,,2,0.15261291523437526,1.5444566694567692,2.6409962891320005,2.7008489713461006,70,253013.0,62,81.0,0,0,0,2,3,0,-12.0,36.0,-1002.0
1776458843.369681,pre_hover,right,x,1,,,2,-0.12672699324771727,0.6565327777442193,2.707927156528546,2.7325627071755343,70,253013.0,62,81.0,0,0,0,2,3,0,-12.0,36.0,-1002.0
1776458843.421191,pre_hover,right,x,1,,,2,0.33841306714550196,1.4618313587710654,2.6292811448799935,2.6908977956772353,70,253009.0,62,81.0,0,0,0,2,3,0,34.0,-2.0,-997.0
1776458843.4724622,pre_hover,right,x,1,,,2,0.5112487378450462,1.2795613003412467,2.6036194143823073,2.6680262081818293,70,253009.0,62,81.0,0,0,0,2,3,0,34.0,-2.0,-997.0
1776458843.522221,pre_hover,right,x,1,,,2,0.387553237450271,1.237887474011735,2.65779724073637,2.696418761063595,70,253019.0,62,81.0,0,0,0,2,3,0,12.0,30.0,-1012.0
1776458843.573323,pre_hover,right,x,1,,,2,-0.12417793714124149,0.5695642054177005,2.6134652472743625,2.6515836272011475,70,253019.0,62,81.0,0,0,0,2,3,0,12.0,30.0,-1012.0
1776458843.623883,pre_hover,right,x,1,,,2,-0.11793386290731267,0.582527284072782,2.6203908745529105,2.656057265949674,70,253019.0,62,81.0,0,0,0,2,3,0,20.0,5.0,-972.0
1776458843.674353,pre_hover,right,x,1,,,2,0.4957647952705669,1.3273723015132877,2.552304911029116,2.6205372950773125,70,253019.0,62,81.0,0,0,0,2,3,0,20.0,5.0,-972.0
1776458843.724062,pre_hover,right,x,1,,,2,-0.6650351205812509,0.771922015477532,2.5138475906050433,2.61031051551748,70,253008.0,62,81.0,0,0,0,2,3,0,1.0,-14.0,-997.0
1776458843.7750819,pre_hover,right,x,1,,,2,0.3932558110942611,1.2549567826866612,2.5670056642340873,2.6094388619408626,70,253008.0,62,81.0,0,0,0,2,3,0,1.0,-14.0,-997.0
1776458843.8266082,pre_hover,right,x,1,,,2,-0.5191006219407082,0.7325703009443687,2.5457127529245813,2.611826472038115,70,253004.0,62,81.0,0,0,0,2,3,0,23.0,-17.0,-988.0
1776458843.877218,pre_hover,right,x,1,,,2,0.5336742199604255,1.2518946461630645,2.5288088270500615,2.596754352953373,70,253004.0,62,81.0,0,0,0,2,3,0,23.0,-17.0,-988.0
1776458843.926267,pre_hover,right,x,1,,,2,0.632977777444958,1.396606188824075,2.4441170712346794,2.555712345639373,70,253005.00000000003,62,81.0,0,0,0,2,3,0,18.0,-7.0,-1026.0
1776458843.9783192,pre_hover,right,x,1,,,2,0.39284646527739925,1.322926384367072,2.547691233028312,2.59794927083857,70,253005.00000000003,62,81.0,0,0,0,2,3,0,18.0,-7.0,-1026.0
1776458844.029906,pre_hover,right,x,1,,,2,0.42581267516267546,1.3271697376898386,2.519280982390407,2.5758752182167535,70,253013.0,62,80.5,0,0,0,2,3,0,10.0,31.0,-998.0
1776458844.0811079,pre_hover,right,x,1,,,2,0.66731950673744,1.3348586768099335,2.4245774611637105,2.5369315171463076,70,253013.0,62,80.5,0,0,0,2,3,0,10.0,31.0,-998.0
1776458844.131296,pre_hover,right,x,1,,,2,0.575259533623433,1.3086736440212212,2.459353325327183,2.544527800660834,70,253023.99999999997,62,80.5,0,0,0,2,3,0,15.0,-21.0,-1020.0
1776458844.1822221,pre_hover,right,x,1,,,2,0.6840689335008644,1.2798874336395583,2.424571925136098,2.5347260801610325,70,253023.99999999997,62,80.5,0,0,0,2,3,0,15.0,-21.0,-1020.0
1776458844.233244,pre_hover,right,x,1,,,2,0.5641475435604616,1.3362112378810016,2.4452572776800245,2.5319130319641516,70,253016.0,62,80.5,0,0,0,2,3,0,3.0,-13.0,-980.0
1776458844.2842371,pre_hover,right,x,1,,,2,0.6011069453285989,1.3148146480385592,2.4275618996739325,2.5206139329715755,70,253016.0,62,80.5,0,0,0,2,3,0,3.0,-13.0,-980.0
1776458844.3350022,pre_hover,right,x,1,,,2,0.7333298048381888,1.240892546432755,2.3699678821389054,2.4924986627801515,70,253019.99999999997,62,80.5,0,0,0,2,3,0,20.0,-15.0,-1004.0
1776458844.386633,pre_hover,right,x,1,,,2,0.7443173392088681,1.2248810163877366,2.3605812683696183,2.485341766750816,70,253019.99999999997,62,80.5,0,0,0,2,3,0,20.0,-15.0,-1004.0
1776458844.437998,pre_hover,right,x,1,,,2,0.7216670613358063,1.2799891243291053,2.360100774071919,2.4838021098578906,70,253016.0,62,80.5,0,0,0,3,3,0,3.0,10.0,-995.0
1776458844.4900138,pre_hover,right,x,1,,,2,0.795796841750072,1.363348946429769,2.3013692910830414,2.462034866558773,70,253016.0,62,80.5,0,0,0,3,3,0,3.0,10.0,-995.0
1776458844.5415611,pre_hover,right,x,1,,,2,0.8864842445298746,1.274271132546331,2.2398688228884067,2.4244775341700833,70,253019.99999999997,62,80.5,0,0,0,2,3,0,-2.0,-1.0,-990.0
1776458844.592213,pre_hover,right,x,1,,,2,0.8123313334860015,1.299388272343024,2.268740800306703,2.428312243504938,70,253019.99999999997,62,80.5,0,0,0,2,3,0,-2.0,-1.0,-990.0
1776458844.643274,pre_hover,right,x,1,,,2,0.8885669020269352,1.3191323825305457,2.231060878107805,2.4226079457437053,70,253017.0,62,80.5,0,0,0,2,3,0,-11.0,-1.0,-962.0
1776458844.697372,pre_hover,right,x,1,,,2,0.9182097172337973,1.2807153426341014,2.2311147659149437,2.4289469502433447,70,253017.0,62,80.5,0,0,0,2,3,0,-11.0,-1.0,-962.0
1776458844.7490351,pre_hover,right,x,1,,,2,0.9385684717573232,1.2651285460304058,2.20247990870536,2.4087593633129583,70,253019.99999999997,62,80.5,0,0,0,2,3,0,-5.0,14.0,-1016.0
1776458844.799964,pre_hover,right,x,1,,,2,0.8753758933103227,1.284500349416999,2.2317590543917833,2.4141192763131953,70,253019.99999999997,62,80.5,0,0,0,2,3,0,-5.0,14.0,-1016.0
1776458844.851308,pre_hover,right,x,1,,,2,0.8812066249530163,1.2972168971506857,2.2397649960648844,2.425161899216318,70,253017.0,62,80.5,0,0,0,2,3,0,6.0,-4.0,-999.0
1776458844.902431,pre_hover,right,x,1,,,2,1.0077200477916088,1.2906861053300174,2.155615359183098,2.3972224934909843,70,253017.0,62,80.5,0,0,0,2,3,0,6.0,-4.0,-999.0
1776458844.9540591,pre_hover,right,x,1,,,2,0.999470537230934,1.3185608704200007,2.1478261069725306,2.390309471333831,70,253010.0,62,80.5,0,0,0,2,3,0,2.0,1.0,-1011.0
1776458845.0052018,pre_hover,right,x,1,,,,,,,,70,253010.0,62,80.5,0,0,0,2,3,0,2.0,1.0,-1011.0
1776458845.055732,pre_hover,right,x,1,,,,,,,,70,253019.0,62,80.5,0,0,0,2,3,0,-3.0,15.0,-1006.0
1776458845.1068459,pre_hover,right,x,1,,,,,,,,70,253019.0,62,80.5,0,0,0,2,3,0,-3.0,15.0,-1006.0
1776458845.157227,pre_hover,right,x,1,,,,,,,,60,253017.0,62,80.5,0,0,0,2,3,0,-11.0,17.0,-997.0
1776458845.206521,pre_hover,right,x,1,,,,,,,,60,253017.0,62,80.5,0,0,0,2,3,0,-11.0,17.0,-997.0
1776458845.2558231,pre_hover,right,x,1,,,,,,,,60,253019.0,62,80.5,0,0,0,2,3,0,-29.0,13.0,-1005.0
1776458845.307026,pre_hover,right,x,1,,,,,,,,60,253019.0,62,80.5,0,0,0,2,3,0,-29.0,13.0,-1005.0
1776458845.358345,pre_hover,right,x,1,,,,,,,,60,253006.0,62,80.5,0,0,0,2,3,0,-16.0,21.0,-1019.0
1776458845.409687,pre_hover,right,x,1,,,,,,,,60,253006.0,62,80.5,0,0,0,2,3,0,-16.0,21.0,-1019.0
1776458845.4599712,pre_hover,right,x,1,,,,,,,,60,253006.0,62,80.5,0,0,0,1,3,0,-4.0,-7.0,-1023.0
1776458845.510373,pre_hover,right,x,1,,,,,,,,60,253006.0,62,80.5,0,0,0,1,3,0,-4.0,-7.0,-1023.0
1776458845.559973,pre_hover,right,x,1,,,,,,,,60,253012.0,62,80.5,0,0,0,1,3,0,-1.0,-4.0,-1026.0
1776458845.61076,pre_hover,right,x,1,,,,,,,,60,253012.0,62,80.5,0,0,0,1,3,0,-1.0,-4.0,-1026.0
1776458845.661251,pre_hover,right,x,1,,,,,,,,60,253003.00000000003,62,80.5,0,0,0,1,3,0,0.0,1.0,-1021.0
1776458845.711679,pre_hover,right,x,1,,,,,,,,60,253003.00000000003,62,80.5,0,0,0,1,3,0,0.0,1.0,-1021.0
1776458845.7614238,pre_hover,right,x,1,,,,,,,,60,253000.0,62,80.5,0,0,0,1,3,0,-31.0,0.0,-1023.0
1776458845.8125498,pre_hover,right,x,1,,,,,,,,60,253000.0,62,80.5,0,0,0,1,3,0,-31.0,0.0,-1023.0
1776458845.8629398,pre_hover,right,x,1,,,,,,,,60,252996.0,62,80.5,0,0,0,1,3,0,-28.0,3.0,-1023.0
1776458845.913116,pre_hover,right,x,1,,,,,,,,60,252996.0,62,80.5,0,0,0,1,3,0,-28.0,3.0,-1023.0
1776458845.9634361,pre_hover,right,x,1,,,,,,,,60,252990.0,62,80.5,0,0,0,1,3,0,-15.0,-7.0,-974.0
1776458846.0132759,pre_hover,right,x,1,,,,,,,,60,252990.0,62,80.5,0,0,0,1,3,0,-15.0,-7.0,-974.0
1776458846.064228,pre_hover,right,x,1,,,,,,,,70,252986.0,62,81.0,0,0,0,1,3,0,12.0,-15.0,-1006.0
1776458846.115295,pre_hover,right,x,1,,,,,,,,70,252986.0,62,81.0,0,0,0,1,3,0,12.0,-15.0,-1006.0
1776458846.1662772,pre_hover,right,x,1,,,,,,,,70,252987.0,62,81.0,0,0,0,1,3,0,22.0,-73.0,-1153.0
1776458846.215984,pre_hover,right,x,1,,,,,,,,70,252987.0,62,81.0,0,0,0,1,3,0,22.0,-73.0,-1153.0
1776458846.266459,pre_hover,right,x,1,,,,,,,,70,252971.99999999997,62,81.0,12,-11,-3,0,1,-1,405.0,-168.0,-1259.0
1776458846.8250592,pre_hover,up,y,1,,,,,,,,70,253002.0,62,81.0,52,-151,-167,-4,-8,-9,308.0,559.0,283.0
1776458846.876449,pre_hover,up,y,1,,,,,,,,70,253002.0,62,81.0,52,-151,-167,-4,-8,-9,308.0,559.0,283.0
1776458846.925395,pre_hover,up,y,1,,,,,,,,80,252996.99999999997,62,81.0,32,-54,-50,5,-5,-2,-180.0,-230.0,-149.0
1776458846.97566,pre_hover,up,y,1,,,,,,,,80,252996.99999999997,62,81.0,32,-54,-50,5,-5,-2,-180.0,-230.0,-149.0
1776458847.024982,pre_hover,up,y,1,,,,,,,,70,253000.0,62,81.0,-9,-36,-41,3,-4,7,-271.0,285.0,-93.0
1776458847.0757298,pre_hover,up,y,1,,,,,,,,70,253000.0,62,81.0,-9,-36,-41,3,-4,7,-271.0,285.0,-93.0
1776458847.126473,pre_hover,up,y,1,,,,,,,,60,252984.0,62,81.0,-11,-56,-40,-1,-3,14,418.0,886.0,525.0
1776458847.176743,pre_hover,up,y,1,,,,,,,,60,252984.0,62,81.0,-11,-56,-40,-1,-3,14,418.0,886.0,525.0
1776458847.225719,pre_hover,up,y,1,,,,,,,,50,252973.99999999997,62,81.0,7,-91,-41,3,0,17,611.0,1648.0,1483.0
1776458847.27618,pre_hover,up,y,1,,,1,3.471367031635218,0.16480948676180274,1.9139190627912646,3.155967675180116,50,252973.99999999997,62,81.0,7,-91,-41,3,0,17,611.0,1648.0,1483.0
1776458847.325791,pre_hover,up,y,1,,,,,,,,30,252960.0,62,81.0,12,-134,-53,8,2,10,715.0,1502.0,733.0
1776458847.376008,pre_hover,up,y,1,,,1,3.511303089283381,0.1650495181522703,2.0348349542702,3.2613461053717727,30,252960.0,62,81.0,12,-134,-53,8,2,10,715.0,1502.0,733.0
1776458847.426919,pre_hover,up,y,1,,,,,,,,30,252973.0,62,81.0,10,-162,-60,3,-2,1,549.0,550.0,888.0
1776458847.477372,pre_hover,up,y,1,,,1,3.4994365651139607,0.20183905145328795,1.782707853574986,3.095765264869775,30,252973.0,62,81.0,10,-162,-60,3,-2,1,549.0,550.0,888.0
1776458847.529328,pre_hover,up,y,1,,,,,,,,30,252982.00000000003,62,81.0,13,-163,-58,0,-8,0,435.0,573.0,723.0
1776458847.579293,pre_hover,up,y,1,,,,,,,,30,252982.00000000003,62,81.0,13,-163,-58,0,-8,0,435.0,573.0,723.0
1776458847.629302,pre_hover,up,y,1,,,,,,,,30,252979.0,62,81.0,21,-166,-73,-2,-11,0,573.0,476.0,576.0
1776458847.679426,pre_hover,up,y,1,,,,,,,,30,252979.0,62,81.0,21,-166,-73,-2,-11,0,573.0,476.0,576.0
1776458847.729217,pre_hover,up,y,1,,,,,,,,30,252985.0,62,81.0,23,-169,-82,-4,-14,0,446.0,374.0,735.0
1776458847.7803469,pre_hover,up,y,1,,,,,,,,30,252985.0,62,81.0,23,-169,-82,-4,-14,0,446.0,374.0,735.0
1776458847.831639,pre_hover,up,y,1,,,,,,,,40,252973.0,62,81.0,28,-170,-91,-7,-14,1,292.0,522.0,866.0
1776458847.8828642,pre_hover,up,y,1,,,,,,,,40,252973.0,62,81.0,28,-170,-91,-7,-14,1,292.0,522.0,866.0
1776458847.934473,pre_hover,up,y,1,,,,,,,,0,252973.99999999997,62,81.0,33,-165,-95,-9,-13,1,884.0,439.0,804.0
1776458847.986455,pre_hover,up,y,1,,,,,,,,0,252973.99999999997,62,81.0,33,-165,-95,-9,-13,1,884.0,439.0,804.0
1776458848.036442,pre_hover,up,y,1,,,,,,,,0,252978.00000000003,62,80.5,31,-162,-98,-12,-13,-1,731.0,461.0,1035.0
1776458848.087799,pre_hover,up,y,1,,,,,,,,0,252978.00000000003,62,80.5,31,-162,-98,-12,-13,-1,731.0,461.0,1035.0
1776458848.138239,pre_hover,up,y,1,,,,,,,,0,252987.0,62,80.5,37,-160,-113,-14,-12,-4,423.0,152.0,898.0
1776458848.189057,pre_hover,up,y,1,,,,,,,,0,252987.0,62,80.5,37,-160,-113,-14,-12,-4,423.0,152.0,898.0
1776458848.2399879,pre_hover,up,y,1,,,,,,,,0,252982.00000000003,62,80.5,48,-161,-130,-12,-11,-5,294.0,94.0,966.0
1776458848.290706,pre_hover,up,y,1,,,,,,,,0,252982.00000000003,62,80.5,48,-161,-130,-12,-11,-5,294.0,94.0,966.0
1776458848.341671,pre_hover,up,y,1,,,,,,,,10,252983.0,62,80.5,55,-161,-135,0,0,-2,193.0,-43.0,709.0
1776458848.3908758,pre_hover,up,y,1,,,,,,,,10,252983.0,62,80.5,55,-161,-135,0,0,-2,193.0,-43.0,709.0
1776458848.441576,pre_hover,up,y,1,,,,,,,,10,252981.0,62,80.5,56,-157,-130,0,0,0,297.0,117.0,1048.0
1776458848.49122,pre_hover,up,y,1,,,,,,,,10,252981.0,62,80.5,56,-157,-130,0,0,0,297.0,117.0,1048.0
1776458848.5424619,pre_hover,up,y,1,,,,,,,,10,252976.00000000003,62,80.5,53,-163,-129,0,0,2,570.0,475.0,982.0
1776458848.592596,pre_hover,up,y,1,,,,,,,,10,252976.00000000003,62,80.5,53,-163,-129,0,0,2,570.0,475.0,982.0
1776458848.6416,pre_hover,up,y,1,,,,,,,,10,252976.00000000003,62,80.5,53,-163,-129,0,0,2,570.0,475.0,982.0
1776458848.691366,pre_hover,up,y,1,,,,,,,,10,252980.00000000003,62,80.5,41,-159,-109,0,0,1,771.0,559.0,696.0
1776458848.743789,pre_hover,up,y,1,,,,,,,,10,252980.00000000003,62,80.5,41,-159,-109,0,0,1,771.0,559.0,696.0
1776458848.79342,pre_hover,up,y,1,,,,,,,,0,252981.0,62,80.5,33,-160,-94,0,0,0,579.0,705.0,594.0
1776458848.8443232,pre_hover,up,y,1,,,,,,,,0,252981.0,62,80.5,33,-160,-94,0,0,0,579.0,705.0,594.0
1776458848.895217,pre_hover,up,y,1,,,,,,,,0,252973.99999999997,62,80.5,29,-163,-88,0,0,0,764.0,681.0,489.0
1776458848.946337,pre_hover,up,y,1,,,,,,,,0,252973.99999999997,62,80.5,29,-163,-88,0,0,0,764.0,681.0,489.0
1776458848.996514,pre_hover,up,y,1,,,,,,,,0,252973.0,62,80.5,27,-164,-89,0,0,0,799.0,971.0,730.0
1776458849.0474648,pre_hover,up,y,1,,,,,,,,0,252973.0,62,80.5,27,-164,-89,0,0,0,799.0,971.0,730.0
1776458849.098887,pre_hover,up,y,1,,,,,,,,0,252980.00000000003,62,80.5,30,-157,-103,0,0,-4,744.0,778.0,797.0
1776458849.150503,pre_hover,up,y,1,,,,,,,,0,252980.00000000003,62,80.5,30,-157,-103,0,0,-4,744.0,778.0,797.0
1776458849.199849,pre_hover,up,y,1,,,,,,,,0,252990.0,62,80.5,39,-154,-123,0,0,-7,707.0,702.0,955.0
1776458849.251064,pre_hover,up,y,1,,,,,,,,0,252990.0,62,80.5,39,-154,-123,0,0,-7,707.0,702.0,955.0
1776458849.3015082,pre_hover,up,y,1,,,,,,,,10,252994.99999999997,62,80.5,54,-148,-131,0,0,-8,402.0,417.0,888.0
1776458849.35184,pre_hover,up,y,1,,,,,,,,10,252994.99999999997,62,80.5,54,-148,-131,0,0,-8,402.0,417.0,888.0
1776458849.4022038,pre_hover,up,y,1,,,,,,,,20,252994.99999999997,62,80.5,63,-150,-141,0,0,-5,197.0,467.0,792.0
1776458849.453762,pre_hover,up,y,1,,,,,,,,20,252994.99999999997,62,80.5,63,-150,-141,0,0,-5,197.0,467.0,792.0
1776458849.5046852,pre_hover,up,y,1,,,,,,,,20,252994.0,62,80.5,65,-152,-148,0,0,0,133.0,284.0,793.0
1776458849.555091,pre_hover,up,y,1,,,,,,,,20,252994.0,62,80.5,65,-152,-148,0,0,0,133.0,284.0,793.0
1776458849.606394,pre_hover,up,y,1,,,,,,,,20,252986.0,62,80.5,56,-155,-148,0,0,4,184.0,274.0,927.0
1776458849.656255,pre_hover,up,y,1,,,,,,,,20,252986.0,62,80.5,56,-155,-148,0,0,4,184.0,274.0,927.0
1776458849.705216,pre_hover,up,y,1,,,,,,,,10,252989.0,62,80.5,40,-158,-147,0,0,4,603.0,236.0,1036.0
1776458849.75564,pre_hover,up,y,1,,,,,,,,10,252990.0,62,80.5,25,-162,-139,0,0,0,940.0,239.0,968.0
1776458849.805737,pre_hover,up,y,1,,,,,,,,10,252990.0,62,80.5,25,-162,-139,0,0,0,940.0,239.0,968.0
1776458850.7674172,pre_hover,left,x,1,,,,,,,,50,253023.99999999997,62,80.5,42,-9,-147,0,0,-7,613.0,45.0,-216.0
1776458850.821287,pre_hover,left,x,1,,,,,,,,50,253023.99999999997,62,80.5,42,-9,-147,0,0,-7,613.0,45.0,-216.0
1776458850.874049,pre_hover,left,x,1,,,,,,,,50,253036.0,62,80.5,70,-3,-123,0,0,-2,386.0,-95.0,-404.0
1776458850.925457,pre_hover,left,x,1,,,,,,,,50,253036.0,62,80.5,70,-3,-123,0,0,-2,386.0,-95.0,-404.0
1776458850.975748,pre_hover,left,x,1,,,,,,,,50,253034.0,62,80.5,62,75,-43,0,0,0,770.0,116.0,-426.0
1776458851.025289,pre_hover,left,x,1,,,,,,,,50,253034.0,62,80.5,62,75,-43,0,0,0,770.0,116.0,-426.0
1776458851.075779,pre_hover,left,x,1,,,,,,,,50,253038.0,62,80.5,62,65,-56,0,0,0,829.0,-171.0,-172.0
1776458851.125346,pre_hover,left,x,1,,,,,,,,50,253038.0,62,80.5,62,65,-56,0,0,0,829.0,-171.0,-172.0
1776458851.175772,pre_hover,left,x,1,,,,,,,,50,253035.0,62,80.5,68,63,-67,0,0,2,820.0,-305.0,-225.0
1776458851.2258098,pre_hover,left,x,1,,,,,,,,50,253035.0,62,80.5,68,63,-67,0,0,2,820.0,-305.0,-225.0
1776458851.27679,pre_hover,left,x,1,,,,,,,,40,253040.0,62,80.5,68,63,-73,0,0,1,976.0,-162.0,-272.0
1776458851.327185,pre_hover,left,x,1,,,,,,,,40,253040.0,62,80.5,68,63,-73,0,0,1,976.0,-162.0,-272.0
1776458851.377871,pre_hover,left,x,1,,,,,,,,0,253025.0,62,80.5,65,65,-78,0,0,2,913.0,-225.0,-207.0
1776458851.428619,pre_hover,left,x,1,,,,,,,,0,253025.0,62,80.5,65,65,-78,0,0,2,913.0,-225.0,-207.0
1776458851.479667,pre_hover,left,x,1,,,,,,,,0,253023.99999999997,62,80.5,68,42,-127,0,0,1,967.0,-223.0,-226.0
1776458851.5284421,pre_hover,left,x,1,,,,,,,,0,253023.99999999997,62,80.5,68,42,-127,0,0,1,967.0,-223.0,-226.0
1776458851.577616,pre_hover,left,x,1,,,,,,,,0,253014.0,62,80.5,61,-23,137,0,0,3,797.0,103.0,-254.0
1776458851.626071,pre_hover,left,x,1,,,,,,,,0,253014.0,62,80.5,61,-23,137,0,0,3,797.0,103.0,-254.0
1776458851.676286,pre_hover,left,x,1,,,,,,,,0,253015.0,62,80.5,62,-40,101,0,0,5,671.0,128.0,-330.0
1776458851.725267,pre_hover,left,x,1,,,,,,,,0,253015.0,62,80.5,62,-40,101,0,0,5,671.0,128.0,-330.0
1776458851.775616,pre_hover,left,x,1,,,,,,,,-10,253010.0,62,80.5,55,-44,89,0,0,6,777.0,512.0,-343.0
1776458851.826433,pre_hover,left,x,1,,,,,,,,-10,253010.0,62,80.5,55,-44,89,0,0,6,777.0,512.0,-343.0
1776458851.875856,pre_hover,left,x,1,,,,,,,,-10,253005.00000000003,62,80.5,44,-48,80,0,0,5,880.0,437.0,-259.0
1776458851.925641,pre_hover,left,x,1,,,,,,,,-10,253005.00000000003,62,80.5,44,-48,80,0,0,5,880.0,437.0,-259.0
1776458851.976383,pre_hover,left,x,1,,,,,,,,-20,253017.0,62,80.5,28,-44,69,0,0,3,905.0,820.0,-457.0
1776458852.0259242,pre_hover,left,x,1,,,,,,,,-20,253017.0,62,80.5,28,-44,69,0,0,3,905.0,820.0,-457.0
1776458852.076142,pre_hover,left,x,1,,,,,,,,-20,253004.0,62,80.5,12,-36,58,0,0,2,674.0,619.0,-458.0
1776458852.1273978,pre_hover,left,x,1,,,,,,,,-20,253004.0,62,80.5,12,-36,58,0,0,2,674.0,619.0,-458.0
1776458852.178988,pre_hover,left,x,1,,,,,,,,-20,253008.0,62,80.5,15,-33,49,0,0,4,154.0,444.0,-668.0
1776458852.228829,pre_hover,left,x,1,,,,,,,,-20,253008.0,62,80.5,15,-33,49,0,0,4,154.0,444.0,-668.0
1776458852.2796469,pre_hover,left,x,1,,,,,,,,-30,253005.00000000003,62,80.5,11,-31,41,0,0,4,324.0,380.0,-819.0
1776458852.32968,pre_hover,left,x,1,,,,,,,,-30,253005.00000000003,62,80.5,11,-31,41,0,0,4,324.0,380.0,-819.0
1776458852.38099,pre_hover,left,x,1,,,,,,,,-30,252998.99999999997,62,80.5,9,-19,33,0,0,4,72.0,254.0,-884.0
1776458852.431833,pre_hover,left,x,1,,,,,,,,-30,252998.99999999997,62,80.5,9,-19,33,0,0,4,72.0,254.0,-884.0
1776458852.483108,pre_hover,left,x,1,,,,,,,,0,253000.0,62,80.5,11,-6,19,0,0,1,113.0,468.0,-1269.0
1776458852.5340312,pre_hover,left,x,1,,,,,,,,0,253000.0,62,80.5,11,-6,19,0,0,1,113.0,468.0,-1269.0
1776458852.58545,pre_hover,left,x,1,,,,,,,,0,253002.0,62,80.5,13,-7,15,0,0,1,13.0,40.0,-949.0
1776458852.6379871,pre_hover,left,x,1,,,,,,,,0,253002.0,62,80.5,13,-7,15,0,0,1,13.0,40.0,-949.0
1776458852.689018,pre_hover,left,x,1,,,,,,,,0,252998.0,62,80.5,12,-5,10,0,0,2,136.0,91.0,-844.0
1776458852.73917,pre_hover,left,x,1,,,,,,,,0,253004.0,62,80.5,8,-6,9,0,0,3,151.0,38.0,-845.0
1776458852.78965,pre_hover,left,x,1,,,,,,,,0,253004.0,62,80.5,8,-6,9,0,0,3,151.0,38.0,-845.0
1776458852.840171,pre_hover,left,x,1,,,2,-0.47870743832738316,1.9353777594468715,3.659887871247474,3.8077383831458507,0,252994.99999999997,62,80.5,1,-9,7,0,0,3,197.0,139.0,-972.0
1776458852.891089,pre_hover,left,x,1,,,,,,,,0,252994.99999999997,62,80.5,1,-9,7,0,0,3,197.0,139.0,-972.0
1776458852.941073,pre_hover,left,x,1,,,,,,,,0,252994.99999999997,62,80.5,-1,-8,6,0,0,3,-81.0,281.0,-951.0
1776458852.991353,pre_hover,left,x,1,,,2,-0.007135668123768785,1.2060706756048212,3.8256181450807487,3.831170869730932,0,252994.99999999997,62,80.5,-1,-8,6,0,0,3,-81.0,281.0,-951.0
1776458853.0432582,pre_hover,left,x,1,,,3,-0.3761305151383567,0.7598992199685201,3.286376489341366,3.5709458143414006,0,252994.99999999997,62,80.5,-1,-8,6,0,0,3,-81.0,281.0,-951.0
1776458853.093545,pre_hover,left,x,1,,,,,,,,0,252982.00000000003,62,80.0,2,-3,8,0,0,0,-51.0,122.0,-789.0
1776458853.14448,pre_hover,left,x,1,,,,,,,,0,252982.00000000003,62,80.0,2,-3,8,0,0,0,-51.0,122.0,-789.0
1776458853.192908,pre_hover,left,x,1,,,,,,,,0,252986.0,62,80.0,-3,-6,11,0,0,2,23.0,124.0,-850.0
1776458853.243594,pre_hover,left,x,1,,,2,0.9496217077829912,0.28480323233807925,3.137908416341054,3.3555561437280055,0,252986.0,62,80.0,-3,-6,11,0,0,2,23.0,124.0,-850.0
1776458853.293157,pre_hover,left,x,1,,,2,-1.3112495605544865,1.0764988861496954,2.99603751867884,3.271309875717637,0,252992.99999999997,62,80.0,-2,-8,12,0,0,4,-199.0,181.0,-601.0
1776458853.344241,pre_hover,left,x,1,,,,,,,,0,252981.0,62,80.0,-8,-8,13,0,0,7,-20.0,-44.0,-688.0
1776458853.3947752,pre_hover,left,x,1,,,,,,,,0,252981.0,62,80.0,-8,-8,13,0,0,7,-20.0,-44.0,-688.0
1776458853.445118,pre_hover,left,x,1,,,,,,,,-10,252967.0,62,80.0,-15,-8,11,0,0,8,-347.0,33.0,-985.0
1776458853.4945412,pre_hover,left,x,1,,,,,,,,-10,252967.0,62,80.0,-15,-8,11,0,0,8,-347.0,33.0,-985.0
1776458853.54609,pre_hover,left,x,1,,,,,,,,-20,252963.0,62,80.0,-14,-6,5,0,0,9,-415.0,115.0,-838.0
1776458853.595954,pre_hover,left,x,1,,,,,,,,-20,252963.0,62,80.0,-14,-6,5,0,0,9,-415.0,115.0,-838.0
1776458853.647082,pre_hover,left,x,1,,,,,,,,-20,252956.0,62,80.0,-17,-4,2,0,0,9,-579.0,136.0,-1044.0
1776458853.70693,pre_hover,left,x,1,,,,,,,,-20,252956.0,62,80.0,-17,-4,2,0,0,9,-579.0,136.0,-1044.0
1776458853.756372,pre_hover,left,x,1,,,,,,,,-30,252948.99999999997,62,80.0,-15,-1,4,0,0,8,-407.0,76.0,-911.0
1776458854.722878,pre_hover,down,y,1,,,,,,,,0,252916.0,62,81.0,0,0,5,0,0,0,47.0,-36.0,-1011.0
1776458854.774664,pre_hover,down,y,1,,,,,,,,0,252921.0,62,81.0,0,0,5,0,0,0,20.0,-3.0,-1000.0
1776458854.824576,pre_hover,down,y,1,,,,,,,,0,252921.0,62,81.0,0,0,5,0,0,0,20.0,-3.0,-1000.0
1776458854.8751948,pre_hover,down,y,1,,,,,,,,0,252915.0,62,81.0,0,0,5,0,0,0,-29.0,34.0,-1006.0
1776458854.924551,pre_hover,down,y,1,,,,,,,,0,252915.0,62,81.0,0,0,5,0,0,0,-29.0,34.0,-1006.0
1776458854.974663,pre_hover,down,y,1,,,,,,,,0,252911.0,62,81.0,0,0,5,0,0,0,-6.0,15.0,-1006.0
1776458855.0236459,pre_hover,down,y,1,,,,,,,,0,252911.0,62,81.0,0,0,5,0,0,0,-6.0,15.0,-1006.0
1776458855.073844,pre_hover,down,y,1,,,,,,,,0,252916.0,62,81.5,0,0,5,0,0,0,-5.0,15.0,-1004.0
1776458855.1230679,pre_hover,down,y,1,,,,,,,,0,252916.0,62,81.5,0,0,5,0,0,0,-5.0,15.0,-1004.0
1776458855.1729321,pre_hover,down,y,1,,,,,,,,0,252916.0,62,81.5,0,0,5,0,0,0,-5.0,15.0,-1004.0
1776458855.2227352,pre_hover,down,y,1,,,,,,,,0,252915.0,62,81.5,0,0,5,0,0,0,-4.0,17.0,-1004.0
1776458855.272945,pre_hover,down,y,1,,,,,,,,0,252915.0,62,81.5,0,0,5,0,0,0,-4.0,17.0,-1004.0
1776458855.323725,pre_hover,down,y,1,,,,,,,,0,252916.0,62,81.5,0,0,5,0,0,0,-5.0,17.0,-1005.0
1776458855.374086,pre_hover,down,y,1,,,,,,,,0,252916.0,62,81.5,0,0,5,0,0,0,-5.0,17.0,-1005.0
1776458855.424173,pre_hover,down,y,1,,,,,,,,0,252911.0,62,81.5,0,0,5,0,0,0,-4.0,15.0,-1003.0
1776458855.473859,pre_hover,down,y,1,,,,,,,,0,252911.0,62,81.5,0,0,5,0,0,0,-4.0,15.0,-1003.0
1776458855.523328,pre_hover,down,y,1,,,,,,,,0,252913.0,62,81.5,0,0,5,0,0,0,-5.0,17.0,-1005.0
1776458855.5737998,pre_hover,down,y,1,,,,,,,,0,252913.0,62,81.5,0,0,5,0,0,0,-5.0,17.0,-1005.0
1776458855.623431,pre_hover,down,y,1,,,,,,,,0,252907.00000000003,62,81.5,0,0,5,0,0,0,-18.0,16.0,-1006.0
1776458855.674186,pre_hover,down,y,1,,,,,,,,0,252907.00000000003,62,81.5,0,0,5,0,0,0,-18.0,16.0,-1006.0
1776458855.724528,pre_hover,down,y,1,,,,,,,,0,252913.0,62,81.5,0,0,5,0,0,0,-42.0,81.0,-1007.0
1776458855.7756832,pre_hover,down,y,1,,,,,,,,0,252913.0,62,81.5,0,0,5,0,0,0,-42.0,81.0,-1007.0
1776458855.826067,pre_hover,down,y,1,,,,,,,,0,252913.0,62,81.5,0,0,5,0,0,0,-7.0,15.0,-1007.0
1776458855.875818,pre_hover,down,y,1,,,,,,,,0,252913.0,62,81.5,0,0,5,0,0,0,-7.0,15.0,-1007.0
1776458855.9260821,pre_hover,down,y,1,,,,,,,,0,252916.0,62,81.5,0,0,1,0,0,0,-358.0,49.0,-1481.0
1776458855.975275,pre_hover,down,y,1,,,,,,,,0,252916.0,62,81.5,0,0,1,0,0,0,-358.0,49.0,-1481.0
1776458856.025995,pre_hover,down,y,1,,,,,,,,0,252915.0,62,81.5,-2,2,3,0,0,-4,-75.0,-121.0,-1154.0
1776458856.075961,pre_hover,down,y,1,,,,,,,,0,252915.0,62,81.5,-2,2,3,0,0,-4,-75.0,-121.0,-1154.0
1776458856.1256351,pre_hover,down,y,1,,,,,,,,0,252913.0,62,81.0,-5,3,2,0,0,-5,-129.0,-75.0,-704.0
1776458856.175437,pre_hover,down,y,1,,,,,,,,0,252913.0,62,81.0,-5,3,2,0,0,-5,-129.0,-75.0,-704.0
1776458856.223915,pre_hover,down,y,1,,,,,,,,0,252921.0,62,81.0,-1,2,-6,0,0,-2,-66.0,-431.0,-731.0
1776458856.274928,pre_hover,down,y,1,,,,,,,,0,252921.0,62,81.0,-1,2,-6,0,0,-2,-66.0,-431.0,-731.0
1776458856.325025,pre_hover,down,y,1,,,,,,,,0,252923.0,62,81.0,0,3,-8,0,0,0,-415.0,-151.0,-617.0
1776458856.375274,pre_hover,down,y,1,,,,,,,,0,252923.0,62,81.0,0,3,-8,0,0,0,-415.0,-151.0,-617.0
1776458856.4261398,pre_hover,down,y,1,,,,,,,,0,252915.0,62,81.0,-6,6,-6,0,0,3,-128.0,-127.0,-922.0
1776458856.475976,pre_hover,down,y,1,,,,,,,,0,252915.0,62,81.0,-6,6,-6,0,0,3,-128.0,-127.0,-922.0
1776458856.526261,pre_hover,down,y,1,,,,,,,,0,252919.99999999997,62,81.0,-6,6,-6,0,0,3,-2.0,85.0,-1359.0
1776458856.576141,pre_hover,down,y,1,,,,,,,,0,252910.0,62,81.0,-3,2,-10,0,0,0,180.0,180.0,-1227.0
1776458856.62654,pre_hover,down,y,1,,,,,,,,0,252910.0,62,81.0,-3,2,-10,0,0,0,180.0,180.0,-1227.0
1776458856.676536,pre_hover,down,y,1,,,,,,,,0,252917.0,62,81.0,-5,0,-8,0,0,0,-232.0,648.0,-947.0
1776458856.7268429,pre_hover,down,y,1,,,,,,,,0,252917.0,62,81.0,-5,0,-8,0,0,0,-232.0,648.0,-947.0
1776458856.77677,pre_hover,down,y,1,,,,,,,,0,252916.0,62,81.0,-1,-3,-12,0,0,0,-39.0,-240.0,-1226.0
1776458856.825709,pre_hover,down,y,1,,,,,,,,0,252916.0,62,81.0,-1,-3,-12,0,0,0,-39.0,-240.0,-1226.0
1776458856.8750432,pre_hover,down,y,1,,,,,,,,0,252910.0,62,81.0,0,-14,-10,0,0,1,125.0,542.0,-2410.0
1776458856.9244852,pre_hover,down,y,1,,,,,,,,0,252910.0,62,81.0,0,-14,-10,0,0,1,125.0,542.0,-2410.0
1776458856.974943,pre_hover,down,y,1,,,,,,,,0,252911.0,62,81.0,0,-8,-15,0,0,0,-207.0,254.0,-1073.0
1776458857.025003,pre_hover,down,y,1,,,,,,,,0,252911.0,62,81.0,0,-8,-15,0,0,0,-207.0,254.0,-1073.0
1776458857.083251,pre_hover,down,y,1,,,,,,,,0,252916.0,62,80.5,0,-2,-7,0,0,0,184.0,344.0,-1050.0
1776458857.135156,pre_hover,down,y,1,,,,,,,,0,252916.0,62,80.5,0,-2,-7,0,0,0,184.0,344.0,-1050.0
1776458857.1867142,pre_hover,down,y,1,,,,,,,,0,252913.0,62,80.5,0,0,-8,0,0,0,-24.0,-4.0,-1003.0
1776458857.237302,pre_hover,down,y,1,,,,,,,,0,252913.0,62,80.5,0,0,-8,0,0,0,-24.0,-4.0,-1003.0
1776458857.2875829,pre_hover,down,y,1,,,,,,,,0,252907.00000000003,62,80.5,0,0,-8,0,0,0,-89.0,-67.0,-992.0
1776458857.3387148,pre_hover,down,y,1,,,,,,,,0,252907.00000000003,62,80.5,0,0,-8,0,0,0,-89.0,-67.0,-992.0
1776458857.3893352,pre_hover,down,y,1,,,,,,,,0,252911.0,62,80.5,0,0,-7,0,0,0,-72.0,-51.0,-1003.0
1776458857.439796,pre_hover,down,y,1,,,,,,,,0,252911.0,62,80.5,0,0,-7,0,0,0,-72.0,-51.0,-1003.0
1776458857.489732,pre_hover,down,y,1,,,,,,,,0,252911.0,62,80.5,0,0,-6,0,0,0,-72.0,-46.0,-995.0
1776458857.539217,pre_hover,down,y,1,,,,,,,,0,252911.0,62,80.5,0,0,-6,0,0,0,-72.0,-46.0,-995.0
1776458857.589476,pre_hover,down,y,1,,,,,,,,0,252910.0,62,80.5,0,0,-6,0,0,0,6.0,10.0,-1006.0
1776458857.640243,pre_hover,down,y,1,,,,,,,,0,252910.0,62,80.5,0,0,-6,0,0,0,6.0,10.0,-1006.0
1776458857.689912,pre_hover,down,y,1,,,,,,,,0,252910.0,62,80.5,0,0,-6,0,0,0,-10.0,2.0,-1001.0
