timestamp,phase,command,axis,repeat,t_send,t_since_cmd,marker_id,pos_x,pos_y,pos_z,marker_dist,tello_height_cm,tello_baro_cm,tello_battery,tello_temp_c,tello_pitch,tello_roll,tello_yaw,tello_vgx,tello_vgy,tello_vgz,tello_agx,tello_agy,tello_agz
1776459844.967534,init_hover,none,-,0,,,0,-0.6892299209034285,0.145850609879002,3.439323529217692,3.536981183303957,60,253054.0,90,80.0,0,-3,-71,0,0,0,-16.0,37.0,-974.0
1776459845.173229,init_hover,none,-,0,,,,,,,,60,253059.0,90,79.5,0,-1,-71,0,0,0,-7.0,43.0,-991.0
1776459845.223521,init_hover,none,-,0,,,,,,,,60,253059.0,90,79.5,0,-1,-71,0,0,0,-7.0,43.0,-991.0
1776459845.2737951,init_hover,none,-,0,,,,,,,,60,253046.99999999997,90,79.5,0,-1,-71,0,0,0,-21.0,29.0,-1012.0
1776459845.3240519,init_hover,none,-,0,,,,,,,,60,253046.99999999997,90,79.5,0,-1,-71,0,0,0,-21.0,29.0,-1012.0
1776459845.3745852,init_hover,none,-,0,,,,,,,,60,253046.99999999997,90,79.5,0,-1,-71,0,0,0,-21.0,29.0,-1012.0
1776459845.424874,init_hover,none,-,0,,,,,,,,60,253046.0,90,79.5,0,-1,-71,0,0,0,-15.0,18.0,-993.0
1776459845.486538,init_hover,none,-,0,,,0,-0.8577938265109786,0.12138061724066757,3.3105423498681095,3.4531981426821625,60,253050.0,90,79.5,0,-1,-71,0,0,0,-23.0,3.0,-1003.0
1776459845.5405598,init_hover,none,-,0,,,0,-0.9414489818010255,0.3011893715937555,3.3322751392400303,3.4755821930404527,60,253050.0,90,79.5,0,-1,-71,0,0,0,-23.0,3.0,-1003.0
1776459845.591744,init_hover,none,-,0,,,,,,,,60,253039.0,90,79.5,0,-1,-71,0,0,0,-25.0,14.0,-1040.0
1776459845.6421492,init_hover,none,-,0,,,,,,,,60,253039.0,90,79.5,0,-1,-71,0,0,0,-25.0,14.0,-1040.0
1776459845.691648,init_hover,none,-,0,,,,,,,,60,253050.0,90,79.5,0,0,-70,0,0,0,-21.0,43.0,-1043.0
1776459845.740785,init_hover,none,-,0,,,0,-0.7438827516184569,0.39519651216114626,3.4419290336840267,3.5273476564840425,60,253050.0,90,79.5,0,0,-70,0,0,0,-21.0,43.0,-1043.0
1776459845.792233,init_hover,none,-,0,,,,,,,,50,253055.00000000003,90,79.5,0,0,-70,0,0,0,-13.0,13.0,-1012.0
1776459845.843758,init_hover,none,-,0,,,,,,,,50,253055.00000000003,90,79.5,0,0,-70,0,0,0,-13.0,13.0,-1012.0
1776459845.893698,init_hover,none,-,0,,,,,,,,50,253050.0,90,79.5,0,0,-70,0,0,0,-24.0,23.0,-1010.0
1776459845.944343,init_hover,none,-,0,,,,,,,,50,253050.0,90,79.5,0,0,-70,0,0,0,-24.0,23.0,-1010.0
1776459845.994522,init_hover,none,-,0,,,,,,,,50,253046.99999999997,90,79.5,0,0,-70,0,0,0,-26.0,24.0,-999.0
1776459846.045887,init_hover,none,-,0,,,0,-0.7384088992349329,0.3789997767534765,3.4391179278817345,3.5244320000564513,50,253046.99999999997,90,79.5,0,0,-70,0,0,0,-26.0,24.0,-999.0
1776459846.096753,init_hover,none,-,0,,,,,,,,60,253054.0,90,79.5,0,-1,-70,0,0,0,-34.0,21.0,-1027.0
1776459846.147926,init_hover,none,-,0,,,,,,,,60,253054.0,90,79.5,0,-1,-70,0,0,0,-34.0,21.0,-1027.0
1776459846.198793,init_hover,none,-,0,,,,,,,,60,253053.00000000003,90,79.5,0,-1,-70,0,0,0,-20.0,10.0,-1013.0
1776459846.249832,init_hover,none,-,0,,,,,,,,60,253053.00000000003,90,79.5,0,-1,-70,0,0,0,-20.0,10.0,-1013.0
1776459846.2992709,init_hover,none,-,0,,,,,,,,60,253056.0,89,79.5,0,-1,-70,0,0,0,-17.0,22.0,-991.0
1776459846.351687,init_hover,none,-,0,,,,,,,,60,253056.0,89,79.5,0,-1,-70,0,0,0,-17.0,22.0,-991.0
1776459846.403918,init_hover,none,-,0,,,,,,,,60,253051.00000000003,89,79.5,0,-1,-70,0,0,0,-20.0,29.0,-987.0
1776459846.455405,init_hover,none,-,0,,,,,,,,60,253051.00000000003,89,79.5,0,-1,-70,0,0,0,-20.0,29.0,-987.0
1776459846.506788,init_hover,none,-,0,,,0,-1.0450746688925605,0.43911270614242287,3.3136414845706903,3.47825900029793,60,253055.00000000003,89,79.5,0,-1,-70,0,0,0,-13.0,28.0,-963.0
1776459846.558093,init_hover,none,-,0,,,,,,,,60,253055.00000000003,89,79.5,0,-1,-70,0,0,0,-13.0,28.0,-963.0
1776459846.609257,init_hover,none,-,0,,,,,,,,60,253042.99999999997,89,79.5,0,-1,-70,0,0,0,-9.0,49.0,-978.0
1776459846.660001,init_hover,none,-,0,,,0,-0.6530976564214304,0.118503543065138,3.3965832687163866,3.492155965616095,60,253042.99999999997,89,79.5,0,-1,-70,0,0,0,-9.0,49.0,-978.0
1776459846.710242,init_hover,none,-,0,,,,,,,,60,253042.99999999997,89,79.5,0,-1,-70,0,0,0,0.0,17.0,-979.0
1776459846.760422,init_hover,none,-,0,,,,,,,,60,253042.99999999997,89,79.5,0,-1,-70,0,0,0,0.0,17.0,-979.0
1776459846.810574,init_hover,none,-,0,,,0,-0.9384627529177914,0.27470489950333954,3.320331646396689,3.4657079338981407,60,253046.99999999997,89,79.5,0,-1,-70,0,0,0,-1.0,32.0,-1034.0
1776459846.860448,init_hover,none,-,0,,,,,,,,60,253046.99999999997,89,79.5,0,-1,-70,0,0,0,-1.0,32.0,-1034.0
1776459846.91262,init_hover,none,-,0,,,0,-0.7328891920673702,0.3837643841431262,3.3891820419226977,3.474253779260443,60,253038.0,89,79.5,0,-1,-70,0,0,0,-12.0,19.0,-1033.0
1776459846.963873,init_hover,none,-,0,,,,,,,,60,253038.0,89,79.5,0,-1,-70,0,0,0,-12.0,19.0,-1033.0
1776459847.015149,init_hover,none,-,0,,,,,,,,60,253055.00000000003,89,79.5,0,-1,-70,0,0,0,-24.0,22.0,-992.0
1776459847.0650911,init_hover,none,-,0,,,,,,,,60,253055.00000000003,89,79.5,0,-1,-70,0,0,0,-24.0,22.0,-992.0
1776459847.1150541,init_hover,none,-,0,,,,,,,,60,253055.00000000003,89,79.5,0,-1,-70,0,0,0,-10.0,39.0,-1005.0
1776459847.164594,init_hover,none,-,0,,,,,,,,60,253055.00000000003,89,79.5,0,-1,-70,0,0,0,-10.0,39.0,-1005.0
1776459847.2162309,init_hover,none,-,0,,,,,,,,60,253046.0,89,79.5,0,-1,-70,0,0,0,-9.0,20.0,-1003.0
1776459847.26564,init_hover,none,-,0,,,0,-0.8625043064293558,0.09186492477324182,3.2891793769675672,3.438141344848062,60,253046.0,89,79.5,0,-1,-70,0,0,0,-9.0,20.0,-1003.0
1776459847.3153112,init_hover,none,-,0,,,,,,,,60,253054.0,89,79.5,0,-1,-70,0,0,0,-11.0,11.0,-989.0
1776459847.3666072,init_hover,none,-,0,,,0,-0.6430317097155648,-0.10452540851325565,3.3096499483205513,3.4443618583648727,60,253054.0,89,79.5,0,-1,-70,0,0,0,-11.0,11.0,-989.0
1776459847.416703,init_hover,none,-,0,,,,,,,,60,253039.0,89,79.5,0,-1,-70,0,0,0,-12.0,15.0,-986.0
1776459847.468701,init_hover,none,-,0,,,,,,,,60,253039.0,89,79.5,0,-1,-70,0,0,0,-12.0,15.0,-986.0
1776459847.521155,init_hover,none,-,0,,,,,,,,60,253044.0,89,79.5,0,-1,-70,0,0,0,-19.0,16.0,-998.0
1776459847.573406,init_hover,none,-,0,,,,,,,,60,253044.0,89,79.5,0,-1,-70,0,0,0,-19.0,16.0,-998.0
1776459847.625553,init_hover,none,-,0,,,,,,,,60,253039.0,89,79.5,0,-1,-70,0,0,0,-9.0,20.0,-1003.0
1776459847.677546,init_hover,none,-,0,,,,,,,,60,253039.0,89,79.5,0,-1,-70,0,0,0,-9.0,20.0,-1003.0
1776459847.728946,init_hover,none,-,0,,,0,-0.8732247200726642,0.08082797185861468,3.272566130050936,3.4266237146945366,60,253051.00000000003,89,79.5,0,-1,-70,0,0,0,5.0,8.0,-1017.0
1776459847.780115,init_hover,none,-,0,,,,,,,,60,253051.00000000003,89,79.5,0,-1,-70,0,0,0,5.0,8.0,-1017.0
1776459847.830815,init_hover,none,-,0,,,,,,,,60,253048.99999999997,89,79.5,0,-1,-70,0,0,0,-14.0,19.0,-988.0
1776459847.8816168,init_hover,none,-,0,,,,,,,,60,253048.99999999997,89,79.5,0,-1,-70,0,0,0,-14.0,19.0,-988.0
1776459847.932728,init_hover,none,-,0,,,,,,,,60,253046.99999999997,89,79.5,0,-1,-70,0,0,0,-14.0,9.0,-942.0
1776459847.9840431,init_hover,none,-,0,,,,,,,,60,253046.99999999997,89,79.5,0,-1,-70,0,0,0,-14.0,9.0,-942.0
1776459848.035228,init_hover,none,-,0,,,,,,,,60,253044.99999999997,89,79.5,0,-1,-70,0,0,0,-35.0,48.0,-1001.0
1776459848.0884538,init_hover,none,-,0,,,0,-0.6635823886683685,-0.100617995886774,3.2940577937381246,3.4324952893191414,60,253044.99999999997,89,79.5,0,-1,-70,0,0,0,-35.0,48.0,-1001.0
1776459848.13921,init_hover,none,-,0,,,,,,,,60,253053.00000000003,89,79.5,0,-1,-70,0,0,0,-4.0,17.0,-974.0
1776459848.190353,init_hover,none,-,0,,,,,,,,60,253053.00000000003,89,79.5,0,-1,-70,0,0,0,-4.0,17.0,-974.0
1776459848.240492,init_hover,none,-,0,,,0,-0.8797008415932536,0.07823778969087314,3.2645893781489,3.421060242487578,60,253053.00000000003,89,79.5,0,-1,-70,0,0,0,-4.0,17.0,-974.0
1776459848.291926,init_hover,none,-,0,,,,,,,,60,253060.0,89,80.0,0,-1,-70,0,0,0,0.0,30.0,-969.0
1776459848.3422332,init_hover,none,-,0,,,,,,,,60,253054.0,88,80.0,0,-1,-70,0,0,0,0.0,19.0,-995.0
1776459848.3974679,init_hover,none,-,0,,,0,-0.9430404811283251,0.2626093015201684,3.2516041695710736,3.4023649874814197,60,253054.0,88,80.0,0,-1,-70,0,0,0,0.0,19.0,-995.0
1776459848.450731,init_hover,none,-,0,,,,,,,,60,253054.0,88,80.0,0,-1,-70,0,0,0,-11.0,24.0,-987.0
1776459848.501889,init_hover,none,-,0,,,,,,,,60,253054.0,88,80.0,0,-1,-70,0,0,0,-11.0,24.0,-987.0
1776459848.561168,init_hover,none,-,0,,,,,,,,60,253053.00000000003,88,80.0,0,-1,-70,0,0,0,-8.0,35.0,-989.0
1776459848.611562,init_hover,none,-,0,,,,,,,,60,253053.00000000003,88,80.0,0,-1,-70,0,0,0,-8.0,35.0,-989.0
1776459848.662899,init_hover,none,-,0,,,,,,,,60,253051.00000000003,88,80.0,0,-1,-70,0,0,0,1.0,-8.0,-1002.0
1776459848.713822,init_hover,none,-,0,,,,,,,,60,253051.00000000003,88,80.0,0,-1,-70,0,0,0,1.0,-8.0,-1002.0
1776459848.765631,init_hover,none,-,0,,,,,,,,60,253052.0,88,80.0,0,-1,-70,0,0,0,-3.0,30.0,-975.0
1776459848.8178408,init_hover,none,-,0,,,,,,,,60,253052.0,88,80.0,0,-1,-70,0,0,0,-3.0,30.0,-975.0
1776459848.8692338,init_hover,none,-,0,,,,,,,,60,253056.0,88,80.0,0,-1,-70,0,0,0,15.0,8.0,-991.0
1776459848.921582,init_hover,none,-,0,,,0,0.6844029605157597,1.090829041704334,3.323044601784073,3.42811113967873,60,253056.0,88,80.0,0,-1,-70,0,0,0,15.0,8.0,-991.0
1776459848.97328,init_hover,none,-,0,,,0,0.938112603023803,0.9378977614207309,3.256733301725919,3.4059568335044768,60,253058.0,88,80.0,0,0,-70,0,0,0,-7.0,23.0,-1016.0
1776459849.023328,init_hover,none,-,0,,,0,1.021597351434008,0.7735407524721063,3.2145118055137183,3.3774048749021235,60,253060.0,88,80.0,1,0,-70,0,0,0,4.0,1.0,-988.0
1776459849.073333,init_hover,none,-,0,,,0,0.9367551736394604,0.9376946309410068,3.258127103743436,3.406895968950955,60,253060.0,88,80.0,1,0,-70,0,0,0,4.0,1.0,-988.0
1776459849.123094,init_hover,none,-,0,,,0,1.0204354178108475,0.7730417184049596,3.215886531618512,3.3783365821771936,60,253055.00000000003,88,80.0,1,0,-70,0,0,0,8.0,29.0,-991.0
1776459849.1732218,init_hover,none,-,0,,,,,,,,60,253055.00000000003,88,80.0,1,0,-70,0,0,0,8.0,29.0,-991.0
1776459849.223058,init_hover,none,-,0,,,,,,,,60,253055.00000000003,88,80.0,1,0,-70,0,0,0,8.0,29.0,-991.0
1776459849.274226,init_hover,none,-,0,,,0,0.9223308685649745,0.9365271420413399,3.21939305614363,3.365774264323761,60,253060.0,88,79.5,1,0,-70,0,0,0,10.0,8.0,-967.0
1776459849.3244328,init_hover,none,-,0,,,0,0.662324165829756,1.0846753513407563,3.288567105747552,3.389433154060454,60,253050.0,88,79.5,1,0,-70,0,0,0,20.0,10.0,-979.0
1776459849.376362,init_hover,none,-,0,,,,,,,,60,253050.0,88,79.5,1,0,-70,0,0,0,20.0,10.0,-979.0
1776459849.42686,init_hover,none,-,0,,,,,,,,60,253051.00000000003,88,79.5,1,0,-70,0,0,0,0.0,13.0,-1011.0
1776459849.477516,init_hover,none,-,0,,,0,0.6604152082008,1.085046668894027,3.289810302532752,3.39032009475193,60,253051.00000000003,88,79.5,1,0,-70,0,0,0,0.0,13.0,-1011.0
1776459849.52801,init_hover,none,-,0,,,0,0.6604152082008,1.085046668894027,3.289810302532752,3.39032009475193,60,253051.00000000003,88,79.5,1,0,-70,0,0,0,-4.0,38.0,-997.0
1776459849.579762,init_hover,none,-,0,,,0,0.6604152082008,1.085046668894027,3.289810302532752,3.39032009475193,60,253051.00000000003,88,79.5,1,0,-70,0,0,0,-4.0,38.0,-997.0
1776459849.6297228,init_hover,none,-,0,,,0,0.6604152082008,1.085046668894027,3.289810302532752,3.39032009475193,60,253057.00000000003,88,79.5,1,0,-70,0,0,0,8.0,6.0,-1001.0
1776459849.681539,init_hover,none,-,0,,,,,,,,60,253057.00000000003,88,79.5,1,0,-70,0,0,0,8.0,6.0,-1001.0
1776459849.733129,init_hover,none,-,0,,,,,,,,60,253055.00000000003,88,79.5,1,0,-70,0,0,0,17.0,12.0,-983.0
1776459849.785811,init_hover,none,-,0,,,,,,,,60,253055.00000000003,88,79.5,1,0,-70,0,0,0,17.0,12.0,-983.0
1776459849.837863,init_hover,none,-,0,,,0,0.6295754646222661,1.2811090153171503,3.2234324099349845,3.354219917927252,60,253058.0,88,79.5,1,0,-70,0,0,0,19.0,13.0,-986.0
1776459849.888923,init_hover,none,-,0,,,0,0.9146567922674176,0.9261669218132846,3.2263779941435295,3.369346653228145,60,253058.0,88,79.5,1,0,-70,0,0,0,19.0,13.0,-986.0
1776459849.940751,init_hover,none,-,0,,,0,0.6522258235453938,1.0752482657177391,3.2952874038476136,3.3926653994940215,60,253065.0,88,79.5,1,0,-70,0,0,0,3.0,23.0,-1000.0
1776459850.0110269,recenter,right,-,1,,,0,0.6522258235453938,1.0752482657177391,3.2952874038476136,3.3926653994940215,60,253065.0,88,79.5,1,0,-70,0,0,0,3.0,23.0,-1000.0
1776459850.060288,recenter,right,-,1,,,0,0.6393668696922392,1.0644470320620174,3.257895190090542,3.3523696259908986,60,253058.0,88,79.5,1,0,-70,0,0,0,-3.0,14.0,-995.0
1776459850.110911,recenter,right,-,1,,,0,0.8454490632589221,1.1064321702827455,3.196576617254036,3.3450500342503005,60,253058.0,88,79.5,1,0,-70,0,0,0,-3.0,14.0,-995.0
1776459850.161877,recenter,right,-,1,,,0,0.8970529475873301,0.9256740266960936,3.1892841115547164,3.329008967644113,60,253054.0,88,79.5,1,0,-70,0,0,0,4.0,14.0,-998.0
1776459850.213351,recenter,right,-,1,,,0,0.8970529475873301,0.9256740266960936,3.1892841115547164,3.329008967644113,60,253054.0,88,79.5,1,0,-70,0,0,0,4.0,14.0,-998.0
1776459850.315567,recenter,right,-,1,,,0,0.8401063205449651,1.115543094513347,3.196668073728507,3.3451831169182835,60,253055.00000000003,87,79.5,1,0,-70,0,0,0,-3.0,18.0,-1011.0
1776459850.366279,recenter,right,-,1,,,0,0.6375670999719715,1.066972596940952,3.2582146179075417,3.352688131873711,60,253058.0,87,79.5,0,0,-70,0,0,0,-15.0,23.0,-981.0
1776459850.419372,recenter,right,-,1,,,0,0.8453767470767853,1.1080350590169354,3.1957933339947124,3.3445263490206667,60,253058.0,87,79.5,0,0,-70,0,0,0,-15.0,23.0,-981.0
1776459850.471415,recenter,right,-,1,,,0,0.634400652530642,1.072546169371612,3.256829429974643,3.3515223415737587,60,253071.0,87,79.5,0,0,-70,0,0,0,-24.0,30.0,-1000.0
1776459850.523221,recenter,right,-,1,,,0,0.36947829239212276,1.0675077193209503,3.3401340216982454,3.3928709022124273,60,253071.0,87,79.5,0,0,-70,0,0,0,-24.0,30.0,-1000.0
1776459850.6263318,recenter,right,-,1,,,0,0.8399820943262918,1.11714969305336,3.1959012945137935,3.3446672193342204,60,253051.00000000003,87,79.5,0,0,-70,0,0,0,-13.0,14.0,-1013.0
1776459850.677184,recenter,right,-,1,,,0,0.637742283677141,1.0690310330873307,3.2573098786575203,3.3521296180172646,60,253055.00000000003,87,79.5,0,0,-70,0,0,0,-15.0,19.0,-991.0
1776459850.728491,recenter,right,-,1,,,0,0.637742283677141,1.0690310330873307,3.2573098786575203,3.3521296180172646,60,253055.00000000003,87,79.5,0,0,-70,0,0,0,-15.0,19.0,-991.0
1776459850.780632,recenter,right,-,1,,,0,0.4145757655626376,1.3176580365574884,3.2429031790517464,3.3471371575618645,60,253058.0,87,79.5,0,0,-70,0,0,0,-17.0,16.0,-996.0
1776459850.831372,recenter,right,-,1,,,0,0.46873396740894124,1.5070424511654195,3.1788773520049265,3.33881697005226,60,253058.0,87,79.5,0,0,-70,0,0,0,-17.0,16.0,-996.0
1776459850.883892,recenter,right,-,1,,,0,0.41721308690062603,1.333052566350228,3.28015361208082,3.3868629354847912,60,253060.0,87,79.5,0,0,-70,0,0,0,5.0,17.0,-999.0
1776459850.9355881,recenter,right,-,1,,,0,0.8948418505450345,0.9289029635127919,3.1896865281070372,3.32911688657546,60,253060.0,87,79.5,0,0,-70,0,0,0,5.0,17.0,-999.0
1776459850.98801,recenter,right,-,1,,,0,0.8948418505450345,0.9289029635127919,3.1896865281070372,3.32911688657546,60,253057.00000000003,87,79.5,0,0,-70,0,0,0,5.0,12.0,-988.0
1776459851.040079,recenter,right,-,1,,,0,0.8384583927273304,1.119001527156139,3.1964181548667816,3.3450656319850083,60,253057.00000000003,87,79.5,0,0,-70,0,0,0,5.0,12.0,-988.0
1776459851.092003,recenter,right,-,1,,,0,0.8965064062609593,0.9402878725514449,3.186848890216891,3.3279911991694267,60,253062.0,87,79.5,0,0,-70,0,0,0,-3.0,14.0,-985.0
1776459851.143271,recenter,right,-,1,,,0,0.6359977323391866,1.07159304357321,3.257616662050825,3.352455731424114,60,253062.0,87,79.5,0,0,-70,0,0,0,-3.0,14.0,-985.0
1776459851.1934662,recenter,right,-,1,,,0,0.4122209204307692,1.3217071830377458,3.2430797193787546,3.347887903071853,60,253063.0,87,79.5,0,0,-70,0,0,0,-3.0,15.0,-1003.0
1776459851.243822,recenter,right,-,1,,,0,0.639356088332879,1.0880718071922078,3.2530047711022148,3.3509745354863503,60,253063.0,87,79.5,0,0,-70,0,0,0,-3.0,15.0,-1003.0
1776459851.294571,recenter,right,-,1,,,0,0.6124851286117348,1.2844630761373992,3.1850197829303917,3.3148120237841487,60,253064.0,87,79.0,0,0,-70,0,0,0,-9.0,7.0,-1002.0
1776459851.396085,recenter,right,-,1,,,0,0.6267635013928939,1.0784687308523184,3.259983208007184,3.3539909554992127,60,253065.0,87,79.0,0,0,-70,0,0,0,-8.0,1.0,-976.0
1776459851.447003,recenter,right,-,1,,,0,0.8196948723834465,1.1018228131368697,3.165808549309579,3.308484485452204,60,253065.0,87,79.0,0,0,-70,0,0,0,-8.0,1.0,-976.0
1776459851.4972641,recenter,right,-,1,,,0,0.4088935005183996,1.3242632339184408,3.244368717166853,3.3492804450662357,60,253064.0,87,79.0,0,0,-70,0,0,0,3.0,18.0,-982.0
1776459851.549133,recenter,right,-,1,,,0,0.6235653672723195,1.2914454695030484,3.2240275104385026,3.355783662964888,60,253064.0,87,79.0,0,0,-70,0,0,0,3.0,18.0,-982.0
1776459851.600485,recenter,right,-,1,,,0,0.8326761194357207,1.1201153900318093,3.2016250485661475,3.3487717883475816,60,253054.0,87,79.0,0,0,-70,0,0,0,-3.0,-7.0,-1010.0
1776459851.6522062,recenter,right,-,1,,,0,0.6280950323193589,1.0738149660160734,3.2625058393106823,3.3560316362009117,60,253054.0,87,79.0,0,0,-70,0,0,0,-3.0,-7.0,-1010.0
1776459851.704306,recenter,right,-,1,,,0,0.8876185340953883,0.9283515591408126,3.1968008470094844,3.3339491693636245,60,253056.0,87,79.0,0,0,-70,0,0,0,-13.0,1.0,-987.0
1776459851.7562392,recenter,right,-,1,,,0,0.8876185340953883,0.9283515591408126,3.1968008470094844,3.3339491693636245,60,253056.0,87,79.0,0,0,-70,0,0,0,-13.0,1.0,-987.0
1776459851.807625,recenter,right,-,1,,,0,0.6387639584480187,1.0849003099149612,3.3013156745614647,3.3973273154456325,60,253062.0,87,79.0,0,0,-70,0,0,0,6.0,-9.0,-1014.0
1776459851.857839,recenter,right,-,1,,,0,0.6387639584480187,1.0849003099149612,3.3013156745614647,3.3973273154456325,60,253062.0,87,79.0,0,0,-70,0,0,0,6.0,-9.0,-1014.0
1776459851.909117,recenter,right,-,1,,,0,0.6199036133831315,1.2916156148459854,3.2270455719241635,3.3580404660842915,60,253067.99999999997,87,79.0,0,0,-70,0,0,0,-13.0,-14.0,-968.0
1776459851.960659,recenter,right,-,1,,,0,0.46101894830095136,1.5137198350302254,3.1823604679385875,3.3428790817973786,60,253067.99999999997,87,79.0,0,0,-70,0,0,0,-13.0,-14.0,-968.0
1776459852.012521,recenter,right,-,1,,,0,0.6199036133831315,1.2916156148459854,3.2270455719241635,3.3580404660842915,60,253058.0,87,79.0,0,0,-70,0,0,0,-1.0,10.0,-998.0
1776459852.16824,recenter,right,-,1,,,0,0.824363507565856,1.0979308227170637,3.2082000051732216,3.349635438374068,60,253048.99999999997,87,79.0,0,0,-70,0,0,0,-7.0,14.0,-987.0
1776459852.272001,recenter,right,-,1,,,0,0.6391082270643447,1.087235928133083,3.2973165498571517,3.393840686527125,60,253046.99999999997,86,79.0,0,0,-70,0,0,0,6.0,13.0,-987.0
1776459852.3246348,recenter,right,-,1,,,0,0.8396117192405832,1.110910644044469,3.2001335706792546,3.3476607348225147,60,253046.99999999997,86,79.0,0,0,-70,0,0,0,6.0,13.0,-987.0
1776459852.376704,recenter,right,-,1,,,0,0.8356777261514123,1.117899953288505,3.1997928529777235,3.347424670634001,60,253055.00000000003,86,79.0,0,-1,-70,0,0,0,-20.0,23.0,-1017.0
1776459852.42851,recenter,right,-,1,,,0,0.8923783143341855,0.9269411709891997,3.193012122294026,3.331449534106484,60,253055.00000000003,86,79.0,0,-1,-70,0,0,0,-20.0,23.0,-1017.0
1776459852.529721,recenter,right,-,1,,,0,1.1067150967784856,0.8490167868728008,3.0968465225294413,3.2980730813134747,60,253060.0,86,79.0,0,-1,-70,0,0,0,-8.0,19.0,-992.0
1776459852.580354,recenter,right,-,1,,,0,0.6217148593202231,1.2874358419881826,3.2252966396657543,3.3558360831525684,60,253053.00000000003,86,79.0,0,-1,-70,0,0,0,-7.0,36.0,-1008.0
1776459852.733292,recenter,right,-,1,,,0,0.6464247306274595,1.0786224428558615,3.298139427182345,3.394800149685808,60,253057.00000000003,86,79.0,0,-1,-70,0,0,0,-11.0,21.0,-976.0
1776459852.78498,recenter,right,-,1,,,0,0.6464247306274595,1.0786224428558615,3.298139427182345,3.394800149685808,60,253060.0,86,79.0,0,-1,-70,0,0,0,16.0,9.0,-997.0
1776459852.837184,recenter,right,-,1,,,0,0.6334329753520653,1.0658480948026479,3.261594322626485,3.355033428609013,60,253060.0,86,79.0,0,-1,-70,0,0,0,16.0,9.0,-997.0
1776459852.889059,recenter,right,-,1,,,0,0.646290417968654,1.076510430535935,3.2990606985184225,3.39537258445616,60,253060.0,86,79.0,0,-1,-70,0,0,0,2.0,14.0,-979.0
1776459852.9413471,recenter,right,-,1,,,0,0.646290417968654,1.076510430535935,3.2990606985184225,3.39537258445616,60,253060.0,86,79.0,0,-1,-70,0,0,0,2.0,14.0,-979.0
1776459852.99196,recenter,right,-,1,,,0,0.8412002187451584,1.1056524405129697,3.201249571154765,3.348328092560852,60,253050.0,86,79.0,0,-1,-70,0,0,0,4.0,29.0,-1005.0
1776459853.043652,recenter,right,-,1,,,0,0.8412002187451584,1.1056524405129697,3.201249571154765,3.348328092560852,60,253050.0,86,79.0,0,-1,-70,0,0,0,4.0,29.0,-1005.0
1776459853.0950232,recenter,right,-,1,,,0,0.8360267712402795,1.1129361256051555,3.2021535063660433,3.3490045251557397,60,253055.00000000003,86,79.0,0,-1,-70,0,0,0,-19.0,18.0,-1022.0
1776459853.146707,recenter,right,-,1,,,0,0.6441488452840769,1.0748222194866464,3.301259514167941,3.396865945968929,60,253055.00000000003,86,79.0,0,-1,-70,0,0,0,-19.0,18.0,-1022.0
1776459853.196973,recenter,right,-,1,,,0,0.8275819459158409,1.1033991667868195,3.2083051833248035,3.3513467065757783,60,253059.0,86,79.0,0,-1,-70,0,0,0,-1.0,10.0,-1015.0
1776459853.249223,recenter,right,-,1,,,0,0.8361709640257655,1.1112653999496245,3.202942426983361,3.3495394281655337,60,253059.0,86,79.0,0,-1,-70,0,0,0,-1.0,10.0,-1015.0
1776459853.3009589,recenter,right,-,1,,,0,0.6440363878979701,1.072665766136952,3.302191450891193,3.3974496572802044,60,253050.0,86,78.5,0,-1,-70,0,0,0,-14.0,18.0,-1019.0
1776459853.35287,recenter,right,-,1,,,0,0.6223507488985469,1.2810135631587247,3.2295503231138944,3.3587341689073558,60,253050.0,86,78.5,0,-1,-70,0,0,0,-14.0,18.0,-1019.0
1776459853.40486,recenter,right,-,1,,,0,0.7903783675521265,1.2729716142993888,3.152311746526766,3.3188338471272885,60,253048.99999999997,86,78.5,0,-1,-70,0,0,0,2.0,17.0,-982.0
1776459853.457454,recenter,right,-,1,,,0,0.836330045233506,1.109585349182388,3.2037324804704697,3.3500786526711703,60,253048.99999999997,86,78.5,0,-1,-70,0,0,0,2.0,17.0,-982.0
1776459853.508815,recenter,right,-,1,,,0,0.8945440348911531,0.9182580580555594,3.195530022263601,3.3336030575136943,60,253055.00000000003,86,78.5,0,-1,-70,0,0,0,14.0,13.0,-995.0
1776459853.66375,recenter,right,-,1,,,0,0.8394742350025944,1.1075472553824381,3.201845045367922,3.3487509465809104,60,253062.0,86,78.5,0,-1,-70,0,0,0,7.0,16.0,-978.0
1776459853.715671,recenter,right,-,1,,,0,0.7930224627400335,1.270530639355958,3.1509761155365785,3.3177019826089507,60,253058.0,86,78.5,0,-1,-70,0,0,0,-19.0,33.0,-981.0
1776459853.7671318,recenter,right,-,1,,,0,0.8394742350025944,1.1075472553824381,3.201845045367922,3.3487509465809104,60,253058.0,86,78.5,0,-1,-70,0,0,0,-19.0,33.0,-981.0
1776459853.819791,recenter,right,-,1,,,0,0.8237356432696363,1.0900605335986568,3.1683750279423015,3.310181272116713,60,253053.00000000003,86,78.5,0,-1,-70,0,0,0,-1.0,31.0,-979.0
1776459853.872216,recenter,right,-,1,,,0,0.8237356432696363,1.0900605335986568,3.1683750279423015,3.310181272116713,60,253053.00000000003,86,78.5,0,-1,-70,0,0,0,-1.0,31.0,-979.0
1776459853.9243321,recenter,right,-,1,,,0,0.8979249893007355,0.9169692544359931,3.19315415048675,3.3321122765355904,60,253060.0,86,78.5,0,-1,-70,0,0,0,7.0,29.0,-975.0
1776459853.976487,recenter,right,-,1,,,0,0.6469639543491509,1.0664457449577682,3.2572979267098874,3.3535240828962043,60,253061.0,86,78.5,0,-1,-70,0,0,0,-7.0,29.0,-992.0
1776459854.027288,recenter,right,-,1,,,0,0.6264455451983356,1.2754390998154683,3.22871969840673,3.3575709805658636,60,253061.0,86,78.5,0,-1,-70,0,0,0,-7.0,29.0,-992.0
1776459854.078738,recenter,right,-,1,,,0,0.6264455451983356,1.2754390998154683,3.22871969840673,3.3575709805658636,60,253046.99999999997,86,78.5,0,-1,-70,0,0,0,-13.0,18.0,-987.0
1776459854.129826,recenter,right,-,1,,,0,0.40805780704660094,1.3062183124459217,3.250964971258546,3.351720263249266,60,253046.99999999997,86,78.5,0,-1,-70,0,0,0,-13.0,18.0,-987.0
1776459854.18013,recenter,right,-,1,,,0,0.6141496342828079,1.2694450359991616,3.19055008349497,3.317370384024579,60,253057.00000000003,86,78.5,0,-1,-70,0,0,0,-8.0,12.0,-1016.0
1776459854.230464,recenter,right,-,1,,,0,0.6141496342828079,1.2694450359991616,3.19055008349497,3.317370384024579,60,253057.00000000003,86,78.5,0,-1,-70,0,0,0,-8.0,12.0,-1016.0
1776459854.2822888,recenter,right,-,1,,,0,0.6221949295404502,1.446595583895725,3.143653478987069,3.314575057072187,60,253062.0,85,79.0,0,0,-70,0,0,0,9.0,13.0,-1004.0
1776459854.3339908,recenter,right,-,1,,,0,0.6141496342828079,1.2694450359991616,3.19055008349497,3.317370384024579,60,253062.0,85,79.0,0,0,-70,0,0,0,9.0,13.0,-1004.0
1776459854.386752,recenter,right,-,1,,,0,0.6141496342828079,1.2694450359991616,3.19055008349497,3.317370384024579,60,253061.0,85,79.0,0,0,-70,0,0,0,4.0,17.0,-974.0
1776459854.438849,recenter,right,-,1,,,0,0.40984399196556687,1.305038485220973,3.250277516259991,3.3510230223169417,60,253061.0,85,79.0,0,0,-70,0,0,0,4.0,17.0,-974.0
1776459854.4909198,recenter,right,-,1,,,0,0.41993413062167256,1.3119419764145062,3.245408598784564,3.349012246156583,60,253050.0,85,79.0,0,0,-70,0,0,0,-16.0,27.0,-987.0
1776459854.543852,recenter,right,-,1,,,0,0.634217626069555,1.0599175718328984,3.2621527138482183,3.3549063323087376,60,253050.0,85,79.0,0,0,-70,0,0,0,-16.0,27.0,-987.0
1776459854.594069,recenter,right,-,1,,,0,0.8263507895631377,1.0876774722572964,3.166838241918533,3.3090103346524247,60,253055.00000000003,85,79.0,0,0,-70,0,0,0,1.0,19.0,-1001.0
1776459854.644786,recenter,right,-,1,,,0,0.6141496342828079,1.2694450359991616,3.19055008349497,3.317370384024579,60,253055.00000000003,85,79.0,0,0,-70,0,0,0,1.0,19.0,-1001.0
1776459854.696872,recenter,right,-,1,,,0,0.6141496342828079,1.2694450359991616,3.19055008349497,3.317370384024579,60,253053.00000000003,85,79.0,0,-1,-70,0,0,0,-15.0,31.0,-1005.0
1776459854.748439,recenter,right,-,1,,,0,0.8263507895631377,1.0876774722572964,3.166838241918533,3.3090103346524247,60,253053.00000000003,85,79.0,0,-1,-70,0,0,0,-15.0,31.0,-1005.0
1776459854.8004968,recenter,right,-,1,,,0,0.6316033570736981,1.0593064722381702,3.2207278565384656,3.3140569038550765,60,253054.0,85,79.0,0,-1,-70,0,0,0,-15.0,26.0,-1006.0
1776459854.85232,recenter,right,-,1,,,0,0.6125149287004197,1.2701395387699348,3.1915586023727474,3.318178393589342,60,253054.0,85,79.0,0,-1,-70,0,0,0,-15.0,26.0,-1006.0
1776459854.904137,recenter,right,-,1,,,0,0.6108690717076131,1.2708514155398722,3.1925696528063634,3.3189913577050656,60,253051.00000000003,85,79.0,0,-1,-70,0,0,0,-2.0,26.0,-989.0
1776459854.955853,recenter,right,-,1,,,0,0.817075231678914,1.0970503422906093,3.1696774454472574,3.3108195488687415,60,253051.00000000003,85,79.0,0,-1,-70,0,0,0,-2.0,26.0,-989.0
1776459855.0068102,recenter,right,-,1,,,0,0.6195729412851947,1.0486445788648913,3.2292221122568887,3.318588259788563,60,253048.0,85,79.0,0,-1,-70,0,0,0,-4.0,6.0,-998.0
1776459855.057842,recenter,right,-,1,,,0,0.8170181379477226,1.0954661807832624,3.170582500135355,3.3114345477753404,60,253048.0,85,79.0,0,-1,-70,0,0,0,-4.0,6.0,-998.0
1776459855.107844,recenter,right,-,1,,,0,0.6174961221545878,1.0490209566960684,3.2304996712333662,3.3194953541565764,60,253054.0,85,79.0,0,-1,-70,0,0,0,2.0,16.0,-997.0
1776459855.158724,recenter,right,-,1,,,0,0.6174961221545878,1.0490209566960684,3.2304996712333662,3.3194953541565764,60,253054.0,85,79.0,0,-1,-70,0,0,0,2.0,16.0,-997.0
1776459855.208166,recenter,right,-,1,,,0,0.6154031905401172,1.049411315406575,3.2317821573519065,3.320407735492821,60,253061.0,85,79.0,0,-1,-70,0,0,0,7.0,17.0,-995.0
1776459855.258792,recenter,right,-,1,,,0,0.6154031905401172,1.049411315406575,3.2317821573519065,3.320407735492821,60,253061.0,85,79.0,0,-1,-70,0,0,0,7.0,17.0,-995.0
1776459855.308634,recenter,right,-,1,,,0,0.5974360581407341,1.2658094575787064,3.200595153784345,3.323257651130262,60,253058.0,85,79.5,0,-1,-70,0,0,0,-20.0,37.0,-995.0
1776459855.358748,recenter,right,-,1,,,0,0.8052772608769592,1.080104543808395,3.1393730868945626,3.2763753171132364,60,253058.0,85,79.5,0,-1,-70,0,0,0,-20.0,37.0,-995.0
1776459855.409111,recenter,right,-,1,,,0,1.0868543286448857,0.8386269504638364,3.0706779897111205,3.2660769234171636,60,253053.00000000003,85,79.5,1,-1,-70,0,0,0,-35.0,35.0,-993.0
1776459855.5618298,recenter,right,-,1,,,0,0.5963612634761325,1.038735123756609,3.200687878386677,3.285199866103124,60,253056.0,85,79.5,1,-1,-70,0,0,0,21.0,5.0,-985.0
1776459855.612951,recenter,right,-,1,,,0,0.7975627052557379,1.086957182593754,3.1429770177640814,3.2789538119174075,60,253056.0,85,79.5,1,-1,-70,0,0,0,-3.0,36.0,-1024.0
1776459855.71536,recenter,right,-,1,,,0,0.6023000238726902,1.049758443355657,3.240563612456543,3.32660495137372,60,253054.0,85,79.5,1,-1,-70,0,0,0,-23.0,32.0,-1018.0
1776459855.767244,recenter,right,-,1,,,0,0.6023000238726902,1.049758443355657,3.240563612456543,3.32660495137372,60,253054.0,85,79.5,1,-1,-70,0,0,0,-23.0,32.0,-1018.0
1776459855.8199759,recenter,right,-,1,,,0,0.6023000238726902,1.049758443355657,3.240563612456543,3.32660495137372,60,253061.0,85,79.5,1,-1,-70,0,0,0,13.0,8.0,-984.0
1776459855.8718941,recenter,right,-,1,,,0,0.8505453414946851,0.8988668908949473,3.1391762249520068,3.2660643238790406,60,253061.0,85,79.5,1,-1,-70,0,0,0,13.0,8.0,-984.0
1776459855.923181,recenter,right,-,1,,,0,0.5822540220669572,1.2577313716245984,3.170518517912233,3.289957138908759,60,253055.00000000003,85,79.5,1,-1,-70,0,0,0,9.0,23.0,-997.0
1776459855.9746392,recenter,right,-,1,,,0,0.7958686770951525,1.0800256506592476,3.1483482824705185,3.282670937545688,60,253055.00000000003,85,79.5,1,-1,-70,0,0,0,9.0,23.0,-997.0
1776459856.00629,pre_hover,right,x,1,,,0,0.7762257652822905,1.069966642934356,3.116963659622754,3.2463606607350233,60,253054.0,85,79.5,1,-1,-70,0,0,0,1.0,44.0,-988.0
1776459856.05636,pre_hover,right,x,1,,,0,0.7475170980511272,1.2486835646609888,3.0988691289151067,3.2530850061262058,60,253054.0,85,79.5,1,-1,-70,0,0,0,1.0,44.0,-988.0
1776459856.107578,pre_hover,right,x,1,,,0,0.7912825108055588,1.0860361703487316,3.149337129644132,3.2833951219658517,60,253060.0,85,79.5,1,-1,-70,0,0,0,1.0,21.0,-1014.0
1776459856.158817,pre_hover,right,x,1,,,0,0.7912825108055588,1.0860361703487316,3.149337129644132,3.2833951219658517,60,253060.0,85,79.5,1,-1,-70,0,0,0,1.0,21.0,-1014.0
1776459856.210631,pre_hover,right,x,1,,,0,0.8494304090712562,0.8967504685021767,3.141203994178591,3.267530473225117,60,253058.0,85,79.5,1,-1,-70,0,0,0,20.0,12.0,-1014.0
1776459856.2620502,pre_hover,right,x,1,,,0,0.8494304090712562,0.8967504685021767,3.141203994178591,3.267530473225117,60,253058.0,85,79.5,1,-1,-70,0,0,0,20.0,12.0,-1014.0
1776459856.313287,pre_hover,right,x,1,,,0,0.8494304090712562,0.8967504685021767,3.141203994178591,3.267530473225117,60,253046.0,84,79.5,1,-1,-70,0,0,0,4.0,21.0,-985.0
1776459856.3648808,pre_hover,right,x,1,,,0,0.8494304090712562,0.8967504685021767,3.141203994178591,3.267530473225117,60,253046.0,84,79.5,1,-1,-70,0,0,0,4.0,21.0,-985.0
1776459856.416723,pre_hover,right,x,1,,,0,0.8494304090712562,0.8967504685021767,3.141203994178591,3.267530473225117,60,253051.00000000003,84,79.5,1,-1,-70,0,0,0,-16.0,27.0,-996.0
1776459856.4670348,pre_hover,right,x,1,,,0,0.8494304090712562,0.8967504685021767,3.141203994178591,3.267530473225117,60,253051.00000000003,84,79.5,1,-1,-70,0,0,0,-16.0,27.0,-996.0
1776459856.518992,pre_hover,right,x,1,,,0,0.7790726563896248,1.0674184519353214,3.115436537951024,3.2452086273680254,60,253055.00000000003,84,79.5,1,-1,-70,0,0,0,10.0,35.0,-1015.0
1776459856.571014,pre_hover,right,x,1,,,0,0.3010423590598438,1.0327470926460143,3.2468551249044393,3.289371482557134,60,253055.00000000003,84,79.5,1,-1,-70,0,0,0,10.0,35.0,-1015.0
1776459856.6224,pre_hover,right,x,1,,,0,0.7568509706898382,1.253852479374563,3.0927534221938333,3.2504569197437583,60,253048.0,84,79.5,1,-1,-70,0,0,0,9.0,25.0,-1005.0
1776459856.6740649,pre_hover,right,x,1,,,0,0.7774372328844144,1.0676670978304275,3.1168176346398404,3.2461782657565186,60,253048.0,84,79.5,1,-1,-70,0,0,0,9.0,25.0,-1005.0
1776459856.7252212,pre_hover,right,x,1,,,0,0.5684782219024048,1.2505708865635672,3.1361796785735114,3.25300368021908,60,253044.0,84,79.5,1,-1,-70,0,0,0,34.0,13.0,-974.0
1776459856.776597,pre_hover,right,x,1,,,0,0.7774372328844144,1.0676670978304275,3.1168176346398404,3.2461782657565186,60,253044.0,84,79.5,1,-1,-70,0,0,0,34.0,13.0,-974.0
1776459856.827011,pre_hover,right,x,1,,,0,0.5684782219024048,1.2505708865635672,3.1361796785735114,3.25300368021908,60,253057.00000000003,84,79.5,1,-1,-70,0,0,0,7.0,25.0,-992.0
1776459856.878044,pre_hover,right,x,1,,,0,0.5684782219024048,1.2505708865635672,3.1361796785735114,3.25300368021908,60,253057.00000000003,84,79.5,1,-1,-70,0,0,0,7.0,25.0,-992.0
1776459856.9303849,pre_hover,right,x,1,,,0,0.35930030410017144,1.2821006184577484,3.1532407947593146,3.2461185240162247,60,253044.0,84,79.5,1,-1,-70,0,0,0,-21.0,39.0,-1006.0
1776459856.9809852,pre_hover,right,x,1,,,0,0.5666954239668911,1.2514288433336436,3.137205305483206,3.2538531574464145,60,253044.0,84,79.5,1,-1,-70,0,0,0,-21.0,39.0,-1006.0
1776459857.030865,pre_hover,right,x,1,,,0,0.5666954239668911,1.2514288433336436,3.137205305483206,3.2538531574464145,60,253048.99999999997,84,79.5,1,-1,-70,0,0,0,11.0,21.0,-1010.0
1776459857.082816,pre_hover,right,x,1,,,0,0.7697967684960949,1.0756979268199494,3.1185497214275166,3.247187698206475,60,253048.99999999997,84,79.5,1,-1,-70,0,0,0,11.0,21.0,-1010.0
1776459857.134243,pre_hover,right,x,1,,,0,1.0423271093296806,0.8237328365401836,3.0173447164067166,3.200136141262964,60,253044.0,84,79.5,1,-1,-70,0,0,0,27.0,16.0,-997.0
1776459857.1864982,pre_hover,right,x,1,,,0,0.7757893550686897,1.0679262625531565,3.1182051048307757,3.2471537053883925,60,253044.0,84,79.5,1,-1,-70,0,0,0,27.0,16.0,-997.0
1776459857.236959,pre_hover,right,x,1,,,0,0.7757893550686897,1.0679262625531565,3.1182051048307757,3.2471537053883925,60,253042.0,84,79.5,1,-1,-70,0,0,0,23.0,17.0,-1013.0
1776459857.2889411,pre_hover,right,x,1,,,0,0.7757893550686897,1.0679262625531565,3.1182051048307757,3.2471537053883925,60,253042.0,84,79.5,1,-1,-70,0,0,0,23.0,17.0,-1013.0
1776459857.341032,pre_hover,right,x,1,,,0,0.7757893550686897,1.0679262625531565,3.1182051048307757,3.2471537053883925,60,253042.0,84,78.5,1,-1,-70,0,0,0,-3.0,32.0,-1020.0
1776459857.3914702,pre_hover,right,x,1,,,0,0.774572924296775,1.0702368526034447,3.1183472402389247,3.2473335866993662,60,253042.0,84,78.5,1,-1,-70,0,0,0,-3.0,32.0,-1020.0
1776459857.443139,pre_hover,right,x,1,,,0,0.774572924296775,1.0702368526034447,3.1183472402389247,3.2473335866993662,60,253044.0,84,78.5,1,-1,-70,0,0,0,0.0,32.0,-1005.0
1776459857.493488,pre_hover,right,x,1,,,0,0.9335264406921032,0.7388052413539937,3.100205402949695,3.2406808005382275,60,253044.0,84,78.5,1,-1,-70,0,0,0,0.0,32.0,-1005.0
1776459857.544679,pre_hover,right,x,1,,,,,,,,60,253051.00000000003,84,78.5,1,-1,-70,0,0,0,5.0,18.0,-987.0
1776459857.595762,pre_hover,right,x,1,,,,,,,,60,253051.00000000003,84,78.5,1,-1,-70,0,0,0,5.0,18.0,-987.0
1776459857.647218,pre_hover,right,x,1,,,,,,,,60,253046.99999999997,84,78.5,0,-1,-70,0,0,0,-1.0,27.0,-1031.0
1776459857.698266,pre_hover,right,x,1,,,,,,,,60,253046.99999999997,84,78.5,0,-1,-70,0,0,0,-1.0,27.0,-1031.0
1776459857.749731,pre_hover,right,x,1,,,,,,,,60,253056.0,84,78.5,0,-1,-70,0,0,0,7.0,35.0,-971.0
1776459857.8019881,pre_hover,right,x,1,,,0,0.8521294526824288,0.8990807743442046,3.1376759571847663,3.2650550264898333,60,253056.0,84,78.5,0,-1,-70,0,0,0,7.0,35.0,-971.0
1776459857.853072,pre_hover,right,x,1,,,0,0.7959816957731907,1.0871709776631693,3.144346230449303,3.2799139681436755,60,253052.0,84,78.5,1,-1,-70,0,0,0,7.0,21.0,-990.0
1776459857.904595,pre_hover,right,x,1,,,0,0.7520569138867724,1.2485558220732784,3.094305272908432,3.2497598954413487,60,253048.0,84,78.5,1,-1,-70,0,0,0,4.0,32.0,-996.0
1776459857.956367,pre_hover,right,x,1,,,0,0.7520569138867724,1.2485558220732784,3.094305272908432,3.2497598954413487,60,253048.0,84,78.5,1,-1,-70,0,0,0,4.0,32.0,-996.0
1776459858.007165,pre_hover,right,x,1,,,,,,,,60,253051.00000000003,84,78.5,1,-1,-70,0,0,0,10.0,27.0,-980.0
1776459858.0585768,pre_hover,right,x,1,,,0,0.5859565770712261,1.4242112591820892,3.084394435178552,3.245944907378431,60,253051.00000000003,84,78.5,1,-1,-70,0,0,0,10.0,27.0,-980.0
1776459858.108326,pre_hover,right,x,1,,,0,0.5763745501167644,1.2507545083069602,3.129860139759402,3.2483401217481647,60,253054.0,84,78.5,1,-1,-70,0,0,0,1.0,18.0,-991.0
1776459858.15829,pre_hover,right,x,1,,,0,0.854766877128113,0.9013584848474914,3.1342030799282936,3.262617399704863,60,253054.0,84,78.5,1,-1,-70,0,0,0,1.0,18.0,-991.0
1776459858.208168,pre_hover,right,x,1,,,0,0.854766877128113,0.9013584848474914,3.1342030799282936,3.262617399704863,60,253057.00000000003,84,78.5,1,-1,-70,0,0,0,14.0,28.0,-972.0
1776459858.258633,pre_hover,right,x,1,,,0,0.6090117563608981,1.050675896812807,3.235663295048071,3.32317935752423,60,253057.00000000003,84,78.5,1,-1,-70,0,0,0,14.0,28.0,-972.0
1776459858.310604,pre_hover,right,x,1,,,0,0.7989758315519327,1.088503261438131,3.1408124147913927,3.2774533468453115,60,253057.00000000003,84,78.5,1,-1,-70,0,0,0,14.0,28.0,-972.0
1776459858.3613272,pre_hover,right,x,1,,,0,0.5965341184418951,1.0410095340475183,3.199734049061959,3.2846065743574977,60,253048.99999999997,83,78.5,1,-1,-70,0,0,0,-5.0,28.0,-995.0
1776459858.4116008,pre_hover,right,x,1,,,0,0.5965341184418951,1.0410095340475183,3.199734049061959,3.2846065743574977,60,253048.99999999997,83,78.5,1,-1,-70,0,0,0,-5.0,28.0,-995.0
1776459858.461719,pre_hover,right,x,1,,,0,0.7989758315519327,1.088503261438131,3.1408124147913927,3.2774533468453115,60,253048.0,83,78.5,1,-1,-70,0,0,0,-8.0,18.0,-1029.0
1776459858.513473,pre_hover,right,x,1,,,0,0.5891933594078749,1.423748673294626,3.081581650184879,3.2437410744819255,60,253050.0,83,78.5,1,-1,-70,0,0,0,9.0,17.0,-999.0
1776459858.565175,pre_hover,right,x,1,,,0,0.7550455045551416,1.2489903434247105,3.090984692053332,3.2473787192619654,60,253050.0,83,78.5,1,-1,-70,0,0,0,9.0,17.0,-999.0
1776459858.616812,pre_hover,right,x,1,,,0,0.5721756820193358,1.2440833612746816,3.1313894159379148,3.2477419943113057,60,253052.0,83,78.5,1,-1,-70,0,0,0,6.0,5.0,-1013.0
1776459858.6681018,pre_hover,right,x,1,,,0,0.5891933594078749,1.423748673294626,3.081581650184879,3.2437410744819255,60,253052.0,83,78.5,1,-1,-70,0,0,0,6.0,5.0,-1013.0
1776459858.719349,pre_hover,right,x,1,,,0,0.7833452668259633,1.0717137802508496,3.107888406827172,3.2396163425362454,60,253056.0,83,78.5,1,-1,-70,0,0,0,-4.0,23.0,-1026.0
1776459858.770703,pre_hover,right,x,1,,,0,0.7855946390436351,1.072050428041293,3.107216810320098,3.239565842801142,60,253056.0,83,78.5,1,-1,-70,0,0,0,-4.0,23.0,-1026.0
1776459858.8231108,pre_hover,right,x,1,,,0,0.8593281286722129,0.9020120280968886,3.1298322538065277,3.259678823873624,60,253052.0,83,78.5,1,-1,-70,0,0,0,0.0,17.0,-1001.0
1776459858.8737679,pre_hover,right,x,1,,,0,0.8035862031844544,1.0879088811614297,3.1367846070294547,3.2746333433167036,60,253052.0,83,78.5,1,-1,-70,0,0,0,0.0,17.0,-1001.0
1776459858.9240131,pre_hover,right,x,1,,,0,0.8608186016614527,0.9022426923325287,3.1283950217071834,3.2587136606147347,60,253048.99999999997,83,78.5,0,-1,-70,0,0,0,0.0,17.0,-998.0
1776459858.973522,pre_hover,right,x,1,,,,,,,,60,253048.99999999997,83,78.5,0,-1,-70,0,0,0,0.0,17.0,-998.0
1776459860.74462,response,right,x,1,1776459859.025773,1.7188470363616943,2,0.599377942074816,0.6988990247425775,3.049597622739459,3.1224928143015758,60,253061.0,82,79.5,0,-2,-70,0,0,0,15.0,9.0,-1011.0
1776459860.797338,response,right,x,1,1776459859.025773,1.7715649604797363,,,,,,60,253061.0,82,79.5,0,-2,-70,0,0,0,15.0,9.0,-1011.0
1776459860.848078,response,right,x,1,1776459859.025773,1.8223049640655518,2,0.5936386451790232,0.6902159396358889,3.0469735000001856,3.119682758680607,60,253051.00000000003,82,79.5,0,-1,-70,0,0,0,21.0,0.0,-1006.0
1776459860.897832,response,right,x,1,1776459859.025773,1.8720588684082031,,,,,,60,253051.00000000003,82,79.5,0,-1,-70,0,0,0,21.0,0.0,-1006.0
1776459860.94942,response,right,x,1,1776459859.025773,1.9236469268798828,,,,,,60,253050.0,82,79.5,0,-1,-70,0,0,0,-3.0,9.0,-1014.0
1776459861.00015,response,right,x,1,1776459859.025773,1.974376916885376,,,,,,60,253050.0,82,79.5,0,-1,-70,0,0,0,-3.0,9.0,-1014.0
1776459861.050227,response,right,x,1,1776459859.025773,2.02445387840271,2,0.33176120237684176,0.7385191202431103,3.094579959151056,3.123277584439192,60,253059.0,82,79.5,0,-1,-70,0,0,0,13.0,8.0,-995.0
1776459861.102908,response,right,x,1,1776459859.025773,2.077134847640991,2,0.33176120237684176,0.7385191202431103,3.094579959151056,3.123277584439192,60,253059.0,82,79.5,0,-1,-70,0,0,0,13.0,8.0,-995.0
1776459861.154009,response,right,x,1,1776459859.025773,2.1282360553741455,,,,,,60,253056.0,82,79.5,0,-1,-70,0,0,0,-10.0,16.0,-1010.0
1776459861.2039402,response,right,x,1,1776459859.025773,2.1781671047210693,,,,,,60,253056.0,82,79.5,0,-1,-70,0,0,0,-10.0,16.0,-1010.0
1776459861.255272,response,right,x,1,1776459859.025773,2.229498863220215,2,0.3349816425384176,0.7319222423871284,3.09162998589786,3.121258456883583,60,253061.0,82,79.5,0,-1,-70,0,0,0,0.0,5.0,-1000.0
1776459861.306286,response,right,x,1,1776459859.025773,2.280513048171997,2,0.495261600255127,1.0399139971448128,3.0237611388149124,3.064312093188715,60,253061.0,82,79.5,0,-1,-70,0,0,0,0.0,5.0,-1000.0
1776459861.356031,response,right,x,1,1776459859.025773,2.3302578926086426,2,0.3267095729096794,0.7436139103975967,3.0587414039441705,3.0868061079657716,60,253052.0,82,79.0,0,-1,-70,0,0,0,12.0,2.0,-979.0
1776459861.4058251,response,right,x,1,1776459859.025773,2.380052089691162,2,0.31614498547921366,0.7509592103100524,3.0603712350252996,3.086720114124914,60,253052.0,82,79.0,0,-1,-70,0,0,0,12.0,2.0,-979.0
1776459861.4560268,response,right,x,1,1776459859.025773,2.430253744125366,2,-0.02307545254780173,0.5845047838856378,3.0748415272349483,3.1028727284135837,60,253044.99999999997,82,79.0,0,-1,-70,0,0,0,0.0,22.0,-996.0
1776459861.505719,response,right,x,1,1776459859.025773,2.4799458980560303,2,-0.4992919288791091,0.9694017772912066,3.0564613558351668,3.0971252317577513,60,253044.99999999997,82,79.0,0,-1,-70,0,0,0,0.0,22.0,-996.0
1776459861.556673,response,right,x,1,1776459859.025773,2.530900001525879,2,-0.33949217739360177,1.2582913212461748,3.055913508019926,3.08554317967537,60,253059.0,82,79.0,0,-1,-70,0,0,0,22.0,7.0,-989.0
1776459861.607258,response,right,x,1,1776459859.025773,2.5814850330352783,,,,,,60,253059.0,82,79.0,0,-1,-70,0,0,0,22.0,7.0,-989.0
1776459861.65612,response,right,x,1,1776459859.025773,2.6303470134735107,,,,,,60,253061.0,82,79.0,1,-1,-70,0,0,0,5.0,27.0,-984.0
1776459861.7076201,response,right,x,1,1776459859.025773,2.681847095489502,2,-0.3463024946472363,1.2550914587615818,3.0555218558954564,3.0856459424222384,60,253061.0,82,79.0,1,-1,-70,0,0,0,5.0,27.0,-984.0
1776459861.757805,response,right,x,1,1776459859.025773,2.732032060623169,2,-0.3463024946472363,1.2550914587615818,3.0555218558954564,3.0856459424222384,60,253058.0,82,79.0,1,0,-70,0,0,0,3.0,13.0,-1016.0
1776459861.807165,response,right,x,1,1776459859.025773,2.7813918590545654,,,,,,60,253055.00000000003,82,79.0,1,0,-70,0,0,0,-11.0,41.0,-992.0
1776459861.8565881,response,right,x,1,1776459859.025773,2.830815076828003,,,,,,60,253055.00000000003,82,79.0,1,0,-70,0,0,0,-11.0,41.0,-992.0
1776459861.908224,response,right,x,1,1776459859.025773,2.882451057434082,,,,,,60,253055.00000000003,82,79.0,1,0,-70,0,0,0,-11.0,41.0,-992.0
1776459861.9586618,response,right,x,1,1776459859.025773,2.9328887462615967,2,-0.8206354227230611,1.2085120645961143,2.900667859608251,3.0217203394547125,60,253046.99999999997,82,79.0,1,0,-70,0,0,0,0.0,14.0,-972.0
1776459862.009229,response,right,x,1,1776459859.025773,2.9834558963775635,,,,,,60,253046.99999999997,82,79.0,1,0,-70,0,0,0,0.0,14.0,-972.0
1776459862.058856,response,right,x,1,1776459859.025773,3.033082962036133,2,-0.35734274845390845,1.2306960185033802,3.0222203483941064,3.0520043130823553,60,253058.0,82,79.0,0,0,-70,0,0,0,3.0,7.0,-980.0
1776459862.109359,response,right,x,1,1776459859.025773,3.0835859775543213,,,,,,60,253058.0,82,79.0,0,0,-70,0,0,0,3.0,7.0,-980.0
1776459862.159482,response,right,x,1,1776459859.025773,3.133708953857422,,,,,,60,253056.0,82,79.0,0,0,-70,0,0,0,-18.0,19.0,-994.0
1776459862.209333,response,right,x,1,1776459859.025773,3.1835598945617676,2,-0.15892728861659117,1.5736414361257451,2.9794207398569994,3.038300565348573,60,253056.0,82,79.0,0,0,-70,0,0,0,-18.0,19.0,-994.0
1776459862.259563,response,right,x,1,1776459859.025773,3.2337899208068848,,,,,,60,253061.0,81,79.0,0,0,-70,0,0,0,23.0,9.0,-990.0
1776459862.309403,response,right,x,1,1776459859.025773,3.283629894256592,,,,,,60,253061.0,81,79.0,0,0,-70,0,0,0,23.0,9.0,-990.0
1776459862.3598988,response,right,x,1,1776459859.025773,3.3341257572174072,,,,,,60,253059.0,81,78.5,0,0,-70,0,0,0,3.0,16.0,-983.0
1776459862.4107788,response,right,x,1,1776459859.025773,3.3850057125091553,,,,,,60,253059.0,81,78.5,0,0,-70,0,0,0,3.0,16.0,-983.0
1776459862.4614358,response,right,x,1,1776459859.025773,3.4356627464294434,2,-0.2505807644553555,1.740569648883659,2.9297615209895866,3.0322824232307104,60,253065.0,81,78.5,0,0,-70,0,0,0,1.0,2.0,-982.0
1776459862.5118752,response,right,x,1,1776459859.025773,3.4861021041870117,,,,,,60,253065.0,81,78.5,0,0,-70,0,0,0,1.0,2.0,-982.0
1776459862.5617979,response,right,x,1,1776459859.025773,3.536024808883667,,,,,,60,253061.0,81,78.5,0,0,-70,0,0,0,5.0,26.0,-978.0
1776459862.6126,response,right,x,1,1776459859.025773,3.586827039718628,2,0.006790814644121178,1.3294132642609284,3.0573840303801565,3.0750863927795886,60,253061.0,81,78.5,0,0,-70,0,0,0,5.0,26.0,-978.0
1776459862.661958,response,right,x,1,1776459859.025773,3.6361849308013916,2,-0.39342011444856323,1.2477810896964603,3.0480805289183452,3.083337439469612,60,253065.0,81,78.5,0,0,-70,0,0,0,14.0,15.0,-1006.0
1776459862.713374,response,right,x,1,1776459859.025773,3.68760085105896,2,-0.39342011444856323,1.2477810896964603,3.0480805289183452,3.083337439469612,60,253065.0,81,78.5,0,0,-70,0,0,0,14.0,15.0,-1006.0
1776459862.764089,response,right,x,1,1776459859.025773,3.738316059112549,2,-0.39342011444856323,1.2477810896964603,3.0480805289183452,3.083337439469612,60,253069.0,81,78.5,0,0,-70,0,0,0,-9.0,18.0,-1004.0
1776459862.815735,response,right,x,1,1776459859.025773,3.78996205329895,,,,,,60,253069.0,81,78.5,0,0,-70,0,0,0,-9.0,18.0,-1004.0
1776459862.865206,response,right,x,1,1776459859.025773,3.839432954788208,,,,,,60,253058.0,81,78.5,0,0,-70,0,0,0,1.0,7.0,-1019.0
1776459862.915443,response,right,x,1,1776459859.025773,3.889669895172119,,,,,,60,253058.0,81,78.5,0,0,-70,0,0,0,1.0,7.0,-1019.0
1776459862.9675899,response,right,x,1,1776459859.025773,3.941816806793213,,,,,,60,253063.0,81,78.5,0,-1,-70,0,0,0,10.0,22.0,-1005.0
1776459863.019073,response,right,x,1,1776459859.025773,3.993299961090088,,,,,,60,253063.0,81,78.5,0,-1,-70,0,0,0,10.0,22.0,-1005.0
1776459863.0710258,response,right,x,1,1776459859.025773,4.045252799987793,,,,,,60,253061.0,81,78.5,0,-1,-70,0,0,0,10.0,8.0,-993.0
1776459863.120966,response,right,x,1,1776459859.025773,4.095192909240723,,,,,,60,253061.0,81,78.5,0,-1,-70,0,0,0,10.0,8.0,-993.0
1776459863.172458,response,right,x,1,1776459859.025773,4.146684885025024,,,,,,60,253067.99999999997,81,78.5,0,0,-70,0,0,0,11.0,18.0,-979.0
1776459863.223279,response,right,x,1,1776459859.025773,4.197505950927734,2,-0.16140916793312685,1.5676266183443925,2.9822288401773704,3.0400562087783207,60,253067.99999999997,81,78.5,0,0,-70,0,0,0,11.0,18.0,-979.0
1776459863.2727418,response,right,x,1,1776459859.025773,4.246968746185303,,,,,,60,253061.0,81,78.5,0,-1,-70,0,0,0,31.0,-4.0,-995.0
1776459863.321805,response,right,x,1,1776459859.025773,4.296031951904297,,,,,,60,253061.0,81,78.5,0,-1,-70,0,0,0,31.0,-4.0,-995.0
1776459863.3731651,response,right,x,1,1776459859.025773,4.3473920822143555,,,,,,60,253057.00000000003,81,78.5,0,0,-70,0,0,0,-5.0,23.0,-1017.0
1776459863.422569,response,right,x,1,1776459859.025773,4.396795988082886,,,,,,60,253057.00000000003,81,78.5,0,0,-70,0,0,0,-5.0,23.0,-1017.0
1776459863.47474,response,right,x,1,1776459859.025773,4.448966979980469,,,,,,60,253063.0,81,78.5,0,0,-70,0,0,0,-2.0,26.0,-990.0
1776459863.524757,response,right,x,1,1776459859.025773,4.498983860015869,2,-0.3872472242037272,1.2393255557723608,3.0523808101027123,3.0861409145051253,60,253063.0,81,78.5,0,0,-70,0,0,0,-2.0,26.0,-990.0
1776459863.5763562,response,right,x,1,1776459859.025773,4.550583124160767,2,-0.3872472242037272,1.2393255557723608,3.0523808101027123,3.0861409145051253,60,253056.0,81,78.5,0,0,-70,0,0,0,24.0,5.0,-983.0
1776459863.6272352,response,right,x,1,1776459859.025773,4.601462125778198,2,-0.3872472242037272,1.2393255557723608,3.0523808101027123,3.0861409145051253,60,253056.0,81,78.5,0,0,-70,0,0,0,24.0,5.0,-983.0
1776459863.6787012,response,right,x,1,1776459859.025773,4.652928113937378,2,-0.6179541040656779,1.305654791933923,2.967405465142594,3.046438465014831,60,253064.0,81,78.5,0,0,-70,0,0,0,-18.0,27.0,-1006.0
1776459863.730101,response,right,x,1,1776459859.025773,4.7043280601501465,2,-0.3872472242037272,1.2393255557723608,3.0523808101027123,3.0861409145051253,60,253064.0,81,78.5,0,0,-70,0,0,0,-18.0,27.0,-1006.0
1776459863.782454,response,right,x,1,1776459859.025773,4.756680965423584,2,-0.3872472242037272,1.2393255557723608,3.0523808101027123,3.0861409145051253,60,253057.00000000003,81,78.5,0,0,-70,0,0,0,9.0,8.0,-1000.0
1776459863.8342478,response,right,x,1,1776459859.025773,4.808474779129028,2,-0.3872472242037272,1.2393255557723608,3.0523808101027123,3.0861409145051253,60,253057.00000000003,81,78.5,0,0,-70,0,0,0,9.0,8.0,-1000.0
1776459863.885969,response,right,x,1,1776459859.025773,4.860195875167847,2,-0.1603867286321359,1.5628439775338907,2.984821711607186,3.041657097019508,60,253052.0,81,78.5,0,0,-70,0,0,0,22.0,16.0,-1004.0
1776459863.937356,response,right,x,1,1776459859.025773,4.911582946777344,2,-0.3872472242037272,1.2393255557723608,3.0523808101027123,3.0861409145051253,60,253052.0,81,78.5,0,0,-70,0,0,0,22.0,16.0,-1004.0
1776459863.988105,response,right,x,1,1776459859.025773,4.962332010269165,2,0.010869193138210193,1.707529632793348,2.9603892400347385,3.0437839563861333,60,253063.0,81,78.5,0,-1,-70,0,0,0,15.0,12.0,-992.0
1776459864.039127,response,right,x,1,1776459859.025773,5.013354063034058,,,,,,60,253063.0,81,78.5,0,-1,-70,0,0,0,15.0,12.0,-992.0
1776459864.089248,response,right,x,1,1776459859.025773,5.063474893569946,2,-0.37394021870605776,1.4970192741818076,2.9904316753196922,3.054429742329898,60,253059.0,81,78.5,0,-1,-70,0,0,0,-2.0,17.0,-1013.0
1776459864.140018,response,right,x,1,1776459859.025773,5.1142449378967285,,,,,,60,253059.0,81,78.5,0,-1,-70,0,0,0,-2.0,17.0,-1013.0
1776459864.189595,response,right,x,1,1776459859.025773,5.1638219356536865,2,0.013444932747091364,1.7092788968992034,2.9602983023655667,3.044112901781335,60,253060.0,81,78.5,0,-1,-70,0,0,0,18.0,8.0,-983.0
1776459864.239397,response,right,x,1,1776459859.025773,5.213624000549316,,,,,,60,253060.0,81,78.5,0,-1,-70,0,0,0,18.0,8.0,-983.0
1776459864.289031,response,right,x,1,1776459859.025773,5.26325798034668,2,0.016008283315585695,1.7110470002067264,2.960200816033565,3.0444429659436025,60,253067.0,80,78.5,0,0,-70,0,0,0,21.0,3.0,-995.0
1776459864.340427,response,right,x,1,1776459859.025773,5.3146538734436035,2,-0.36698398350063355,1.496877491580423,2.9929273519466495,3.0560069731294184,60,253067.0,80,78.5,0,0,-70,0,0,0,21.0,3.0,-995.0
1776459864.390063,response,right,x,1,1776459859.025773,5.364289999008179,2,0.018555551673373753,1.712829759993734,2.960097903827347,3.0447742404772282,60,253058.0,80,79.0,0,0,-70,0,0,0,2.0,5.0,-989.0
1776459864.440107,response,right,x,1,1776459859.025773,5.414334058761597,2,-0.13474729922841544,1.5718263347535566,2.985055102365449,3.042317563293654,60,253058.0,80,79.0,0,0,-70,0,0,0,2.0,5.0,-989.0
1776459864.490442,response,right,x,1,1776459859.025773,5.4646689891815186,2,0.043361687046017276,1.3476602918628675,3.0581801505011983,3.0781835142436167,60,253059.0,80,79.0,0,0,-70,0,0,0,-2.0,9.0,-1014.0
1776459864.5416908,response,right,x,1,1776459859.025773,5.515917778015137,2,0.043361687046017276,1.3476602918628675,3.0581801505011983,3.0781835142436167,60,253059.0,80,79.0,0,0,-70,0,0,0,-2.0,9.0,-1014.0
1776459864.592638,response,right,x,1,1776459859.025773,5.566864967346191,2,-0.14008998583279939,1.5749843607450045,2.985120737480471,3.0432183682029668,60,253061.0,80,79.0,0,0,-70,0,0,0,0.0,6.0,-971.0
1776459864.642965,response,right,x,1,1776459859.025773,5.617192029953003,,,,,,60,253061.0,80,79.0,0,0,-70,0,0,0,0.0,6.0,-971.0
1776459864.691277,response,right,x,1,1776459859.025773,5.665503978729248,2,-0.1365535675985721,1.5763473236812071,2.985554733152626,3.0437411484862564,60,253060.0,80,79.0,0,0,-70,0,0,0,7.0,23.0,-995.0
1776459864.739497,response,right,x,1,1776459859.025773,5.71372389793396,,,,,,60,253060.0,80,79.0,0,0,-70,0,0,0,7.0,23.0,-995.0
1776459864.786162,response,right,x,1,1776459859.025773,5.7603888511657715,,,,,,60,253057.00000000003,80,79.0,0,-1,-70,0,0,0,4.0,4.0,-1014.0
1776459864.834056,response,right,x,1,1776459859.025773,5.808282852172852,,,,,,60,253057.00000000003,80,79.0,0,-1,-70,0,0,0,4.0,4.0,-1014.0
1776459864.886635,response,right,x,1,1776459859.025773,5.8608620166778564,,,,,,60,253064.0,80,79.0,0,-1,-70,0,0,0,-6.0,14.0,-999.0
1776459864.9356549,response,right,x,1,1776459859.025773,5.909881830215454,,,,,,60,253064.0,80,79.0,0,-1,-70,0,0,0,-6.0,14.0,-999.0
1776459864.988377,response,right,x,1,1776459859.025773,5.96260404586792,2,-0.1259911901512195,1.5806535616299504,2.986776031603844,3.045301857220803,60,253053.00000000003,80,79.0,0,-1,-70,0,0,0,6.0,10.0,-1011.0
1776459865.0370078,response,right,x,1,1776459859.025773,6.011234760284424,2,-0.3351474331253887,1.4829193903359499,2.972176028395697,3.029746735828426,60,253053.00000000003,80,79.0,0,-1,-70,0,0,0,6.0,10.0,-1011.0
1776459865.086741,response,right,x,1,1776459859.025773,6.060967922210693,,,,,,60,253055.00000000003,80,79.0,0,-1,-70,0,0,0,-4.0,12.0,-1002.0
1776459865.140011,response,right,x,1,1776459859.025773,6.114238023757935,,,,,,60,253055.00000000003,80,79.0,0,-1,-70,0,0,0,-4.0,12.0,-1002.0
1776459865.192063,response,right,x,1,1776459859.025773,6.166290044784546,2,0.0893909850653023,1.362765804649059,3.025169757042463,3.0481538406317323,60,253064.0,80,79.0,0,-1,-70,0,0,0,-4.0,14.0,-1002.0
1776459865.2441442,response,right,x,1,1776459859.025773,6.218371152877808,,,,,,60,253064.0,80,79.0,0,-1,-70,0,0,0,-4.0,14.0,-1002.0
1776459865.2952461,response,right,x,1,1776459859.025773,6.269473075866699,,,,,,60,253060.0,80,79.0,0,0,-70,0,0,0,-15.0,26.0,-991.0
1776459865.3465059,response,right,x,1,1776459859.025773,6.320732831954956,,,,,,60,253060.0,80,79.0,0,0,-70,0,0,0,-15.0,26.0,-991.0
1776459865.395963,response,right,x,1,1776459859.025773,6.370189905166626,,,,,,60,253053.00000000003,80,78.5,0,0,-70,0,0,0,18.0,-5.0,-985.0
1776459865.4470289,response,right,x,1,1776459859.025773,6.421255826950073,2,-0.11992470471498798,1.5757277341663982,2.991193578773723,3.048455901663415,60,253053.00000000003,80,78.5,0,0,-70,0,0,0,18.0,-5.0,-985.0
1776459865.4976199,response,right,x,1,1776459859.025773,6.47184681892395,,,,,,60,253051.00000000003,80,78.5,0,0,-70,0,0,0,28.0,-8.0,-1005.0
1776459865.5493171,response,right,x,1,1776459859.025773,6.523544073104858,,,,,,60,253051.00000000003,80,78.5,0,0,-70,0,0,0,28.0,-8.0,-1005.0
1776459865.600341,response,right,x,1,1776459859.025773,6.574568033218384,2,-0.579032650770246,1.2664962396930646,2.958826526264677,3.026706703490785,60,253054.0,80,78.5,0,0,-70,0,0,0,2.0,10.0,-994.0
1776459865.6511,response,right,x,1,1776459859.025773,6.625326871871948,,,,,,60,253054.0,80,78.5,0,0,-70,0,0,0,2.0,10.0,-994.0
1776459865.701555,response,right,x,1,1776459859.025773,6.675781965255737,,,,,,60,253051.00000000003,80,78.5,0,0,-70,0,0,0,12.0,-4.0,-1016.0
1776459865.752511,response,right,x,1,1776459859.025773,6.726737976074219,2,-0.33817658726626254,1.1851584807801343,3.0081675042250464,3.0327741097311236,60,253064.0,80,78.5,0,-1,-70,0,0,0,-1.0,7.0,-1020.0
1776459865.80276,response,right,x,1,1776459859.025773,6.776986837387085,2,-0.33817658726626254,1.1851584807801343,3.0081675042250464,3.0327741097311236,60,253064.0,80,78.5,0,-1,-70,0,0,0,-1.0,7.0,-1020.0
1776459865.8541281,response,right,x,1,1776459859.025773,6.828355073928833,,,,,,60,253062.0,80,78.5,0,0,-70,0,0,0,9.0,13.0,-1011.0
1776459865.9046779,response,right,x,1,1776459859.025773,6.878904819488525,,,,,,60,253062.0,80,78.5,0,0,-70,0,0,0,9.0,13.0,-1011.0
1776459865.9542139,response,right,x,1,1776459859.025773,6.928440809249878,2,0.09826700176968717,1.354918794040392,2.9961645508788024,3.018712601415157,60,253054.0,80,78.5,0,0,-70,0,0,0,6.0,23.0,-990.0
1776459866.005694,response,right,x,1,1776459859.025773,6.979920864105225,2,-0.34081016452769547,1.474515079254773,2.978009819679029,3.0347748870040228,60,253054.0,80,78.5,0,0,-70,0,0,0,6.0,23.0,-990.0
1776459866.056093,response,right,x,1,1776459859.025773,7.030319929122925,2,-0.3307836465776134,1.1745105673747605,3.012528760868407,3.035655002471128,60,253059.0,80,78.5,0,0,-70,0,0,0,12.0,19.0,-986.0
1776459866.1074371,response,right,x,1,1776459859.025773,7.081664085388184,,,,,,60,253059.0,80,78.5,0,0,-70,0,0,0,12.0,19.0,-986.0
1776459866.1569762,response,right,x,1,1776459859.025773,7.1312031745910645,,,,,,60,253054.0,80,78.5,0,0,-70,0,0,0,0.0,8.0,-1011.0
1776459866.206306,response,right,x,1,1776459859.025773,7.180532932281494,,,,,,60,253054.0,80,78.5,0,0,-70,0,0,0,0.0,8.0,-1011.0
1776459866.256468,response,right,x,1,1776459859.025773,7.230695009231567,2,-0.5262159797062389,0.9220853912336955,2.9942280929545237,3.041114239254337,60,253050.0,79,78.5,0,0,-70,0,0,0,10.0,7.0,-1002.0
1776459866.305682,response,right,x,1,1776459859.025773,7.279908895492554,2,-0.5799551055226636,1.255178202076015,2.9634571424818437,3.0304359545390835,60,253050.0,79,78.5,0,0,-70,0,0,0,10.0,7.0,-1002.0
1776459866.355977,response,right,x,1,1776459859.025773,7.330204010009766,2,-0.3215104956771432,1.4650802282677042,2.98619922756079,3.039252283743612,60,253054.0,79,79.0,0,0,-70,0,0,0,0.0,8.0,-990.0
1776459866.406236,response,right,x,1,1776459859.025773,7.380462884902954,,,,,,60,253054.0,79,79.0,0,0,-70,0,0,0,0.0,8.0,-990.0
1776459866.456068,response,right,x,1,1776459859.025773,7.430294990539551,2,-0.5767624276764447,1.2525672459182164,2.96623529729869,3.0323253372009056,60,253051.00000000003,79,79.0,0,0,-70,0,0,0,-7.0,10.0,-1001.0
1776459866.5065331,response,right,x,1,1776459859.025773,7.480760097503662,2,-0.5767624276764447,1.2525672459182164,2.96623529729869,3.0323253372009056,60,253051.00000000003,79,79.0,0,0,-70,0,0,0,-7.0,10.0,-1001.0
1776459866.555736,response,right,x,1,1776459859.025773,7.52996301651001,,,,,,60,253059.0,79,79.0,0,0,-70,0,0,0,-2.0,32.0,-1022.0
1776459866.606282,response,right,x,1,1776459859.025773,7.5805089473724365,2,-0.3231851336642057,1.1632995652941815,3.016904075689918,3.038556496193753,60,253059.0,79,79.0,0,0,-70,0,0,0,-2.0,32.0,-1022.0
1776459866.654176,response,right,x,1,1776459859.025773,7.628402948379517,2,-0.3231851336642057,1.1632995652941815,3.016904075689918,3.038556496193753,60,253059.0,79,79.0,0,0,-70,0,0,0,-2.0,32.0,-1022.0
1776459866.700613,response,right,x,1,1776459859.025773,7.674839973449707,2,-0.5771271132503567,1.2534111714463947,2.9651603247921843,3.031413643563712,60,253052.0,79,79.0,0,0,-70,0,0,0,1.0,15.0,-1020.0
1776459866.7491462,response,right,x,1,1776459859.025773,7.723373174667358,,,,,,60,253052.0,79,79.0,0,0,-70,0,0,0,1.0,15.0,-1020.0
