timestamp,elapsed,my_id,peer_age_s,peer_seq,peer_pos_x,peer_pos_y,peer_pos_z,peer_state,pos_x,pos_y,pos_z,marker_id,tx_count,rx_count,crc_errors,target_x,target_z,err_x_cm,err_y_cm,err_z_cm,err_3d_cm,dist_to_peer_cm,dist_to_mid_cm,cmd_lr,cmd_fb,cmd_ud,feedback,tello_height_cm,tello_baro_cm,tello_battery,tello_temp_c,tello_pitch,tello_roll,tello_yaw,tello_vgx,tello_vgy,tello_vgz
1778086251.19578,9.5367431640625e-07,1,0.0033540725708007812,268,1.7781084775924683,1.4070701599121094,3.509692668914795,5,0.20279602474587702,1.4064565311182702,3.5578644300181117,0,252,269,0,0.9904522511691727,3.5337785494664535,78.76562264232957,-10.777609230488316,-2.4085880551658168,79.53603879612345,157.60488071951764,78.80244035975883,30,13,-30,ok,120,248804.0,67,75.5,0,0,0,0,0,0
1778086251.268945,0.0731658935546875,1,-0.0035219192504882812,272,1.7781084775924683,1.4070701599121094,3.509692668914795,5,0.15897328172165529,1.345369528753857,3.578906966000941,0,256,273,0,0.9685408796570618,3.544299817457868,80.95675979354066,-4.668908994046994,-3.4607148543072785,81.16509234126796,162.06138964690956,81.0306948234548,30,5,17,ok,120,248804.0,67,75.5,0,0,0,0,0,0
1778086251.343504,0.14772486686706543,1,0.010910987854003906,275,1.7096389532089233,1.1936146020889282,3.5852062702178955,5,0.18214678724984198,1.234746432424605,3.6367220230337836,0,260,276,0,0.9687160450238976,3.5857929461914724,78.65692577740556,6.3934006388782105,-5.092907684231118,79.08049856419468,157.6432641305348,78.8216320652674,30,8,30,ok,120,248801.00000000003,67,75.5,0,0,0,0,0,0
1778086251.414882,0.2191028594970703,1,0.0023529529571533203,279,1.8204301595687866,1.3414579629898071,3.532569646835327,5,0.35432038387138387,1.1430272451703312,3.6481482687818887,0,263,280,0,1.0629459504310228,3.5912192912512957,70.8625566559639,15.565319364305585,-5.692897753059301,72.77492828961981,142.1817290743994,71.09086453719972,16,5,30,ok,130,248813.0,67,75.5,0,0,0,0,0,0
1778086251.486677,0.29089784622192383,1,0.014194965362548828,282,1.8137521743774414,1.3404252529144287,3.532926559448242,5,0.27296121734520096,1.3734406694413535,3.575881798518506,0,267,283,0,1.0264844329066092,3.554949680692358,75.35232155614082,-7.476023062796644,-2.093211782614768,75.75120342477992,150.76277921910201,75.38138960955098,30,-11,-30,ok,130,248813.0,67,75.5,0,0,0,0,0,0
1778086251.558333,0.36255383491516113,1,0.005869150161743164,286,1.7453974485397339,1.294013261795044,3.5368168354034424,5,0.23092055565623457,1.3087396127201454,3.5994247235757686,0,270,287,0,1.002579918734769,3.566954415932426,77.16593630785344,-1.0059173906758367,-3.24703076433428,77.24077164845708,154.46844253830267,77.23422126915133,30,6,21,ok,130,248801.00000000003,67,75.5,0,1,0,0,0,0
1778086251.6306849,0.4349057674407959,1,-0.0026831626892089844,290,1.7709039449691772,1.3920886516571045,3.499380350112915,5,0.2655399450126447,1.188724742192052,3.639117757734886,0,274,291,0,1.0196513750669651,3.584293521713687,75.41114300543204,10.995569662133509,-5.482423602119901,76.4054972507452,151.22033537773686,75.61016768886843,30,11,30,ok,130,248796.99999999997,67,75.5,0,1,0,0,0,0
1778086251.702983,0.5072038173675537,1,0.01036977767944336,293,1.874017596244812,1.3788821697235107,3.5312674045562744,5,0.20911495174582714,1.4157792008372825,3.5586545559237486,0,278,294,0,0.9977048028787767,3.5441743032371047,78.85898511329495,-11.709876202389546,-1.448025268664388,79.7368014843388,157.74455693021636,78.87227846510817,30,-12,-30,ok,130,248812.0,67,75.5,0,1,0,0,1,0
1778086251.776741,0.5809619426727295,1,0.004548072814941406,297,1.7929707765579224,1.3242812156677246,3.543092966079712,5,0.2135519754753957,1.4185012911470012,3.558814921381285,0,281,298,0,1.000852208428902,3.54634200453868,78.73002329535062,-11.982085233361417,-1.2472916842604764,79.64636006228794,157.47980574831908,78.73990287415954,30,0,-9,ok,130,248812.0,67,75.5,0,1,0,0,1,0
1778086251.847859,0.6520798206329346,1,0.014091968536376953,300,1.7537205219268799,1.201926350593567,3.5707178115844727,5,0.10572507294941891,1.4090410680156356,3.5724906171773267,0,285,301,0,0.9454145099368143,3.5569939238535557,83.96894369873954,-11.036062920224854,-1.5496693323771016,84.70525170083,167.9664845250004,83.98324226250021,30,2,-4,ok,130,248810.0,67,75.5,0,1,0,0,1,0
1778086251.9204092,0.7246301174163818,1,0.008103370666503906,304,1.6783828735351562,1.3426613807678223,3.5271780490875244,5,0.22158063354456925,1.4212820928859573,3.5601968513684734,0,288,305,0,1.001388785254779,3.5472202771284813,77.98081517102096,-12.260165407257029,-1.29765742399921,78.94937051896169,155.98322280972394,77.99161140486196,30,0,-13,ok,130,248809.0,67,75.5,0,1,0,0,2,0
1778086251.993525,0.797745943069458,1,0.001165151596069336,308,1.5961096286773682,1.302636981010437,3.5246241092681885,5,0.226347330481988,1.4211223958384798,3.561632025702251,0,292,309,0,0.9897521005427747,3.5474412681974234,76.34047700607867,-12.244195702509275,-1.4190757504827456,77.32918293828392,152.70733060991188,76.35366530495597,30,1,-8,ok,130,248809.0,67,75.5,0,1,0,0,2,0
1778086252.064752,0.8689730167388916,1,0.012401103973388672,311,1.6622066497802734,1.325825572013855,3.5206665992736816,5,0.232274076371126,1.4220349434469877,3.5626518820502207,0,296,312,0,0.9832438782000207,3.5471849488604983,75.09698018288947,-12.335450463360065,-1.5466933189722365,76.11906483231556,150.22581259972932,75.11290629986466,30,1,-9,ok,130,248806.0,67,75.5,0,1,0,0,2,0
1778086252.1359732,0.9401941299438477,1,0.003706216812133789,315,1.5800113677978516,1.2917500734329224,3.5320887565612793,5,0.1793386739118197,1.4582547039897005,3.5436902835508683,0,299,316,0,0.9464395469239999,3.537408644683187,76.71008730121802,-15.957426517631346,-0.6281638867681405,78.3547799734945,153.4253184272939,76.71265921364694,30,-2,-24,ok,130,248817.99999999997,67,75.0,0,1,0,0,2,0
1778086252.208807,1.0130279064178467,1,-0.003434896469116211,319,1.5677846670150757,1.2836511135101318,3.5363426208496094,5,0.3172165926124354,1.3839153837684623,3.5831468887265783,0,303,320,0,1.0026835514021764,3.5594470891920853,68.54669587897409,-8.523494495507533,-2.369979953449297,69.11523912509645,137.17530857853853,68.58765428926927,19,7,19,ok,130,248817.99999999997,67,75.0,0,1,0,0,2,0
1778086252.281166,1.0853869915008545,1,0.008979082107543945,322,1.609007716178894,1.3671468496322632,3.497795343399048,5,0.30068025373639307,1.4778390024702728,3.5458053808316428,0,306,323,0,0.9778522644600354,3.5386843314222913,67.71720107236423,-17.915856365688576,-0.7121049409351432,70.05072679021892,135.4418903371023,67.72094516855115,30,-5,-30,ok,130,248817.99999999997,67,75.0,0,1,0,0,3,0
1778086252.350558,1.1547789573669434,1,-0.002646923065185547,326,1.548845887184143,1.2686703205108643,3.53049635887146,5,0.40053077256183134,1.3448861487544939,3.58433628785696,0,310,327,0,1.0125197182868932,3.557162496984434,61.19889457250619,-4.620570994110684,-2.7173790872526027,61.433203744491315,122.51838794239119,61.25919397119558,21,8,30,ok,130,248813.0,67,75.0,0,1,0,0,3,0
1778086252.422744,1.2269649505615234,1,0.010483026504516602,329,1.5436248779296875,1.259434461593628,3.5375797748565674,5,0.42066433956332255,1.3425991282106005,3.5843442846645335,0,314,330,0,1.0094555240378145,3.5550953680927266,58.879118447449194,-4.391868939721344,-2.924891657180684,59.11509192362544,117.90344490904405,58.95172245452203,30,2,-3,ok,130,248807.00000000003,67,75.0,0,0,0,0,3,0
1778086252.495218,1.2994389533996582,1,0.0028450489044189453,333,1.4544026851654053,1.2346121072769165,3.540727138519287,5,0.4788615366317335,1.4616985340978759,3.5240516958243995,0,317,334,0,1.0245553607989104,3.5257958917621446,54.569382416717694,-16.301809528448885,0.17441959377451077,56.95258478276906,109.13932232768664,54.56966116384332,25,-10,-30,ok,130,248807.00000000003,67,75.0,0,0,0,0,3,0
1778086252.568206,1.372426986694336,1,-0.0038950443267822266,337,1.4246469736099243,1.2245910167694092,3.5497031211853027,5,0.36950372327452474,1.5181982801933622,3.5221685839579817,0,321,338,0,0.9591600381785907,3.5264217740737553,58.9656314904066,-21.95178413799752,0.42531901157736307,62.920643831458676,117.93433076630471,58.96716538315234,30,0,-30,ok,130,248815.0,67,75.0,0,0,0,0,3,0
1778086252.642347,1.4465680122375488,1,0.010032176971435547,340,1.4246469736099243,1.2245910167694092,3.5497031211853027,5,0.4117399499894309,1.4251889198250542,3.5656477250813725,0,325,341,0,0.9654306717753971,3.5499761272549275,55.36907217859661,-12.650848101166723,-1.5671597826445005,56.81755099774869,110.78249218541674,55.39124609270837,29,8,22,ok,130,248814.0,67,75.0,0,0,0,0,3,0
1778086252.714147,1.5183680057525635,1,0.0021181106567382812,344,1.4761450290679932,1.4022629261016846,3.445828914642334,5,0.5766675275892784,1.4252096417398907,3.5253303167363144,0,328,345,0,1.0414028144047047,3.524426182962464,46.47352868154263,-12.652920292650371,-0.09041337738504573,48.16527208087938,92.94723326044677,46.47361663022338,5,-4,-10,ok,130,248814.0,67,75.0,0,0,0,0,3,0
1778086252.785481,1.5897018909454346,1,0.013506174087524414,347,1.3763234615325928,1.3707836866378784,3.458104372024536,5,0.45781497910255853,1.3728864891523618,3.574950481232436,2,332,348,0,0.9700102148186895,3.544346374658958,51.2195235716131,-7.420605033897476,-3.0604106573477896,51.84468234412998,102.62174639509188,51.31087319754594,30,12,11,ok,130,248814.0,67,75.0,0,0,0,0,3,0
1778086252.857481,1.6617019176483154,1,0.005136013031005859,351,1.3037409782409668,1.4129173755645752,3.455507516860962,5,0.6098084544218332,1.4304045516307196,3.5744077997768615,2,335,352,0,1.0269277813572064,3.5414320447725403,41.71193269353732,-13.172411281733254,-3.297575500432126,43.86652199783306,83.68415222038729,41.842076110193645,1,3,-30,ok,130,248825.0,67,75.0,0,0,0,0,3,0
1778086252.929612,1.733832836151123,1,-0.002493143081665039,355,1.4015783071517944,1.2968944311141968,3.4778835773468018,5,0.6522157936116333,1.5213315644729062,3.5317298187267245,2,339,356,0,1.0389272272000847,3.5168047554021804,38.67114335884514,-22.265112565951917,-1.492506332454413,44.647733888824405,77.3998683159802,38.6999341579901,22,-5,-30,ok,130,248826.00000000003,67,75.0,0,0,0,0,3,0
1778086253.001667,1.8058879375457764,1,0.008849143981933594,358,1.3173686265945435,1.3355892896652222,3.480147361755371,5,0.636030740000656,1.4425199856875186,3.560304135616881,2,343,359,0,1.0166936846861496,3.5275023880284344,38.066294468549366,-14.383954687413159,-3.2801747588446784,40.82524309130846,76.41471902755053,38.20735951377527,30,8,15,ok,130,248826.00000000003,67,75.0,0,0,0,0,3,0
1778086253.074267,1.8784878253936768,1,0.0017240047454833984,362,1.337712049484253,1.3949939012527466,3.4398810863494873,5,0.6091279477468512,1.35555660382984,3.5875943023352463,2,346,363,0,0.9959491238291751,3.534844593127004,38.68211760823239,-5.687616501645287,-5.274970920824229,39.4522562389333,78.08025463259361,39.040127316296804,30,10,24,ok,130,248829.0,67,75.0,0,-1,0,0,3,0
1778086253.145843,1.950063943862915,1,0.013720989227294922,365,1.3285187482833862,1.3978221416473389,3.4369394779205322,5,0.4154078223861903,1.528089577953291,3.5224766237110163,0,350,366,0,0.893081047065936,3.495238026110841,47.76732246797458,-22.9409139139904,-2.723859760017522,53.06055068467372,95.68984288317566,47.844921441587836,30,-6,-30,ok,130,248823.99999999997,67,74.5,0,-1,0,0,3,0
1778086253.2176902,2.021911144256592,1,0.005282163619995117,369,1.206545114517212,1.472853422164917,3.4300079345703125,5,,,,,353,370,0,,,,,,,,,0,0,0,lost_self,130,248823.99999999997,67,74.5,0,-1,0,0,3,0
1778086253.290904,2.0951249599456787,1,-0.0030438899993896484,373,1.1962063312530518,1.2178362607955933,3.527684211730957,5,0.5348943596103652,1.395912894783025,3.579164918246914,0,357,374,0,0.938546775530719,3.522205991537893,40.365241592035375,-9.723245596963803,-5.695892670902092,41.90867961461795,81.53026240855155,40.765131204275775,22,8,13,ok,130,248823.99999999997,67,74.5,0,0,0,0,3,0
1778086253.3640819,2.1683027744293213,1,0.011724710464477539,376,1.094963788986206,1.4626823663711548,3.422295093536377,5,,,,,361,377,0,,,,,,,,,0,0,0,lost_self,130,248819.0,67,74.5,0,0,0,0,3,0
1778086253.435088,2.2393088340759277,1,0.0030298233032226562,380,1.086988925933838,1.463775873184204,3.419844150543213,5,,,,,364,381,0,,,,,,,,,0,0,0,lost_self,130,248829.0,67,74.5,0,0,0,0,3,0
1778086253.509435,2.3136558532714844,1,-0.0026481151580810547,384,1.0850200653076172,1.2694817781448364,3.5001747608184814,5,0.6843115807500777,1.193078243718908,3.6191929354360988,2,368,385,0,0.9888100758655517,3.5456166155184947,30.4498495115474,10.560219509447899,-7.357631991760405,33.05822620604112,62.652313087453024,31.32615654372652,18,6,28,ok,130,248829.0,67,74.5,0,0,0,0,3,0
1778086253.5811121,2.3853330612182617,1,0.009095907211303711,387,0.8260760307312012,0.914595365524292,3.576526403427124,5,0.7065611851721452,1.1520661941466557,3.5191709568404077,3,371,388,0,0.9655444136514985,3.503007003183311,25.89832284793533,14.661424466673134,-1.6163953657096553,29.80424848416981,51.897431933157414,25.948715966578707,11,-18,22,ok,130,248891.0,67,74.5,0,-1,0,0,3,0
1778086253.652141,2.456362009048462,1,1.621246337890625e-05,391,1.0056408643722534,1.2464931011199951,3.529754638671875,5,0.7871927397426431,1.24504519094046,3.6151938532203514,2,375,392,0,0.9872289338199529,3.555658896486465,20.003619407730977,5.363524787292695,-5.9534956733886535,21.548928007822386,41.741533280051335,20.870766640025682,2,19,-30,ok,130,248879.0,67,74.5,0,-2,0,0,3,0
1778086253.722933,2.527153968811035,1,0.010854959487915039,394,0.9435657262802124,1.4666508436203003,3.4280693531036377,5,0.7552777040356938,1.3146059997263837,3.575224841271044,2,379,395,0,0.9426456296620043,3.532561001496614,18.736792562631045,-1.5925560912996684,-4.266383977443011,19.28226290355943,38.43276871514978,19.216384357574878,18,-2,-27,ok,130,248879.0,67,74.5,0,-2,0,0,3,0
1778086253.795912,2.600132942199707,1,0.00041604042053222656,398,0.9435657262802124,1.4666508436203003,3.4280693531036377,5,0.8899479331763323,1.2955107245317559,3.5907304638549222,2,382,399,0,0.9866180629626778,3.5370589372478194,9.66701297863456,0.3169714281631153,-5.367152660710284,11.061552264430622,22.11401977139918,11.05700988569959,-13,7,5,ok,130,248846.0,67,74.5,0,-2,0,0,3,0
1778086253.868448,2.672668933868408,1,-0.004090785980224609,402,0.9284244179725647,1.2339749336242676,3.548130989074707,5,0.9671378660052992,1.4533959791097026,3.5337309186580166,2,386,403,0,0.9996325524076808,3.515324783569693,3.2494686402381623,-15.471554029631562,-1.8406135088323783,15.915900496817518,7.469110933113122,3.734555466556561,-8,-10,-30,ok,130,248827.0,67,74.5,0,-2,0,0,2,0
1778086253.942286,2.746506929397583,1,0.010249853134155273,405,0.9511330723762512,1.3285130262374878,3.507795810699463,5,1.0846092076854847,1.3491469876352746,3.558797255435389,2,390,406,0,1.0347816185035776,3.532286472757062,-4.982758918190711,-5.046654882188761,-2.651078267832707,7.571316128580525,11.288242098570318,5.64412104928517,0,0,30,ok,130,248827.0,67,74.5,0,-2,0,0,2,0
1778086254.017319,2.821539878845215,1,0.005324125289916992,409,1.0191420316696167,1.384453296661377,3.4658889770507812,5,1.037654818880066,1.2948322984409164,3.5893980678311768,2,393,410,0,1.0002379053769035,3.543724676787445,-3.7416913503162563,0.384814037247061,-4.5673391043731915,5.916833823814082,11.808613916183,5.904306958091525,0,0,16,ok,130,248823.0,67,74.5,0,-1,0,0,2,0
1778086254.088073,2.892293930053711,1,0.016054153442382812,412,0.7549579739570618,1.3299709558486938,3.518764019012451,5,1.0374960889365774,1.4045742415886497,3.543190789353823,2,397,413,0,0.9795296596957496,3.521782866185891,-5.796642924082784,-10.589380277526272,-2.140792316793183,12.260466369393217,12.35865056273696,6.179325281368488,-2,2,-30,ok,130,248823.0,67,74.5,0,-2,0,0,1,0
1778086254.1596842,2.963905096054077,1,0.007682085037231445,416,0.7549579739570618,1.3299709558486938,3.518764019012451,5,1.0448986844016104,1.2897550697920297,3.5727335326879044,2,400,417,0,0.9787860788798823,3.5329440888270147,-6.611260552172804,0.8925369021357321,-3.9789443860889673,7.7677143766991845,15.432532457935086,7.716266228967554,0,0,30,ok,130,248838.0,67,75.0,0,-2,0,0,1,0
1778086254.232843,3.0370638370513916,1,-0.00023412704467773438,420,0.92537522315979,1.2488923072814941,3.514442205429077,5,1.0509212418706138,1.295530878460541,3.586529889547119,2,404,421,0,0.9767807550386051,3.5388852401789475,-7.414048683200869,0.31495603528459704,-4.76446493681717,8.818584995065534,17.62591773622387,8.812958868111934,4,8,-3,ok,130,248838.0,67,75.0,0,-2,0,0,1,0
1778086254.3030689,3.1072897911071777,1,0.011149883270263672,423,0.9230714440345764,1.2505035400390625,3.5140573978424072,5,1.109015862671542,1.3530224177958186,3.552649270313795,2,408,424,0,1.004547172798717,3.5273191833584585,-10.44686898728251,-5.434197898243154,-2.533008695533656,12.045070007532729,21.49913530252733,10.749567651263664,-5,-5,-26,ok,130,248834.0,67,75.0,0,-1,0,0,0,0
1778086254.3746428,3.178863763809204,1,0.0028247833251953125,427,0.8555222153663635,1.1995266675949097,3.5223796367645264,5,1.0509449339972317,1.4047711790285913,3.540609251037027,2,411,428,0,0.9700089890294462,3.5271935664488803,-8.093594496778545,-10.609074021520426,-1.3415684588146792,13.411134530757266,16.40805629048979,8.204028145244893,14,-2,-27,ok,130,248833.0,67,75.0,0,0,0,0,0,0
1778086254.4450629,3.249283790588379,1,0.013094902038574219,430,0.8711180090904236,1.3217588663101196,3.494464159011841,5,1.0520094843968348,1.4049011513263867,3.5404698015094715,2,415,431,0,0.966959613674114,3.5237696648061734,-8.504987072272085,-10.62207125129997,-1.6700136703298174,13.70956412240364,17.33479169284752,8.667395846423757,4,2,-9,ok,130,248833.0,67,75.0,0,0,0,0,0,0
1778086254.517525,3.3217458724975586,1,0.005675077438354492,434,0.8711180090904236,1.3217588663101196,3.494464159011841,5,1.0610850722102063,1.2912056268477983,3.5703113759107836,2,418,435,0,0.9664964661254355,3.537857223776353,-9.458860608477082,0.7474811965588746,-3.2454152134430814,10.028035303959411,20.00027638991494,10.00013819495747,2,8,30,ok,130,248823.99999999997,67,75.0,0,0,0,0,0,0
1778086254.590275,3.394495964050293,1,0.01854991912841797,437,0.9311391711235046,1.2687501907348633,3.527827501296997,5,1.106909464992329,1.4555875060630847,3.5073545778854656,2,422,438,0,0.9839084837323648,3.510249982529082,-12.300098125996417,-15.690706724969772,0.2895404643616484,19.939270927460086,24.607011000090466,12.303505500045233,-5,-11,-30,ok,130,248823.0,67,75.0,0,0,0,0,0,0
1778086254.662663,3.466883897781372,1,0.010896921157836914,441,0.9308024644851685,1.27262544631958,3.5271921157836914,5,1.1375805650148232,1.239084364574969,3.594278234415132,2,426,442,0,1.0102343144016186,3.554238566842118,-12.73462506132046,5.959607423841806,-4.0039667573013915,14.619143131261014,26.698496230760693,13.349248115380346,2,17,30,ok,130,248835.0,67,75.0,0,0,0,0,0,0
1778086254.735554,3.5397748947143555,1,0.003459930419921875,445,0.9870294332504272,1.2136262655258179,3.558501958847046,5,1.1180843215710456,1.3538423396804622,3.551047681310546,2,429,446,0,1.0149906588855653,3.5351069115294873,-10.309366268548036,-5.5161900867075175,-1.5940769781058517,11.800528265458858,20.86375941878198,10.431879709390977,13,-6,-30,ok,130,248835.0,67,75.0,0,0,0,0,0,0
1778086254.809658,3.6138789653778076,1,-0.0020728111267089844,449,0.9872212409973145,1.2155319452285767,3.558248519897461,5,1.166974202161053,1.4073873272474198,3.5166466518702175,2,433,450,0,1.043300975295414,3.520644291463597,-12.367322686563886,-10.870688843403276,0.39976395933796205,16.470651401413235,24.747564054410148,12.373782027205076,-3,-6,-28,ok,130,248815.0,67,75.0,0,0,0,0,0,0
1778086254.8816798,3.6859006881713867,1,0.009892702102661133,452,0.893042266368866,1.438773274421692,3.466162919998169,5,1.1225991935853477,1.353008150734543,3.550739924810022,2,437,453,0,1.0192366474034547,3.5346975230682345,-10.336254618189301,-5.432771192115604,-1.6042401741787504,11.786719174323697,20.920013964478034,10.460006982239003,11,8,12,ok,130,248819.99999999997,67,75.0,0,0,0,0,0,0
1778086254.9549599,3.759180784225464,1,0.003087759017944336,456,0.9443472623825073,1.3932844400405884,3.4981908798217773,5,1.1272895816520876,1.346304496280434,3.536435689498477,2,440,457,0,1.0271334068753335,3.52603360810354,-10.01561747767541,-4.762405746704701,-1.0402081394937035,11.138901872663752,20.138979758923846,10.069489879461923,6,0,-3,ok,130,248819.99999999997,67,75.0,0,0,0,0,0,0
1778086255.027122,3.831342935562134,1,0.015234947204589844,459,0.9443472623825073,1.3932844400405884,3.4981908798217773,5,1.1164062440976183,1.4516196751185628,3.507432713571102,2,444,460,0,1.026268566428854,3.5117650401904736,-9.013767766876434,-15.29392363051758,0.43323266193717735,17.757809547088115,18.04834617293779,9.024173086468908,9,-4,-30,ok,130,248817.99999999997,67,75.0,0,0,0,0,0,0
1778086255.099048,3.903268814086914,1,0.006708860397338867,463,0.9511507749557495,1.394646406173706,3.4979851245880127,5,1.173584899792612,1.4061056349162455,3.5154206662077065,2,447,464,0,1.0598599421429338,3.5159790768572865,-11.372495764967816,-10.74251961028585,0.05584106495799546,15.644120484262533,22.745265718276105,11.372632859138053,-4,2,5,ok,130,248831.0,67,75.0,0,0,0,0,0,0
1778086255.173202,3.9774229526519775,1,0.0011129379272460938,467,1.0035626888275146,1.2234805822372437,3.5580925941467285,5,1.1723170661534474,1.4035166501123237,3.516252837187714,2,451,468,0,1.0637524951798523,3.5182867306503987,-10.856457097359517,-10.483621129893672,0.20338934626846772,15.093387291398058,21.716724240362183,10.858362120181079,6,0,-9,ok,120,248819.0,67,74.5,0,0,0,0,0,0
1778086255.245878,4.050098896026611,1,0.014167070388793945,470,0.8933815956115723,1.3426538705825806,3.5096487998962402,5,1.2293977164436576,1.176856363800462,3.5968988753663216,2,455,471,0,1.0899540160203576,3.5575132924967363,-13.94437004233,12.182407501292492,-3.9385582869585267,18.930629936289698,28.97983417876646,14.489917089383225,-8,17,30,ok,120,248819.0,67,74.5,0,0,0,0,0,0
1778086255.319169,4.123389959335327,1,0.007341146469116211,474,1.0046941041946411,1.3364545106887817,3.514463424682617,5,1.1627404123653906,1.4939832399172084,3.4736214387100155,2,458,475,0,1.0577294059152373,3.4931221657833067,-10.501100645015327,-19.530280110382137,1.9500727073291202,22.26000313366104,21.36126385030729,10.680631925153644,16,-20,-30,ok,120,248823.99999999997,67,74.5,0,0,0,0,0,0
1778086255.39134,4.195560932159424,1,-0.00023102760314941406,478,0.9548113942146301,1.3859754800796509,3.4846882820129395,5,1.1320320872110767,1.34000281049325,3.5358667230431102,2,462,479,0,1.0403496279141626,3.5196472930820715,-9.168245929691409,-4.132237167986297,-1.6219429961038756,10.18640351264375,18.62121720080763,9.310608600403816,9,14,30,ok,120,248825.0,67,74.5,0,0,0,0,0,0
1778086255.462037,4.266258001327515,1,0.010320901870727539,481,1.0058273077011108,1.3351643085479736,3.5145156383514404,5,1.1146149744945832,1.4398132498229392,3.493678769031447,2,466,482,0,1.0386901366391812,3.5015753609733196,-7.592483785540205,-14.113281100955222,0.7896591941872533,16.04537550546061,15.266875472951934,7.633437736475971,11,-8,-30,ok,120,248819.0,67,74.5,0,0,0,0,0,0
1778086255.534569,4.338789939880371,1,0.002935171127319336,485,0.9427355527877808,1.27790367603302,3.527935743331909,5,1.145435857136506,1.2221831458023233,3.579618514682775,2,469,486,0,1.053999846110472,3.5464042877683664,-9.143601102603395,7.649729301106367,-3.3214226914408673,12.375606983051522,19.456339822150305,9.72816991107517,0,16,30,ok,120,248823.99999999997,67,74.5,0,0,0,0,0,0
1778086255.608196,4.412416934967041,1,-0.0035059452056884766,489,1.007988691329956,1.2124755382537842,3.5442051887512207,5,1.1200599379175413,1.4367002593764973,3.4934622202906223,2,473,490,0,1.0452894758102054,3.5062020348803804,-7.4770462107335955,-13.801982056311024,1.2739814589758147,15.748776380341148,15.169607614603587,7.584803807301793,11,-15,-30,ok,120,248823.99999999997,67,74.5,0,0,0,0,0,0
1778086255.6790972,4.483318090438843,1,0.007498979568481445,492,1.0063647031784058,1.3279473781585693,3.500446319580078,5,1.20354335281387,1.292651431479774,3.5564986626601973,2,476,493,0,1.0904820537722857,3.537874080752172,-11.306129904158425,0.6029007333613112,-1.8624581908025295,11.474354588231986,22.917008873078775,11.458504436539387,-9,12,30,ok,120,248834.0,67,74.5,0,0,0,0,0,0
1778086255.751895,4.5561158657073975,1,0.0004000663757324219,496,1.007988691329956,1.2124755382537842,3.5442051887512207,5,1.1543795229819331,1.2209058414799554,3.5784687504083914,2,480,497,0,1.0661767640127198,3.54799116178905,-8.820275896921338,7.777459733343162,-3.047758861934158,12.148044323350323,18.663986817216678,9.33199340860835,13,6,27,ok,120,248819.99999999997,67,74.5,0,0,0,0,0,0
1778086255.824345,4.628566026687622,1,0.012757062911987305,499,0.9518477320671082,1.3844131231307983,3.4844980239868164,5,1.1981000864000368,1.2849498420222036,3.5431635441620744,2,484,500,0,1.0916911792502426,3.5287666351715523,-10.640890714979424,1.373059679118338,-1.439690899052204,10.825274036964126,21.47568532950218,10.737842664751101,-2,-3,-23,ok,120,248819.99999999997,67,74.5,0,0,0,0,0,0
1778086255.895874,4.700094938278198,1,0.004167795181274414,503,1.006453275680542,1.3291512727737427,3.5004451274871826,5,1.2053704840163577,1.2860275312257696,3.542102797640872,2,487,504,0,1.095436326276272,3.5273601183362366,-10.993415774008565,1.265290758761739,-1.4742679304635242,11.163763568583015,22.18365671488935,11.09182835744466,2,1,-2,ok,120,248819.0,67,74.5,0,0,0,0,0,0
1778086255.9677691,4.771990060806274,1,-0.003906726837158203,507,1.0107470750808716,1.3297579288482666,3.5004215240478516,5,1.1990662649655806,1.2839249542166504,3.543174816693609,2,491,508,0,1.0957801968050234,3.528879455489787,-10.328606816055718,1.475548459673659,-1.4295361203821688,10.53095131206081,20.854130744785294,10.427065372392654,6,1,0,ok,120,248828.00000000003,67,74.5,0,0,0,0,0,0
1778086256.042191,4.846411943435669,1,0.010534048080444336,510,0.942902147769928,1.279197335243225,3.527940511703491,5,1.1821108129002162,1.3891567303110508,3.5016385550076228,2,495,511,0,1.0833696482766424,3.508950379231297,-9.874116462357385,-9.04762914976638,0.7311824223674268,13.412397133945836,19.802303264719104,9.901151632359552,5,-6,-30,ok,120,248823.0,67,74.5,0,0,0,0,0,0
1778086256.114282,4.9185028076171875,1,0.0027120113372802734,514,1.0672919750213623,1.275228500366211,3.5133657455444336,5,1.1359532369470282,1.3333278442835508,3.536709347670669,2,498,515,0,1.0680756366896471,3.525575150701103,-6.78776002573811,-3.464740547016376,-1.1134196969565746,7.701806063951391,13.7569458221771,6.878472911088558,0,0,14,ok,120,248823.0,67,74.5,0,0,0,0,0,0
1778086256.1857548,4.989975690841675,1,0.014130830764770508,517,0.9497895836830139,1.3857758045196533,3.4842898845672607,5,1.200049669197895,1.2839022181441604,3.543194351526324,2,502,518,0,1.0964864085871469,3.525072946117433,-10.356326061074817,1.4778220669226627,-1.8121405408890734,10.617028816232663,21.027348175481517,10.513674087740744,2,6,15,ok,120,248828.00000000003,67,74.5,0,0,0,0,0,0
1778086256.257279,5.061499834060669,1,0.005844831466674805,521,0.9488358497619629,1.3794115781784058,3.4710850715637207,5,1.1230962802845617,1.43369852065076,3.493842156255301,2,505,522,0,1.0544141607919524,3.498561770480899,-6.868211949260927,-13.501808183737296,0.4719614225598079,15.15565594736139,13.768817373232206,6.884408686616103,18,-7,-30,ok,120,248825.0,67,74.5,0,0,0,0,0,0
1778086256.328324,5.132544994354248,1,0.01667189598083496,524,1.0028594732284546,1.324701189994812,3.4867961406707764,5,1.1367589174713728,1.3322585796655213,3.5368137357615828,2,509,525,0,1.0609249032540142,3.516459494729012,-7.583401421735858,-3.3578140852134286,-2.0354241032570553,8.539662981298672,15.703621035074095,7.851810517537036,2,10,30,ok,120,248825.0,67,74.5,0,0,0,0,0,0
1778086256.402136,5.206357002258301,1,0.01056814193725586,528,1.0018281936645508,1.331807255744934,3.5002658367156982,5,1.207311759771824,1.2884998324650903,3.5565826431119465,2,513,529,0,1.0993251032540798,3.527329436699749,-10.798665651774408,1.0180606348296761,-2.925320641219731,11.234105579392978,22.37576195017802,11.18788097508901,-7,5,12,ok,120,248823.0,67,74.5,0,0,0,0,0,0
1778086256.474459,5.278679847717285,1,0.002749919891357422,532,0.9998565912246704,1.2198683023452759,3.5439975261688232,5,1.2467504924965522,1.1685175564665327,3.5948672082992164,2,516,533,0,1.1186321768379521,3.549193744210987,-12.811831565860011,13.016288234685437,-4.567346408822948,18.82624340378519,27.203211669959508,13.601605834979738,-4,9,30,ok,120,248828.00000000003,67,74.5,0,0,0,0,0,0
1778086256.546547,5.3507678508758545,1,0.014911890029907227,535,0.9998565912246704,1.2198683023452759,3.5439975261688232,5,1.201781904342294,1.2808347618491351,3.543307787624775,2,520,536,0,1.0954672275198103,3.5261375340063266,-10.631467682248363,1.7845676964251878,-1.7170253618448594,10.916087350100959,21.538456878050457,10.769228439025232,10,-7,-30,ok,120,248828.00000000003,67,74.5,0,0,0,0,0,0
1778086256.620432,5.424652814865112,1,0.008885860443115234,539,0.9343577027320862,1.2866346836090088,3.5273609161376953,5,1.1240479187466523,1.43010996355842,3.4941496817532878,2,523,540,0,1.0560662069071243,3.501522256347721,-6.798171183952806,-13.1429524745033,0.7372574594433079,14.815393337838975,13.67606376233029,6.838031881165158,18,-7,-30,ok,120,248830.00000000003,67,74.5,0,0,0,0,0,0
1778086256.693363,5.497583866119385,1,0.0018529891967773438,543,0.8931300044059753,1.4405885934829712,3.4525744915008545,5,1.2808178624611413,1.2408227490416994,3.5577921057992214,2,527,544,0,1.1235660556009073,3.5295440149929638,-15.7251806860234,5.785768977168759,-2.8248090806257675,16.992232831715718,31.953769977895835,15.976884988947912,-30,15,30,ok,120,248823.0,67,74.5,0,0,0,0,0,0
1778086256.7648482,5.569069147109985,1,0.013358116149902344,546,0.9507580399513245,1.4857450723648071,3.4419891834259033,5,1.138996643039017,1.329046821529566,3.5372172185781303,2,531,547,0,1.0527159744066146,3.5166127775610834,-8.628066863240246,-3.0366382716179086,-2.060444101704695,9.37604072545809,17.741360454350076,8.870680227175031,28,0,-30,ok,120,248823.0,67,74.5,0,0,0,0,0,0
1778086256.836908,5.641129016876221,1,0.0054509639739990234,550,0.9289939403533936,1.2910081148147583,3.52724552154541,5,1.1394135197309965,1.3303675725561264,3.536706996228501,2,534,551,0,1.0516842934145685,3.5198676945101246,-8.7729226316428,-3.168713374273935,-1.6839301718376554,9.478424804402792,17.866145899372412,8.933072949686217,3,0,-5,ok,120,248823.0,67,74.5,0,0,0,0,0,0
1778086256.908946,5.713166952133179,1,-0.0024747848510742188,554,0.8764223456382751,1.348899245262146,3.4943668842315674,5,1.2531521877485385,1.3468377650184657,3.5201117910882522,2,538,555,0,1.1006513069489534,3.51204326341255,-15.250088079958513,-4.815732620507873,-0.806852767570243,16.012728640280272,30.542835352012,15.271417676006,-22,-1,-12,ok,120,248821.0,67,74.5,0,0,0,0,0,0
1778086256.98129,5.785511016845703,1,0.009835243225097656,557,0.9300930500030518,1.3922995328903198,3.4707374572753906,5,1.205450415538413,1.2794980573937342,3.5436407780634176,2,542,558,0,1.072316974365047,3.5219622331851133,-13.313344117336602,1.9182381419652783,-2.167854487830434,13.624403188261791,26.97737753504056,13.488688767520273,8,7,21,ok,120,248821.99999999997,67,74.5,0,0,0,0,0,0
1778086257.0532532,5.857474088668823,1,0.0017251968383789062,561,0.9218246936798096,1.295304298400879,3.5273187160491943,5,1.1374153642375142,1.3290074369383718,3.5377644137440103,2,545,562,0,1.0334224551180438,3.517981625392933,-10.399290911947045,-3.032699812498474,-1.9782788351077496,11.011635063580156,21.171569485585124,10.585784742792557,13,1,-22,ok,120,248821.99999999997,67,74.5,0,0,0,0,0,0
1778086257.124933,5.929153919219971,1,0.013374090194702148,564,0.9259500503540039,1.3998397588729858,3.4842443466186523,5,1.212423376997617,1.2795352000650277,3.542692125852414,2,549,565,0,1.0663073026936785,3.5167109077252485,-14.611607430393846,1.9145238748359272,-2.5981218127165473,14.963779947625898,29.681597575174695,14.84079878758735,-14,4,15,ok,120,248829.0,67,74.5,0,0,0,0,0,0
1778086257.197558,6.001778841018677,1,0.005931854248046875,568,0.9284963011741638,1.400163173675537,3.4846878051757812,5,1.212423376997617,1.2795352000650277,3.542692125852414,2,552,569,0,1.0659409650963083,3.514043838290129,-14.648241190130861,1.9145238748359272,-2.86482875622851,15.048043574966046,29.851513446842866,14.925756723421435,0,3,-1,ok,120,248830.00000000003,67,74.5,0,0,0,0,0,0
1778086257.271944,6.076164960861206,1,0.0003941059112548828,572,0.9085327386856079,1.3055351972579956,3.541506052017212,5,1.253176514038793,1.3404223921311416,3.5059307580189727,2,556,573,0,1.0872802045093732,3.501221376905681,-16.58963095294197,-4.174195331775454,-0.47093811132916663,17.113197963189947,33.19262796824091,16.596313984120467,-7,-6,-26,ok,120,248829.0,67,74.5,0,0,0,0,0,0
1778086257.345397,6.149617910385132,1,0.013765811920166016,575,0.9085327386856079,1.3055351972579956,3.541506052017212,5,1.2101364486349324,1.2717072373097529,3.528962702273594,2,560,576,0,1.0631210904783357,3.518957153319948,-14.701535815659671,2.6973201503634137,-1.0005548953645693,14.980380550283714,29.471088574245897,14.73554428712296,6,3,22,ok,120,248829.0,67,74.5,0,0,0,0,0,0
1778086257.417194,6.221414804458618,1,0.005815982818603516,579,0.9114102721214294,1.3098829984664917,3.5422420501708984,5,1.1619511541955045,1.2035344784580477,3.565597392759109,2,563,580,0,1.0379294639941241,3.538211781601799,-12.402169020138043,9.514596035533929,-2.738561115731031,15.869500657174559,25.401851380453817,12.700925690226908,9,8,27,ok,120,248832.00000000003,67,74.5,0,0,0,0,0,0
1778086257.4898329,6.294053792953491,1,-0.0017201900482177734,583,0.811259388923645,1.4256091117858887,3.4879398345947266,5,1.2396295601681924,1.1514754642420848,3.5680810648399324,2,567,584,0,1.0726959821858038,3.5390519270399077,-16.69335779823886,14.720497457130222,-2.9029137800024696,22.445225514116085,33.887761979461004,16.943880989730495,-16,3,25,ok,120,248834.0,67,74.5,0,0,0,0,0,0
1778086257.5624928,6.366713762283325,1,0.011099815368652344,586,0.8540525436401367,1.3677737712860107,3.5087344646453857,5,1.161695307702793,1.20253640659796,3.565631011167811,2,571,587,0,1.0289763243054217,3.540201713164472,-13.27189833973712,9.6144032215427,-2.542929800333882,16.584526728735845,27.026637046420937,13.513318523210465,12,1,-13,ok,120,248834.0,67,74.5,0,0,0,0,0,0
1778086257.637341,6.441561937332153,1,0.00584721565246582,590,0.8992038369178772,1.315792202949524,3.543032646179199,5,1.2837729299236336,1.231795143197831,3.5436544856532253,2,574,591,0,1.0886013318682213,3.5301955710403043,-19.51715980554123,6.688529561555612,-1.3458914612920925,20.67528423979744,39.12702138934744,19.56351069467372,-23,-1,-7,ok,120,248827.0,67,74.5,0,0,0,0,0,0
1778086257.713116,6.517336845397949,1,0.0016269683837890625,594,0.8478317856788635,1.3791207075119019,3.5229310989379883,5,1.2099377916939844,1.2708027216898432,3.5289933890493534,2,578,595,0,1.0468013712112003,3.525282944758327,-16.31364204827841,2.787771712354381,-0.37104442910265156,16.554282284893198,32.63572219808994,16.31786109904498,9,-1,-13,ok,120,248821.99999999997,67,74.5,0,0,0,0,0,0
1778086257.7846851,6.5889060497283936,1,0.013387203216552734,597,0.8071820735931396,1.4384533166885376,3.502582550048828,5,1.2099377916939844,1.2708027216898432,3.5289933890493534,2,582,598,0,1.0392192319873863,3.5264013663128924,-17.07185597065981,2.787771712354381,-0.2592022736461086,17.29991685592216,34.14764718698001,17.07382359349002,-4,0,0,ok,120,248823.0,67,74.5,0,0,0,0,0,0
1778086257.855756,6.659976959228516,1,0.004422187805175781,601,0.841442883014679,1.3826719522476196,3.5232627391815186,5,1.2101364486349324,1.2717072373097529,3.528962702273594,2,585,602,0,1.0351254444784272,3.5252458158727817,-17.501100415650516,2.6973201503634137,-0.3716886400812136,17.711640358741608,35.010093870416725,17.505046935208373,-3,1,-1,ok,120,248823.0,67,74.5,0,0,0,0,0,0
1778086257.927791,6.732012033462524,1,-0.003532886505126953,605,0.8838302493095398,1.3285185098648071,3.557866096496582,5,1.253176514038793,1.3404223921311416,3.5059307580189727,2,589,606,0,1.0551015715943532,3.514752346525432,-19.80749424444397,-4.174195331775454,0.882158850645931,20.261760514557217,39.654257399752346,19.827128699876184,-11,-3,-29,ok,120,248825.0,67,74.5,0,0,0,0,0,0
1778086258.000282,6.804502964019775,1,0.008960962295532227,608,0.81431645154953,1.5335301160812378,3.4615745544433594,5,1.253331583579528,1.3412836114131448,3.505902548885676,2,592,609,0,1.0491107425789772,3.509696523475812,-20.42208410005508,-4.260317259975777,0.37939745901360844,20.865180674446034,40.85121596337757,20.425607981688785,-6,2,-5,ok,120,248838.0,67,74.5,0,0,0,0,0,0
1778086258.0735428,6.877763748168945,1,0.002317667007446289,612,0.8358394503593445,1.3969957828521729,3.53814435005188,5,1.2471947509707675,1.1567205617297573,3.5665394601467733,2,596,613,0,1.0475785801143283,3.5431527613224327,-19.961617085643923,14.195987708362967,-2.3386698824340524,24.60612932805296,40.19629502791897,20.09814751395948,-2,11,30,ok,120,248838.0,67,74.5,0,0,0,0,0,0
1778086258.146231,6.950451850891113,1,0.014923810958862305,615,0.8358394503593445,1.3969957828521729,3.53814435005188,5,1.2072227941193814,1.2737986012884348,3.5294825923437916,2,600,616,0,1.0264542833585857,3.526462445258848,-18.07685107607957,2.488183752495221,-0.3020147084943581,18.24978948089778,36.15874763931441,18.079373819657196,3,-5,-30,ok,120,248827.0,67,74.5,0,0,0,0,0,0
1778086258.218946,7.02316689491272,1,0.007772922515869141,619,0.8500362038612366,1.4962022304534912,3.4957473278045654,5,1.1824130225968836,1.377884346851185,3.489555312724772,2,603,620,0,1.0109764205312968,3.5035434730509234,-17.143660206558685,-7.920390803779798,1.3988160326151355,18.93658792009914,34.40126576572702,17.200632882863495,0,-5,-30,ok,120,248830.00000000003,67,74.5,0,0,0,0,0,0
1778086258.291887,7.0961079597473145,1,0.00040221214294433594,623,0.7909289598464966,1.462935209274292,3.516242742538452,5,1.2068187600586184,1.2762390363804843,3.5290144770728955,2,607,624,0,1.0196228626476411,3.522855032950014,-18.71958974109773,2.2441402432902713,-0.6159444122881386,18.863684502917113,37.45944087110967,18.729720435554835,-9,8,30,ok,120,248833.0,67,74.5,0,0,0,0,0,0
1778086258.363534,7.167754888534546,1,0.012305974960327148,626,0.7881419658660889,1.4637542963027954,3.516441822052002,5,1.1618804911009497,1.2078990727563297,3.5653249555037703,2,611,627,0,0.9959637214358661,3.5418764766656503,-16.591676966508363,9.078136605705733,-2.3448478838119957,19.05766565954593,33.51310526699559,16.75655263349779,4,8,27,ok,120,248833.0,67,74.5,0,0,0,0,0,0
1778086258.435884,7.240104913711548,1,0.004828214645385742,630,0.7934717535972595,1.4635487794876099,3.517366409301758,5,1.1621018409634873,1.2089821128974014,3.5652958138472877,2,614,631,0,0.9930762007785462,3.5414933852199235,-16.902564018494115,8.969832591598559,-2.3802428627364147,19.282637869498128,34.1386717073116,17.069335853655808,-3,2,3,ok,120,248827.0,67,74.5,0,0,0,0,0,0
1778086258.508159,7.312379837036133,1,-0.0031402111053466797,634,0.8292384743690491,1.4138377904891968,3.552114725112915,5,1.1877288007435447,1.3857778935590888,3.5023675920080213,2,618,635,0,1.0024776947347942,3.509669813588811,-18.52511060087505,-8.709745474570173,0.7302221580789858,20.48347171273948,37.078993900849184,18.539496950424592,-9,-10,-30,ok,120,248828.00000000003,67,74.5,0,0,0,0,0,0
1778086258.581286,7.385506868362427,1,0.010198116302490234,637,0.8292384743690491,1.4138377904891968,3.552114725112915,5,1.1872177446739225,1.3803929419591268,3.4885387716442335,2,621,638,0,1.003154793126203,3.5084141640737645,-18.406295154771946,-8.171250314573975,1.9875392429530958,20.23638666536803,37.02658577653953,18.51329288826976,-3,-4,-6,ok,120,248828.00000000003,67,74.5,0,0,0,0,0,0
1778086258.650997,7.4552178382873535,1,-0.0009310245513916016,641,0.8040686249732971,1.5591552257537842,3.489283561706543,5,1.1610297684538764,1.2091603222685856,3.565166942338001,2,625,642,0,0.988075128429552,3.543674450149065,-17.295464002432436,8.952011654480142,-2.149249218893612,19.593132978834685,34.85698479583976,17.42849239791988,0,16,30,ok,120,248838.0,67,74.5,0,0,0,0,0,0
1778086258.72418,7.528400897979736,1,0.012855052947998047,644,0.7529489398002625,1.520656943321228,3.4950180053710938,5,1.208705902040187,1.2797900342781476,3.5432273239404495,2,629,645,0,1.0067325383127645,3.53000924440774,-20.197336372742235,1.889040453523938,-1.3218079532709481,20.328503305803817,40.48108559903138,20.240542799515698,-15,0,-25,ok,120,248833.0,67,74.5,0,0,0,0,0,0
1778086258.7970319,7.601252794265747,1,0.005773067474365234,648,0.8450697064399719,1.5054963827133179,3.5103864669799805,5,1.1863635405736432,1.3805243807714835,3.488412618253367,2,632,649,0,0.9952509514906638,3.503516837762662,-19.111258908297945,-8.184394195809652,1.5104219509295191,20.84480510540336,38.34170531052823,19.170852655264117,0,-9,-30,ok,120,248828.00000000003,67,74.5,0,0,0,0,0,0
1778086258.8712058,7.675426721572876,1,2.193450927734375e-05,652,0.8338438272476196,1.4105132818222046,3.5527536869049072,5,1.1599613639297621,1.2093245226837805,3.5650488228330355,2,636,653,0,0.9847320423812934,3.5441168740754,-17.52293215484687,8.935591612960646,-2.09319487576356,19.780783947177166,35.29502039049074,17.64751019524537,1,14,30,ok,120,248828.00000000003,67,74.5,0,0,0,0,0,0
1778086258.944445,7.748665809631348,1,0.012121915817260742,655,0.8338438272476196,1.4105132818222046,3.5527536869049072,5,1.124809633843596,1.4253651411547956,3.481024822318765,2,640,656,0,0.970012543674556,3.5043743653715715,-15.479709016903998,-12.66847023414086,2.3349543052806343,20.138608217279575,31.309640870234674,15.654820435117342,4,-15,-30,ok,120,248834.0,67,74.5,0,0,0,0,0,0
1778086259.0171762,7.821397066116333,1,0.006192207336425781,659,0.7535461783409119,1.514398217201233,3.4951395988464355,5,1.2466316397116128,1.34444569548386,3.5063067544879356,2,643,660,0,1.0284281981550427,3.515626155802699,-21.82034415565701,-4.576525667047293,0.9319401314763276,22.314580853359402,43.68047305055069,21.840236525275344,-28,5,22,ok,120,248835.0,67,74.5,0,0,0,0,0,0
1778086259.0899909,7.894211769104004,1,-0.0009012222290039062,663,0.8462027311325073,1.4991393089294434,3.510530471801758,5,1.1850256933706913,1.3865624740736053,3.5024413881780196,2,647,664,0,0.9986854910322981,3.5110944568157936,-18.634020233839323,-8.788203526021832,0.8653068637773931,20.620571943047945,37.30820103106734,18.65410051553367,6,0,-23,ok,120,248835.0,67,74.5,0,0,0,0,0,0
1778086259.162326,7.966547012329102,1,0.011294126510620117,666,0.8462027311325073,1.4991393089294434,3.510530471801758,5,1.1844831439052432,1.387140751728059,3.5018834357148516,2,651,667,0,0.9994744823472902,3.5082164647522625,-18.500866155795304,-8.846031291467193,0.6333029037410842,20.516710035777074,37.023404548071426,18.511702274035713,-4,1,-9,ok,120,248831.0,67,74.5,0,0,0,0,0,0
1778086259.234901,8.039121866226196,1,0.0037949085235595703,670,0.809192955493927,1.2988131046295166,3.5942447185516357,5,1.137218453418309,1.3271178479229717,3.522508950534806,2,654,671,0,0.9761624077613624,3.525089294465058,-16.105604565694655,-2.84374091095847,0.25803439302518605,16.356770541374214,32.21534293932059,16.107671469660296,4,2,15,ok,120,248831.0,67,74.5,0,0,0,0,0,0
1778086259.308852,8.113072872161865,1,-0.0023832321166992188,674,0.8312691450119019,1.411208987236023,3.566807746887207,5,1.1791321595130106,1.3878435898591228,3.5019961633116403,2,658,675,0,1.0020142736344408,3.5193197596982317,-17.71178858785698,-8.916315104573581,1.7323596386591422,19.905004394439178,35.592612991945195,17.796306495972587,-10,-5,-30,ok,120,248829.0,67,74.5,0,0,0,0,0,0
1778086259.382276,8.18649697303772,1,0.01133418083190918,677,0.7891576886177063,1.4642060995101929,3.530733108520508,5,1.135258816065953,1.326410405367215,3.5223274829734277,2,662,678,0,0.9765831007970203,3.5307570846254084,-15.867571526893265,-2.772996655382798,0.84296016519807,16.130093566125055,31.77989351783197,15.889946758915984,2,3,16,ok,120,248828.00000000003,67,74.5,0,0,0,0,0,0
1778086259.4558809,8.260101795196533,1,0.004753828048706055,681,0.7907289266586304,1.4643399715423584,3.530585289001465,5,1.1993818720247063,1.2778173697218806,3.5284692337248402,2,665,682,0,1.0059499474895852,3.5324424351321495,-19.343192453512103,2.086306909150637,0.3973201407309279,19.459435606075722,38.69454522734896,19.347272613674466,-17,2,14,ok,120,248837.0,67,74.5,0,0,0,0,0,0
1778086259.5299299,8.334150791168213,1,-0.0013210773468017578,685,0.8144883513450623,1.5505061149597168,3.489675760269165,5,1.1498765602024492,1.210352924846299,3.564740940278352,2,669,686,0,0.9799875743345468,3.5466359179941715,-16.988898586790246,8.832751396708804,-1.8105022284180539,19.233254814186072,34.17019716134809,17.085098580674046,3,9,26,ok,120,248837.0,67,74.5,0,0,0,0,0,0
1778086259.602104,8.406324863433838,1,0.011009931564331055,688,0.8514165282249451,1.5056670904159546,3.523221492767334,5,1.2043011587163253,1.2821119431408112,3.542116005226645,2,673,689,0,1.013316770459237,3.5370785688383743,-19.09843882570883,1.656849567257579,-0.5037436388270589,19.176789974381084,38.21016216835525,19.105081084177613,-13,-3,-26,ok,120,248832.00000000003,67,74.5,0,0,0,0,0,0
1778086259.674165,8.478385925292969,1,0.003036022186279297,692,0.8524947762489319,1.4983670711517334,3.509652853012085,5,1.2033809196053489,1.2821185626984777,3.542114361635863,2,676,693,0,1.0132499037235252,3.5370228958686285,-19.01310158818237,1.6561876114909335,-0.5091465767234293,19.091888844312603,38.039835027987806,19.019917513993903,-5,1,-1,ok,120,248838.0,67,74.5,0,0,0,0,0,0
1778086259.7446852,8.548906087875366,1,0.01373434066772461,695,0.8524947762489319,1.4983670711517334,3.509652853012085,5,1.1319967736714378,1.3307943090839593,3.536493308782115,2,680,696,0,0.9779510835763462,3.5341575182674,-15.404569009509162,-3.211387027057233,-0.2335790514714997,15.737481125630234,30.81267956812691,15.406339784063455,9,0,-22,ok,120,248838.0,67,74.5,0,0,0,0,0,0
1778086259.817399,8.621619939804077,1,0.0064470767974853516,699,0.8373786807060242,1.4041081666946411,3.5515835285186768,5,1.1266225801160068,1.3256181876143422,3.522489839334208,2,683,700,0,0.9770255946243868,3.5244894591663867,-14.959698549162004,-2.693774880095523,0.19996198321785563,15.201611381072922,29.922069813201908,14.96103490660095,-2,0,-2,ok,120,248844.0,67,74.5,0,0,0,0,0,0
1778086259.888214,8.692435026168823,1,0.017272233963012695,702,0.8431759476661682,1.4044488668441772,3.551966905593872,5,1.1307112158643258,1.3322606544833857,3.5358594086018416,2,687,703,0,0.9798140876644379,3.53024669121937,-15.089712819988787,-3.358021566999869,-0.5612717382471377,15.46902607788626,30.20029529351585,15.100147646757925,-4,4,-7,ok,120,248836.0,67,74.5,0,0,0,0,0,0
1778086259.959834,8.764055013656616,1,0.008929967880249023,706,0.840080976486206,1.398473858833313,3.5373358726501465,5,1.1449575574417135,1.2149615996293834,3.5791053147717395,2,690,707,0,0.990119963944913,3.5522823170624216,-15.48375934968005,8.371883918400357,-2.6822997709317953,17.805335604899884,31.428747073973224,15.714373536986612,-5,10,30,ok,120,248836.0,67,74.5,0,0,0,0,0,0
1778086260.03152,8.835740804672241,1,0.0005559921264648438,710,0.8942898511886597,1.4457656145095825,3.5286271572113037,5,1.2272226720079953,1.1636290374198415,3.5818724834186035,2,694,711,0,1.0377250790111807,3.5535435181489685,-18.949759299681457,13.505140139354555,-2.832896526963502,23.44157610810227,38.32068267911446,19.16034133955723,-18,3,24,ok,120,248835.0,67,74.5,0,0,0,0,0,0
1778086260.104276,8.908496856689453,1,0.013279914855957031,713,0.7585470676422119,1.5081316232681274,3.4803056716918945,5,1.1242674646374677,1.3320474846161015,3.5366265118410487,2,698,714,0,0.9827511450944888,3.5303349018241117,-14.151631954297894,-3.3367045802714435,-0.629161001693701,14.55328581427445,28.33122168463319,14.165610842316594,13,-5,-30,ok,120,248829.0,67,74.5,0,0,0,0,0,0
1778086260.175364,8.97958493232727,1,0.004400014877319336,717,0.8561039566993713,1.4968774318695068,3.494939088821411,5,1.1266978655063689,1.3308776162444156,3.536452052980696,2,701,718,0,0.984259309808591,3.528480022147315,-14.243855569777786,-3.2197177431028567,-0.7972030833380828,14.624962789491969,28.532294282007776,14.266147141003888,-3,2,-4,ok,120,248834.0,67,74.0,0,0,0,0,0,0
1778086260.2473311,9.051552057266235,1,-0.0036737918853759766,721,0.7984403371810913,1.4580849409103394,3.501497507095337,5,1.0684140740679386,1.2721413466716194,3.570307948384872,2,705,722,0,0.9517390116476359,3.5448982607296067,-11.667506242030278,2.653909214176764,-2.540968765526541,12.232352933605592,23.881978492176657,11.940989246088323,6,8,19,ok,120,248834.0,67,74.0,0,0,0,0,0,0
1778086260.319673,9.123893976211548,1,0.008755922317504883,724,0.8019823431968689,1.4598225355148315,3.502227306365967,5,1.1369859239348812,1.2139224212548005,3.5799058799144117,2,708,725,0,0.9828679095153532,3.549233129828994,-15.4118014419528,8.475801755858647,-3.067275008541781,17.854159601303554,31.42812750796352,15.71406375398176,-17,4,23,ok,120,248836.0,67,74.0,0,0,0,0,0,0
1778086260.391635,9.195855855941772,1,0.0007097721099853516,728,0.8155657052993774,1.553091049194336,3.4741761684417725,5,1.120647854103738,1.3374165799419633,3.5508227121078115,2,712,729,0,0.9733355636368661,3.529853585920887,-14.731229046687178,-3.8736141128576262,-2.096912618692448,15.375663824749857,29.759445677390666,14.879722838695336,-1,0,-30,ok,120,248831.0,67,74.0,0,0,0,0,0,0
1778086260.463454,9.267674922943115,1,0.012641191482543945,731,0.8025033473968506,1.46045982837677,3.5024631023406982,5,1.1249443046158485,1.3376924773192034,3.5503701508062764,2,716,732,0,0.9729417513760891,3.5265333175667966,-15.200255323975941,-3.901203850581636,-2.3836833239479827,15.872904573099392,30.772046282490006,15.386023141245001,-6,3,-5,ok,120,248831.0,67,74.0,0,0,0,0,0,0
1778086260.535108,9.33932900428772,1,0.003326892852783203,735,0.7388585209846497,1.423457384109497,3.5043513774871826,5,1.189506935427387,1.2873485392825885,3.5575036257955497,2,719,736,0,0.9988966633130111,3.5280385241137475,-19.061027211437597,1.1331899530798495,-2.9465101681802164,19.32068321763273,38.57484571719523,19.28742285859762,-20,5,15,ok,120,248833.0,67,74.0,0,0,0,0,0,0
1778086260.608927,9.413147926330566,1,-0.0018150806427001953,739,0.8418573141098022,1.4056180715560913,3.522836208343506,5,1.1181621293878774,1.3362449122853897,3.5510637494059734,2,723,740,0,0.9599472267258277,3.524456651614722,-15.821490266204973,-3.7564473472002646,-2.6607097791251366,16.477555262982392,32.08731405227622,16.043657026138114,6,1,-22,ok,120,248832.00000000003,67,74.0,0,0,0,0,0,0
1778086260.681164,9.485384941101074,1,0.010164976119995117,742,0.8561431169509888,1.4976952075958252,3.481470823287964,5,1.1359982086081815,1.2189281763959765,3.5944032997864293,2,727,743,0,0.9749650194177782,3.5461992487797045,-16.103318919040323,7.975226241741051,-4.820405100672476,18.60530620951631,33.61863682798047,16.809318413990233,-6,11,30,ok,120,248833.0,67,74.0,0,0,0,0,0,0
1778086260.753539,9.557760000228882,1,0.0026869773864746094,746,0.8561431169509888,1.4976952075958252,3.481470823287964,5,1.1350156539983447,1.218735613956238,3.594548049234734,2,730,747,0,0.974476189628586,3.5454298569080165,-16.053946436975874,7.994482485714904,-4.911819232671766,18.594808807571457,33.57708530386368,16.78854265193184,-5,4,3,ok,120,248833.0,67,74.0,0,0,0,0,0,0
1778086260.825462,9.629683017730713,1,0.01471710205078125,749,0.8561431169509888,1.4976952075958252,3.481470823287964,5,1.1340360609123303,1.2185277338735272,3.594704344878762,2,734,750,0,0.9775928168211974,3.5442563369920697,-15.644324409113297,8.015270493985982,-5.044800788669246,18.28768608399374,32.8752126207534,16.4376063103767,-3,4,3,ok,120,248832.00000000003,67,74.0,0,0,0,0,0,0
1778086260.896995,9.701215982437134,1,0.005208015441894531,753,0.8574218153953552,1.4912370443344116,3.4674582481384277,5,1.0577305992453707,1.2769377852125572,3.5852224463544093,2,737,754,0,0.942905053000123,3.537342321590672,-11.482554624524777,2.174265360082983,-4.788012476373726,12.629392465006486,24.881649798926585,12.440824899463292,11,3,-20,ok,120,248841.0,67,74.0,0,0,0,0,0,0
1778086260.9713862,9.775607109069824,1,0.0005702972412109375,757,0.8574218153953552,1.4912370443344116,3.4674582481384277,5,1.131809484106264,1.2190847932763733,3.595077388022116,2,741,758,0,0.9825605023115682,3.541849922405566,-14.924898179469581,7.95956455370137,-5.32274656165499,17.732424665332253,31.691274296067313,15.845637148033664,-16,6,23,ok,120,248841.0,67,74.0,0,0,0,0,0,0
1778086261.0429409,9.847161769866943,1,0.012054920196533203,760,0.8576171398162842,1.4896330833435059,3.467481851577759,5,1.0542586760698998,1.389939783370301,3.5403990513957235,2,745,761,0,0.9472297103196007,3.5123244259196866,-10.702896575029907,-9.125934455691409,-2.8074625476036896,14.342821226716868,22.129965300649204,11.064982650324596,12,-5,-30,ok,120,248835.0,67,74.0,-1,0,0,0,0,0
1778086261.115723,9.919943809509277,1,0.004816770553588867,764,0.8578144311904907,1.4880410432815552,3.467505693435669,5,1.1159313871338234,1.3381623470789714,3.5516767389517394,2,748,765,0,0.9855008102394276,3.5156604144444747,-13.043057689439586,-3.94819082655844,-3.6016324507264663,14.095436176404592,27.062380545707725,13.531190272853863,-11,6,12,ok,120,248836.0,67,74.0,0,0,0,0,0,0
1778086261.1882272,9.992448091506958,1,-0.0027418136596679688,768,0.8580137491226196,1.4864603281021118,3.467529535293579,5,1.0523853681083015,1.3905606955286318,3.5406845505813997,2,752,769,0,0.9547375779149677,3.5067076531936845,-9.76477901933338,-9.18802567152448,-3.3976897387715255,13.831667310847221,20.678027454993543,10.339013727496772,9,2,-26,ok,120,248840.0,67,74.0,0,0,0,0,0,0
1778086261.2618518,10.066072702407837,1,0.01083683967590332,771,0.8579674363136292,1.4761765003204346,3.454617500305176,5,1.059437587106805,1.2792125734448068,3.5856039799074053,2,756,772,0,0.9583777073743844,3.5274890351702632,-10.105987973242048,1.946786536858025,-5.811494473714207,11.819240193574853,23.315613732717733,11.657806866358856,-3,13,30,ok,120,248840.0,67,74.0,0,0,0,0,0,0
1778086261.334552,10.138772964477539,1,0.0037250518798828125,775,0.801085889339447,1.433205246925354,3.4611051082611084,5,1.125782110120916,1.2207934751596443,3.596257211835085,2,759,776,0,0.9881088921557186,3.5315427939449244,-13.767321796519738,7.78869636537427,-6.471441789016064,17.090421274782706,30.42490481678133,15.212452408390664,-17,7,22,ok,120,248833.0,67,74.0,0,0,0,0,0,0
1778086261.409038,10.213258981704712,1,-0.0017459392547607422,779,0.8014973402023315,1.4285022020339966,3.461174726486206,5,1.1112445286289308,1.3410468990019826,3.5526205947315663,2,763,780,0,0.9774247403629349,3.508455979343055,-13.381978826599584,-4.236646018859558,-4.416461538851113,14.715014758022814,28.183859908799626,14.091929954399813,-3,-2,-30,ok,120,248835.0,67,74.0,0,0,0,0,0,0
1778086261.482622,10.286842823028564,1,0.011497974395751953,782,0.8445204496383667,1.3760416507720947,3.4954090118408203,5,1.0553193692077087,1.2827613815574916,3.5862198100637603,2,767,783,0,0.9486558252925121,3.5270025097405515,-10.666354391519661,1.5919057255895375,-5.921730032320882,12.303339645004788,24.39983627659674,12.199918138298381,6,10,18,ok,120,248835.0,67,74.0,0,0,0,0,0,0
1778086261.554709,10.358929872512817,1,0.0037660598754882812,786,0.8017853498458862,1.4254274368286133,3.4612231254577637,5,1.0542638951652168,1.282505145431689,3.5864389900533022,2,770,787,0,0.9446508091744243,3.5267224045677814,-10.961308599079246,1.6175293381698097,-5.9716585485520834,12.586794396691472,24.964854658078348,12.482427329039163,-4,5,-1,ok,120,248844.0,67,74.0,0,0,0,0,0,0
1778086261.627726,10.431946992874146,1,-0.00296783447265625,790,0.8002196550369263,1.417799711227417,3.447305202484131,5,1.1044355981410168,1.3475258355620783,3.5682577400032276,2,774,791,0,0.9661493178636145,3.516370738974392,-13.82862802774023,-4.884539674869126,-5.188700102883548,15.55674418773533,29.54004481291566,14.77002240645783,-14,2,-28,ok,120,248848.0,67,74.0,0,0,0,0,0,0
1778086261.7155619,10.519782781600952,1,0.004767894744873047,794,0.789538562297821,1.549384355545044,3.3885395526885986,5,1.1174126371020432,1.226877780114234,3.5979287996208376,2,778,795,0,0.9683705955383358,3.526270884986505,-14.904204156370737,7.180265869915292,-7.165791463433235,18.028868150687156,33.074695392834165,16.537347696417083,-8,11,30,ok,120,248840.0,67,74.0,0,0,0,0,0,0
1778086261.78747,10.591691017150879,1,0.01684713363647461,797,0.8627780079841614,1.455282211303711,3.4408860206604004,5,1.1208210684334388,1.235499232837971,3.6123035476471688,2,782,798,0,0.97037257738288,3.5317930393350974,-15.04484910505588,6.318120597541599,-8.05105083120714,18.195756427410796,34.12722690642076,17.06361345321037,-6,9,-1,ok,120,248840.0,67,74.0,0,0,0,0,0,0
1778086261.858787,10.663007974624634,1,0.007988929748535156,801,0.8039683103561401,1.418061375617981,3.461232900619507,5,1.0431399387135978,1.290996580055002,3.587130086986675,2,785,802,0,0.9281570671506164,3.519619771524496,-11.498287156298137,0.7683858758384954,-6.7510315462179005,13.355802159395298,26.667360909300342,13.333680454650171,8,1,-21,ok,120,248836.0,67,74.0,0,0,0,0,0,0
1778086261.930312,10.734532833099365,1,0.01977705955505371,804,0.8476423025131226,1.3584085702896118,3.4822444915771484,5,1.0467226044795057,1.2918556018713274,3.587517012684616,2,789,805,0,0.9328581758569251,3.521134445830719,-11.386442862258061,0.6824836942059598,-6.63825668538971,13.19785273707226,26.360389441477434,13.180194720738717,-3,5,-2,ok,120,248835.0,67,74.0,0,0,0,0,0,0
1778086262.003632,10.807852983474731,1,0.01296091079711914,808,0.8042676448822021,1.4151626825332642,3.4612832069396973,5,1.1103462836725517,1.2343621728903469,3.5992239914222486,2,793,809,0,0.96484315949594,3.5269947152278784,-14.550312417661171,6.431826592304013,-7.222927619437014,17.471424331194065,32.48890732832798,16.24445366416399,-16,8,21,ok,120,248844.99999999997,67,74.0,0,0,0,0,0,0
1778086262.076983,10.881203889846802,1,0.0062198638916015625,812,0.8482837677001953,1.3538299798965454,3.482328176498413,5,1.1081615629475399,1.2362520752299626,3.599449589177745,2,796,813,0,0.9639860065122984,3.526289961896726,-14.41755564352415,6.242836358342441,-7.31596272810191,17.33096151891561,32.33507206567452,16.167536032837265,-5,6,1,ok,120,248844.99999999997,67,74.0,0,0,0,0,0,0
1778086262.1488378,10.95305871963501,1,-0.002809286117553711,816,0.8482837677001953,1.3538299798965454,3.482328176498413,5,1.105405100004825,1.2355779520576826,3.6004340222299516,2,800,817,0,0.9655139261568353,3.52810124411287,-13.989117384798977,6.31024867557044,-7.233277811708172,16.96569926217523,31.497029263537502,15.748514631768762,-4,6,2,ok,120,248842.99999999997,67,74.0,0,0,0,0,0,0
1778086262.221876,11.026096820831299,1,0.01124882698059082,819,0.8482837677001953,1.3538299798965454,3.482328176498413,5,0.9763659389436394,1.3496929901084127,3.559437221279925,2,804,820,0,0.9039983526676968,3.5097917795137494,-7.236758627594265,-5.101255129502569,-4.964544176617558,10.15087081052279,17.551908650132305,8.775954325066152,21,-2,-30,ok,120,248842.99999999997,67,74.0,0,0,0,0,0,0
1778086262.293938,11.098158836364746,1,0.0033080577850341797,823,0.8070269823074341,1.4132230281829834,3.461042881011963,5,1.031115480884718,1.2892884662122657,3.5754122184353254,2,807,824,0,0.9324661498888369,3.5223107361116597,-9.864933099588114,0.9391972601121346,-5.310148232366574,11.242627397652967,22.406657877430515,11.20332893871527,-12,6,19,ok,120,248842.99999999997,67,74.0,0,0,0,0,0,0
