timestamp,elapsed,target_x,target_y,target_z,pos_x,pos_y,pos_z,marker_id,publish_count,err_x_cm,err_y_cm,err_z_cm,err_3d_cm,cmd_lr,cmd_fb,cmd_ud,vel_x_pub,vel_y_pub,vel_z_pub,tello_height_cm,tello_baro_cm,tello_battery,tello_temp_c,tello_pitch,tello_roll,tello_yaw,tello_vgx,tello_vgy,tello_vgz
1778185550.791158,7.867813110351562e-06,0.18042253045678006,1.2709285650048359,3.8343754263257264,0.10125782609787715,1.2665187074941673,3.8273533083077758,2,0,7.916470435890291,0.440985751066858,0.7022118017950607,7.959778515106389,30,-3,2,0.0,0.0,0.0,100,252241.0,62,80.0,0,0,-2,0,0,0
1778185550.863504,0.07235383987426758,0.18042253045678006,1.2709285650048359,3.8343754263257264,0.10125782609787715,1.2665187074941673,3.8273533083077758,2,3,7.916470435890291,0.440985751066858,0.7022118017950607,7.959778515106389,4,0,0,0.0,0.0,0.0,100,252248.0,62,80.0,0,0,-2,0,0,0
1778185550.935769,0.14461898803710938,0.18042253045678006,1.2709285650048359,3.8343754263257264,0.18807039393778247,1.3473497907383654,3.827401822239385,2,7,-0.7647863481002409,-7.64212257335295,0.697360408634129,7.711889983909363,-30,0,-30,1.2013061627478085,1.1185348027247362,0.0006713323482018819,100,252250.0,62,80.0,0,0,-2,0,0,0
1778185551.008569,0.21741890907287598,0.18042253045678006,1.2709285650048359,3.8343754263257264,0.18392874780037383,1.3486053431075353,3.825681568418296,2,11,-0.35062173435937705,-7.767677810269946,0.8693857907430491,7.8240389708839775,1,-1,-5,-0.05689080535367405,0.017246617184558655,-0.023629885810508514,100,252250.0,62,80.0,0,0,-2,0,0,0
1778185551.079967,0.2888169288635254,0.18042253045678006,1.2709285650048359,3.8343754263257264,0.09358413236096697,1.1808153306241567,3.843748320581718,2,14,8.68383980958131,9.011323438067919,-0.9372894255991415,12.54956315619318,30,6,30,-1.2653658421383667,-2.3500653516073164,0.2530427624799197,100,252248.99999999997,62,80.0,0,0,-2,0,0,0
1778185551.150872,0.3597218990325928,0.18042253045678006,1.2709285650048359,3.8343754263257264,0.10013857187817199,1.2664675058377877,3.8274266481659187,2,18,8.028395857860806,0.4461059167048198,0.6948778159807656,8.070750009669348,2,-6,-29,0.09243977540046168,1.2079854911355306,-0.23019080858339427,100,252248.99999999997,62,80.0,0,0,-2,0,0,0
1778185551.22193,0.43077993392944336,0.18042253045678006,1.2709285650048359,3.8343754263257264,0.10262451086255864,1.2616764036688268,3.8298461717529575,2,21,7.779801959422142,0.9252161336009035,0.45292545727688704,7.847705708775877,4,0,2,0.034984628944429615,-0.06742519935874537,0.03404996480061712,100,252248.99999999997,62,80.0,0,0,-2,0,0,0
1778185551.2902322,0.499082088470459,0.18042253045678006,1.2709285650048359,3.8343754263257264,0.185793473609284,1.2637894982606337,3.8473756357399376,2,25,-0.5370943152503943,0.7139066744202172,-1.3000209414211206,1.577398963924308,-30,7,0,1.217662360808577,0.030937451475823424,0.2566458423570458,100,252248.99999999997,62,80.0,0,0,-2,0,0,0
1778185551.36043,0.5692799091339111,0.18042253045678006,1.2709285650048359,3.8343754263257264,0.18726805856965012,1.2604513783730649,3.848911662246347,2,28,-0.6845528112870064,1.0477186631770996,-1.4536235920620477,1.9181627918427369,0,1,1,0.02100613589466959,-0.047553041618951374,0.02188139876554586,100,252244.0,62,80.0,0,0,-2,0,0,0
1778185551.4307032,0.6395530700683594,0.18042253045678006,1.2709285650048359,3.8343754263257264,0.18683488202942355,1.3388740586369554,3.8100367811801283,2,32,-0.6412351572643499,-6.794549363211955,2.4338645145598026,7.245742201546314,0,-15,-30,-0.006164181808053834,1.115969158368218,-0.5531967048199457,100,252244.99999999997,62,80.0,0,0,-2,0,0,0
1778185551.50258,0.7114298343658447,0.18042253045678006,1.2709285650048359,3.8343754263257264,0.1874439417406205,1.2593263172880929,3.849042325770761,2,35,-0.7021411283840456,1.1602247716743008,-1.466689944503452,1.9975742985637965,0,14,28,0.008473666241793607,-1.1067240175090294,0.5426725169373988,100,252244.99999999997,62,80.0,0,0,-2,0,0,0
1778185551.573757,0.782606840133667,0.18042253045678006,1.2709285650048359,3.8343754263257264,0.1861535526925543,1.2615382513559188,3.847642494602677,2,39,-0.5731022235774236,0.939031364891707,-1.3267068276950678,1.7234781894681694,0,0,0,-0.018129296591590825,0.031076525964596143,-0.019666901592489846,100,252253.00000000003,62,80.0,0,0,-2,0,0,0
1778185551.64385,0.8526999950408936,0.18042253045678006,1.2709285650048359,3.8343754263257264,0.1861535526925543,1.2615382513559188,3.847642494602677,2,42,-0.5731022235774236,0.939031364891707,-1.3267068276950678,1.7234781894681694,0,0,0,0.0,0.0,0.0,100,252246.99999999997,62,80.0,0,-1,-2,0,0,0
1778185551.714879,0.9237289428710938,0.18042253045678006,1.2709285650048359,3.8343754263257264,0.18634765021788058,1.2604287338083728,3.8477856962678776,2,46,-0.5925119761100522,1.0499831196463028,-1.341026994215122,1.803299307544276,0,0,1,0.0027326538158820926,-0.015620638928769418,0.0020161028647485654,100,252246.99999999997,62,80.0,0,-1,-2,0,0,0
1778185551.7868538,0.9957036972045898,0.18042253045678006,1.2709285650048359,3.8343754263257264,0.18782497267983256,1.2571080841422502,3.849323806650523,2,49,-0.7402442223052502,1.3820480862585693,-1.4948380324796506,2.166231558429272,0,1,2,0.020525564493166372,-0.046136311222909995,0.021370137305622865,100,252244.99999999997,62,80.0,0,0,-2,0,0,0
1778185551.8571022,1.0659520626068115,0.18042253045678006,1.2709285650048359,3.8343754263257264,0.18752499770535147,1.3357720061743519,3.8105379748549195,2,53,-0.7102467248571415,-6.484344116951601,2.3837451470806847,6.9450277150955895,0,-15,-30,-0.004270205758717918,1.1197971879017399,-0.552124331627177,100,252244.99999999997,62,80.0,0,0,-2,0,0,0
1778185551.9265869,1.135436773300171,0.18042253045678006,1.2709285650048359,3.8343754263257264,0.19041603303863408,1.3315876343080897,3.812993699580643,2,56,-0.9993502581854025,-6.065906930325382,2.138172674508354,6.508894699710462,-1,0,-2,0.041606783772058,-0.06022003725003768,0.03534194359044802,100,252244.99999999997,62,80.0,0,0,-2,0,0,0
1778185551.996639,1.205488920211792,0.18042253045678006,1.2709285650048359,3.8343754263257264,0.10643817491987606,1.2493441822283367,3.814258429927011,2,60,7.398435553690399,2.158438277649921,2.0116996398715337,7.965088818186134,30,0,30,-1.198790641273362,-1.1740318563471392,0.018054126848728955,100,252242.0,62,80.0,0,0,-2,0,0,0
1778185552.068403,1.2772529125213623,0.18042253045678006,1.2709285650048359,3.8343754263257264,0.26954487213450473,1.3481379376760123,3.840961685179864,2,64,-8.912234167772468,-7.720937267117645,-0.6586258854137661,11.809935571412494,-30,9,-30,2.2728208390501856,1.376647985545541,0.3720982402659878,100,252246.99999999997,62,80.0,0,0,-2,0,0,0
1778185552.1401348,1.348984718322754,0.18042253045678006,1.2709285650048359,3.8343754263257264,0.18688702659352308,1.2558511442581495,3.849629619499035,2,67,-0.646449613674302,1.5077420746686387,-1.5254193173308561,2.2401087831692195,28,3,30,-1.1523179239324,-1.2865533271723721,0.1208380887994143,100,252246.99999999997,62,80.0,0,0,-2,0,0,0
1778185552.2114172,1.420267105102539,0.18042253045678006,1.2709285650048359,3.8343754263257264,0.18933814043148922,1.331396594803524,3.8131869479445277,2,71,-0.8915609974709165,-6.046802979868815,2.118847838119864,6.4690202852261125,-1,-14,-30,0.0343859675397577,1.0598052893312817,-0.5112437055045681,100,252250.0,62,80.0,0,0,-2,0,0,0
1778185552.283305,1.492154836654663,0.18042253045678006,1.2709285650048359,3.8343754263257264,0.18688702659352308,1.2558511442581495,3.849629619499035,2,74,-0.646449613674302,1.5077420746686387,-1.5254193173308561,2.2401087831692195,0,13,27,-0.03409641374187616,-1.0508809905984917,0.506938677402604,100,252248.0,62,80.0,0,0,-2,0,0,0
1778185552.354646,1.5634958744049072,0.18042253045678006,1.2709285650048359,3.8343754263257264,0.01797189428363577,1.1809579843485207,3.8031541288864275,2,78,16.24506361731443,8.997058065631514,3.122129743929891,18.830741884080663,30,-18,30,-2.3677134176438197,-1.0497907273485443,-0.6514552083656566,100,252244.0,62,80.0,0,0,-2,0,0,0
1778185552.4259012,1.6347510814666748,0.18042253045678006,1.2709285650048359,3.8343754263257264,0.01797189428363577,1.1809579843485207,3.8031541288864275,2,81,16.24506361731443,8.997058065631514,3.122129743929891,18.830741884080663,10,-1,6,0.0,0.0,0.0,100,252244.0,62,80.0,0,0,-2,0,0,0
1778185552.4975202,1.7063701152801514,0.18042253045678006,1.2709285650048359,3.8343754263257264,0.091786749964754,1.173909373213271,3.8443383825831776,2,85,8.863578049202605,9.701919179156482,-0.996295625745125,13.178879184781591,-20,15,9,1.0306597527322197,-0.09841812657801235,0.5750462063480185,100,252242.0,62,80.5,0,0,-2,0,0,0
1778185552.567617,1.7764668464660645,0.18042253045678006,1.2709285650048359,3.8343754263257264,0.18447531532635963,1.257887654707012,3.8484125225868575,2,88,-0.4052784869579579,1.3040910297823949,-1.4037096261131143,1.9583934181855438,-30,2,-29,1.3222951169545079,1.1980342032071458,0.05812168320480326,100,252248.0,62,80.5,0,0,-2,0,0,0
1778185552.638995,1.8478448390960693,0.18042253045678006,1.2709285650048359,3.8343754263257264,0.18588922277324504,1.3333361952519982,3.8113112176146253,2,92,-0.5466692316464988,-6.240763024716234,2.306420871110104,6.675743225603167,0,-14,-30,0.019808730881723493,1.0570280525550992,-0.5197863319658006,100,252248.0,62,80.5,0,0,-2,0,0,0
1778185552.708508,1.9173579216003418,0.18042253045678006,1.2709285650048359,3.8343754263257264,0.10552740044389242,1.248172660945985,3.8145242826237116,2,96,7.489513001288764,2.2755904058850973,1.9851143702014795,8.075382081029364,30,0,30,-1.1560675981303716,-1.2251439763267429,0.0462224504126797,100,252242.0,62,80.5,0,0,-2,0,0,0
1778185552.7780852,1.9869351387023926,0.18042253045678006,1.2709285650048359,3.8343754263257264,0.18669921231686704,1.3345612027414546,3.810911845937764,2,99,-0.627668186008698,-6.363263773661876,2.3463580387962146,6.811056397589778,-29,-2,-30,1.1666435545117841,1.2416211138304272,-0.05191982140718409,100,252244.0,62,80.5,0,0,-2,0,0,0
1778185552.8475,2.056349992752075,0.18042253045678006,1.2709285650048359,3.8343754263257264,0.2608083244998697,1.3464192486823328,3.840137641373058,2,102,-8.038579404308962,-7.5490683677496895,-0.5762215047331765,11.042609441742298,-30,10,-9,1.0676261327288852,0.1708286519250033,0.421030856225326,100,252244.0,62,80.5,0,0,-2,0,0,0
1778185552.9174201,2.126270055770874,0.18042253045678006,1.2709285650048359,3.8343754263257264,0.19041603303863408,1.3315876343080897,3.812993699580643,2,106,-0.9993502581854025,-6.065906930325382,2.138172674508354,6.508894699710462,24,-11,0,-1.0067538331924817,-0.21212244002490988,-0.3882139205898218,100,252244.0,62,80.5,0,-1,-2,0,0,0
1778185552.987396,2.1962459087371826,0.18042253045678006,1.2709285650048359,3.8343754263257264,0.18841337712221373,1.2500700360389854,3.8319146165122153,2,109,-0.7990846665433676,2.08585289658505,0.24608098135110446,2.2471925729406657,0,6,30,-0.028619242660529925,-1.1649389727103827,0.27039208712014395,100,252241.0,62,80.5,0,-1,-2,0,0,0
1778185553.058902,2.267751932144165,0.18042253045678006,1.2709285650048359,3.8343754263257264,0.18777214202127634,1.33475969254239,3.810716966136978,2,113,-0.7349611564496289,-6.383112753755404,2.3658460188748176,6.847008376924226,0,-8,-30,-0.008967567631159475,1.184370944827772,-0.2964456610122053,100,252241.0,62,80.5,0,-1,-2,0,0,0
1778185553.1291149,2.3379647731781006,0.18042253045678006,1.2709285650048359,3.8343754263257264,0.1811225260512026,1.2612281373274608,3.845309810460494,2,117,-0.06999955944225478,0.9700427677375112,-1.0934384134767772,1.4633832285592767,2,12,26,-0.09470655042800251,-1.0472664847643696,0.4926854377933005,100,252250.0,62,80.5,0,-1,-2,0,0,0
1778185553.200664,2.4095139503479004,0.18042253045678006,1.2709285650048359,3.8343754263257264,0.18585782535898376,1.2569829255000644,3.848418641569008,2,120,-0.5435294902203708,1.3945639504771457,-1.4043215243281448,2.052401486649472,-1,1,2,0.06618244255336989,-0.05933278334314942,0.04345027058991649,100,252240.0,62,80.5,0,-1,-2,0,0,0
1778185553.272008,2.4808578491210938,0.18042253045678006,1.2709285650048359,3.8343754263257264,0.19035682887065808,1.2471748905758282,3.8339197782373495,2,124,-0.9934298413878023,2.3753674429007665,0.04556480883768366,2.575140673896697,-1,-5,4,0.06306080252183756,-0.13747545470449485,-0.2032249930404149,100,252240.0,62,80.5,0,-1,-2,0,0,0
1778185553.341463,2.5503129959106445,0.18042253045678006,1.2709285650048359,3.8343754263257264,0.183290969659059,1.254754484621483,3.8491225907651345,2,127,-0.2868439202278944,1.6174080383352774,-1.4747164439408156,2.2075046516536996,2,6,-1,-0.10173269423803315,0.10912933592410473,0.21888676693535097,100,252235.0,62,80.5,0,0,-2,0,0,0
1778185553.412361,2.621210813522339,0.18042253045678006,1.2709285650048359,3.8343754263257264,0.2627398821777269,1.3423701096237035,3.843176293438202,2,131,-8.231735172094687,-7.144154461886765,-0.8800867112475519,10.935033586510462,-30,-1,-30,1.120611539184573,1.2358014386576626,-0.08387137329812275,100,252244.0,62,80.5,0,0,-2,0,0,0
1778185553.482296,2.691145896911621,0.18042253045678006,1.2709285650048359,3.8343754263257264,0.08959572528656679,1.172593426129314,3.8446390582373944,2,134,9.082680517021327,9.833513887552181,-1.0263631911668014,13.42559131476683,30,1,30,-2.475783948485218,-2.4276325310052935,0.020916037106158202,100,252242.0,62,80.5,0,0,-2,0,0,0
1778185553.553535,2.7623848915100098,0.18042253045678006,1.2709285650048359,3.8343754263257264,0.18370499258897055,1.3328810192969704,3.811746959927768,2,138,-0.32824621321904945,-6.195245429213458,2.262846639795857,6.603732764120479,-30,-13,-30,1.3210358713362917,2.2499979691078047,-0.4617148023362272,100,252242.0,62,80.5,0,0,-2,0,0,0
1778185553.623927,2.8327770233154297,0.18042253045678006,1.2709285650048359,3.8343754263257264,0.18687214865193313,1.24653922956512,3.834465984290222,2,141,-0.6449618195153078,2.4389335439715776,-0.009055796449564113,2.5227870675091846,-1,7,30,0.04499304086594981,-1.2265829648478181,0.322749486054135,100,252240.0,62,80.5,0,0,-2,0,0,0
1778185553.694857,2.9037067890167236,0.18042253045678006,1.2709285650048359,3.8343754263257264,0.1849145327283951,1.3305523502113927,3.814025807014759,2,145,-0.4492002271615031,-5.962378520655687,2.034961931096735,6.316075405556143,0,-8,-30,-0.027599356972108757,1.184455070669154,-0.28817488783964934,100,252248.0,62,80.5,0,0,-2,0,0,0
1778185553.765376,2.9742259979248047,0.18042253045678006,1.2709285650048359,3.8343754263257264,0.18099353501620952,1.2549067476626516,3.850496099175242,2,148,-0.057100455942946104,1.602181734218422,-1.6120672849515572,2.2735451837918523,1,13,27,-0.05560183917117437,-1.072694996441921,0.5171681975051716,100,252248.0,62,80.5,0,0,-2,0,0,0
1778185553.835712,3.0445618629455566,0.18042253045678006,1.2709285650048359,3.8343754263257264,0.08568967692122342,1.1745724944476792,3.844681802341309,2,152,9.473285353555664,9.635607055715667,-1.0306376015582597,13.551762711462873,30,-1,30,-1.3549823844047069,-1.1421520612744376,-0.0826647519329935,100,252250.0,62,80.5,0,0,-2,0,0,0
1778185553.90698,3.1158299446105957,0.18042253045678006,1.2709285650048359,3.8343754263257264,0.1801867474053912,1.340548924281678,3.8297782714790367,2,155,0.02357830513888548,-6.962035927684207,0.4597154846689655,6.977237169659873,-30,-5,-30,1.3259381798475407,2.3289027283502617,-0.20911929315452948,100,252250.0,62,80.5,0,0,-2,0,0,0
1778185553.977196,3.1860458850860596,0.18042253045678006,1.2709285650048359,3.8343754263257264,0.17951421843421744,1.2558561675546263,3.8504922918473516,2,159,0.09083120225626129,1.5072397450209607,-1.6116865521625279,2.2085188472584303,0,8,30,-0.009578009873822959,-1.2061756369502246,0.2950045278614933,100,252250.0,62,80.5,0,0,-2,0,0,0
1778185554.047033,3.255882978439331,0.18042253045678006,1.2709285650048359,3.8343754263257264,0.09810560255448353,1.2505386346973726,3.814888237159735,2,162,8.231692790229653,2.0389930307463278,1.948718916599157,8.701480574480549,30,-13,3,-1.1656930718454703,-0.07614195554151844,-0.5098158153220017,100,252242.0,62,80.5,0,0,-2,0,0,0
1778185554.116748,3.3255980014801025,0.18042253045678006,1.2709285650048359,3.8343754263257264,0.17765986500972808,1.41267517560241,3.7912346999163824,2,166,0.2762665447051976,-14.17466105975742,4.314072640934397,14.819195731010012,-27,-11,-30,1.141135138242998,2.325704472767872,-0.33928895396791425,100,252244.99999999997,62,80.5,0,0,-2,0,0,0
1778185554.189095,3.397944927215576,0.18042253045678006,1.2709285650048359,3.8343754263257264,0.18029759921066002,1.3342639414232895,3.813860625940959,2,170,0.012493124612003581,-6.333537641845366,2.0514800384767273,6.657508955089975,0,6,22,0.03645952020928221,-1.0838226141884757,0.3127420521959041,100,252244.99999999997,62,80.5,0,0,-2,0,0,0
1778185554.258774,3.4676239490509033,0.18042253045678006,1.2709285650048359,3.8343754263257264,0.10129467563152483,1.3322556406324608,3.797750152094537,2,173,7.912785482525522,-6.132707562762496,3.662527423118922,10.660036738582523,30,-8,-3,-1.1338121790205848,-0.028822172555391608,-0.2312098164135531,100,252257.00000000003,62,80.5,0,0,-2,0,0,0
1778185554.328814,3.5376639366149902,0.18042253045678006,1.2709285650048359,3.8343754263257264,0.1759163388320426,1.4145555466488124,3.7910417684612723,2,177,0.4506191624737449,-14.362698164397658,4.333365786445409,15.008937844841522,-25,-5,-30,1.0654151406328936,1.1750416994441473,-0.09577933786933739,100,252257.00000000003,62,80.5,0,0,-2,0,0,0
1778185554.400426,3.6092758178710938,0.18042253045678006,1.2709285650048359,3.8343754263257264,0.16860731263037998,1.2678776980755537,3.8455505884739067,2,180,1.1815217826400075,0.30508669292821367,-1.1175162148180373,1.654664347665692,3,19,30,-0.102064435027528,-2.048233421611966,0.7611700608408279,100,252254.0,62,80.5,0,0,-2,0,0,0
1778185554.4718652,3.6807150840759277,0.18042253045678006,1.2709285650048359,3.8343754263257264,0.08795572205148305,1.2679565079337136,3.828171496481132,2,184,9.2466808405297,0.2972057071122247,0.6203929844594391,9.272234102638134,30,-6,0,-1.1289532334731567,0.001103172839624671,-0.24327086371442597,100,252246.99999999997,62,79.5,0,0,-2,0,0,0
1778185554.54268,3.7515299320220947,0.18042253045678006,1.2709285650048359,3.8343754263257264,0.08795572205148305,1.2679565079337136,3.828171496481132,2,187,9.2466808405297,0.2972057071122247,0.6203929844594391,9.272234102638134,6,0,0,0.0,0.0,0.0,100,252246.99999999997,62,79.5,0,0,-2,0,0,0
1778185554.6125991,3.821449041366577,0.18042253045678006,1.2709285650048359,3.8343754263257264,0.0877981504344596,1.2691699847236362,3.828037783466738,2,191,9.262438002232045,0.17585802811996842,0.6337642858988524,9.285760117584747,6,0,0,-0.0022536273488141896,0.01735543832436308,-0.0019123958478267443,100,252246.99999999997,62,79.5,0,0,-2,0,0,0
1778185554.684053,3.8929028511047363,0.18042253045678006,1.2709285650048359,3.8343754263257264,0.08764884191266464,1.270393838654635,3.8279106632374797,2,194,9.277368854411542,0.05347263502009092,0.6464763088246617,9.300019559193027,6,0,0,-0.00208958098024574,0.017127903123480177,-0.0017790546049807868,100,252253.00000000003,62,79.5,0,0,-2,0,0,0
1778185554.7544708,3.963320732116699,0.18042253045678006,1.2709285650048359,3.8343754263257264,0.09929125251717086,1.336625548962679,3.797261506604747,2,198,8.11312779396092,-6.569698395784318,3.711391972097955,11.079630408243109,1,-13,-28,0.16533315739120796,0.9405524471375724,-0.4352467894841386,100,252246.0,62,79.5,0,0,-2,0,0,0
1778185554.82395,4.032799959182739,0.18042253045678006,1.2709285650048359,3.8343754263257264,0.170180623694128,1.3456764052813952,3.829769630436426,2,201,1.0241906762652047,-7.474784027655934,0.46057958893004347,7.558670277184196,-23,11,-8,1.0202959095900241,0.1302670841475153,0.46788263491734194,100,252246.0,62,79.5,0,0,-2,0,0,0
1778185554.896055,4.104904890060425,0.18042253045678006,1.2709285650048359,3.8343754263257264,0.09809662716587364,1.3397166410505075,3.795783300866269,2,205,8.232590329090641,-6.878807604567161,3.859212545945745,11.401186739198371,30,-14,-3,-0.9997096682685032,-0.08265404540776158,-0.47134542889735753,100,252248.99999999997,62,79.5,0,0,-2,0,0,0
1778185554.967613,4.176462888717651,0.18042253045678006,1.2709285650048359,3.8343754263257264,0.17451205428216343,1.4200389700350482,3.7900026502411293,2,209,0.5910476174616625,-14.911040503021233,4.437277608459711,15.568490573699966,-25,-4,-30,1.0678809993321785,1.1224786954886288,-0.08078273196026395,100,252246.99999999997,62,79.5,0,0,-2,0,0,0
1778185555.040927,4.249776840209961,0.18042253045678006,1.2709285650048359,3.8343754263257264,0.09128609476023886,1.2668921130393307,3.8301476002333428,2,212,8.91364356965412,0.4036451965505172,0.4227826092383591,8.932788829151226,30,13,30,-1.1351994787875368,-2.088918328345488,0.547575859370022,100,252246.99999999997,62,79.5,0,0,-2,0,0,0
1778185555.113172,4.322021961212158,0.18042253045678006,1.2709285650048359,3.8343754263257264,0.1759526183523772,1.4191117629495795,3.789975336811445,2,216,0.4469912104402868,-14.818319794474366,4.440008951428132,15.475660960433437,-28,-16,-30,1.1719341378023753,2.1069886491797725,-0.5560550368609103,100,252244.99999999997,62,79.5,0,0,-2,0,0,0
1778185555.183585,4.39243483543396,0.18042253045678006,1.2709285650048359,3.8343754263257264,0.09280716156877455,1.2645471880815027,3.8302756938427303,2,219,8.761536888800551,0.6381376923333182,0.409973248299611,8.79430647820001,30,13,30,-1.1808274793852758,-2.1951181027093964,0.5723435874004857,100,252250.0,62,79.5,0,0,-2,0,0,0
1778185555.253855,4.46270489692688,0.18042253045678006,1.2709285650048359,3.8343754263257264,0.10086567755917997,1.3376978979343859,3.7957929729818276,2,223,7.955685289760009,-6.676933292955001,3.858245334389876,11.0797303075759,2,-14,-30,0.11467922212103586,1.0409939638412513,-0.49071710097161314,100,252250.0,62,79.5,0,0,-2,0,0,0
1778185555.324074,4.532923936843872,0.18042253045678006,1.2709285650048359,3.8343754263257264,0.17314308949002077,1.413758223210408,3.790998806503062,2,226,0.7279440966759282,-14.282965820557214,4.337661982266416,14.94484281320785,-24,-4,-30,1.02931358811345,1.083186630947035,-0.06827445212057467,100,252254.0,62,79.5,0,0,-2,0,0,0
1778185555.39402,4.602869987487793,0.18042253045678006,1.2709285650048359,3.8343754263257264,0.17538110331789758,1.3498503832532118,3.826501294127237,2,230,0.5041427138882476,-7.892181824837596,0.7874132198489203,7.947371478108743,0,11,16,0.031996285812761815,-0.9136733149171803,0.5075695810891437,100,252248.0,62,79.5,0,0,-2,0,0,0
1778185555.464682,4.673532009124756,0.18042253045678006,1.2709285650048359,3.8343754263257264,0.17454848830213443,1.4128956613882986,3.790969457206207,2,233,0.5874042154645626,-14.196709638346272,4.340596911951922,14.857065316538998,1,-15,-30,-0.011783062477901333,0.8922088085590257,-0.502842065623035,100,252248.0,62,79.5,0,0,-2,0,0,0
1778185555.535604,4.7444539070129395,0.18042253045678006,1.2709285650048359,3.8343754263257264,0.2531825484696968,1.4285544008452624,3.819014065766767,2,237,-7.276001801291673,-15.762583584042655,1.5361360558959536,17.428682033893278,-30,8,-17,1.1087416229545615,0.22078850007160847,0.395429470948101,100,252246.99999999997,62,80.0,0,0,-2,0,0,0
1778185555.6082308,4.817080736160278,0.18042253045678006,1.2709285650048359,3.8343754263257264,0.17749400289860484,1.3409056300222661,3.829699759565334,2,241,0.29285275581752146,-6.997706501743028,0.46756667603924384,7.019421458900226,27,3,24,-1.0421568235829455,-1.2068373609590228,0.14713149292101008,100,252246.99999999997,62,80.0,0,-1,-2,0,0,0
1778185555.67998,4.888829946517944,0.18042253045678006,1.2709285650048359,3.8343754263257264,0.10508478490516016,1.3337614187117341,3.795964145241278,2,244,7.53377455516199,-6.283285370689828,3.841128108444858,10.535259808994567,30,-14,-3,-1.0091988139310324,-0.09957198518169727,-0.47018795267412544,100,252241.0,62,80.0,0,-1,-2,0,0,0
1778185555.749949,4.958798885345459,0.18042253045678006,1.2709285650048359,3.8343754263257264,0.1820594186008655,1.4135533361141142,3.790258238268158,2,248,-0.1636888144085441,-14.26247711092783,4.411718805756815,14.930114205483191,-26,-5,-30,1.100125784177761,1.1403905610042289,-0.0815491426443611,100,252241.0,62,80.0,0,-1,-2,0,0,0
1778185555.819796,5.028645992279053,0.18042253045678006,1.2709285650048359,3.8343754263257264,0.26053908461011144,1.3452824080495986,3.8427681560366636,2,251,-8.011655415333138,-7.435384304476278,-0.8392729710937186,10.96247879675475,-30,18,17,1.1235922209900473,-0.9774338703738041,0.7517837183783213,100,252236.0,62,80.0,0,-1,-2,0,0,0
1778185555.890954,5.099803924560547,0.18042253045678006,1.2709285650048359,3.8343754263257264,0.18576381266328224,1.3318292885051561,3.8136075853997933,2,255,-0.5341282206502179,-6.0900723500320275,2.076784092593309,6.456570788891593,26,-11,0,-1.0508353678831646,-0.1890600121884264,-0.4098007024925033,100,252242.0,62,80.0,0,0,-2,0,0,0
1778185555.960803,5.169652938842773,0.18042253045678006,1.2709285650048359,3.8343754263257264,0.10199375380525444,1.2487925840406855,3.814780751586547,2,258,7.842877665152562,2.213598096415037,1.9594674739179307,8.381542780678476,30,-1,29,-1.1993019474770672,-1.1888028101435895,0.016795744346707272,100,252242.0,62,80.0,0,0,-2,0,0,0
1778185556.032213,5.241062879562378,0.18042253045678006,1.2709285650048359,3.8343754263257264,0.08841533908282173,1.1724794830656315,3.844741130033667,2,262,9.200719137395833,9.844908193920432,-1.0365703707940543,13.514804035781344,11,10,30,-0.19014740224682702,-1.0686621527204736,0.41955473068884225,100,252240.0,62,80.0,0,0,-2,0,0,0
1778185556.105311,5.3141608238220215,0.18042253045678006,1.2709285650048359,3.8343754263257264,0.08841533908282173,1.1724794830656315,3.844741130033667,2,265,9.200719137395833,9.844908193920432,-1.0365703707940543,13.514804035781344,6,0,5,0.0,0.0,0.0,100,252244.0,62,80.0,0,-1,-2,0,0,0
1778185556.1765602,5.3854100704193115,0.18042253045678006,1.2709285650048359,3.8343754263257264,0.17785183179411768,1.249213372820749,3.8517752706203954,2,269,0.25706986626623796,2.1715192184086796,-1.739984429466901,2.7944814271788676,-30,3,-26,1.2552622937446984,1.0769782618029269,0.09872582409869311,100,252244.0,62,80.0,0,-1,-2,0,0,0
1778185556.246752,5.455601930618286,0.18042253045678006,1.2709285650048359,3.8343754263257264,0.2589451067395201,1.3425195216538623,3.8437840930178546,2,272,-7.852257628274003,-7.159095664902648,-0.9408666692128254,10.667512863327177,-30,-2,-30,1.1553088166565937,1.3293015538926596,-0.11384763959649974,100,252239.0,62,80.0,0,0,-2,0,0,0
1778185556.317399,5.526248931884766,0.18042253045678006,1.2709285650048359,3.8343754263257264,0.0999200916185281,1.2473794416598483,3.815248904214305,2,276,8.050243883825194,2.35491233449876,1.9126522111421185,8.602922594852647,30,-11,30,-2.250980399311669,-1.3466966507912634,-0.4039122438603602,100,252244.99999999997,62,80.0,0,0,-2,0,0,0
1778185556.388638,5.597487926483154,0.18042253045678006,1.2709285650048359,3.8343754263257264,0.17387927310481988,1.2520999221911242,3.8505812862035476,2,280,0.654325735196018,1.882864281371166,-1.6205859877821194,2.5689723652851764,-24,13,-1,1.0381839595468494,0.06626259337161827,0.495969688910258,100,252244.99999999997,62,80.0,0,0,-2,0,0,0
1778185556.459742,5.6685919761657715,0.18042253045678006,1.2709285650048359,3.8343754263257264,0.09483601374530659,1.2498439960484449,3.813456895752462,2,283,8.558651671147347,2.108456895639099,2.0918530573264427,9.059357489482757,30,-14,0,-1.1116562236937821,-0.031727111926099456,-0.5221135872963003,100,252238.0,62,80.0,0,-1,-2,0,0,0
1778185556.5294368,5.738286733627319,0.18042253045678006,1.2709285650048359,3.8343754263257264,0.17433634694858213,1.3345357092001215,3.831638164194225,2,287,0.6086183508197923,-6.360714419528568,0.27372621315011614,6.395625869570448,-26,5,-30,1.1406931611339295,1.2151805420716613,0.2608699578557867,100,252254.0,62,80.0,0,-1,-2,0,0,0
1778185556.603654,5.812503814697266,0.18042253045678006,1.2709285650048359,3.8343754263257264,0.17760278553785647,1.25307209744553,3.851300648068437,2,290,0.2819744918923589,1.785646755930581,-1.6925221742710495,2.4764238856549903,0,7,27,0.044011951725720144,-1.0976396616543793,0.2649320559465366,100,252244.99999999997,62,80.0,0,0,-2,0,0,0
1778185556.675542,5.884392023086548,0.18042253045678006,1.2709285650048359,3.8343754263257264,0.0952186689583423,1.2466135574688688,3.81592465317977,2,294,8.520386149843775,2.431500753596705,1.8450773145956223,9.050606960531784,30,-13,2,-1.146003196148602,-0.0898414374397476,-0.49209732279182666,100,252244.99999999997,62,80.0,0,0,-2,0,0,0
1778185556.745808,5.954657793045044,0.18042253045678006,1.2709285650048359,3.8343754263257264,0.09401373733529572,1.2464044139951609,3.8161066390519682,2,297,8.640879312148433,2.4524151009674977,1.8268787273758136,9.166058094901345,6,-1,0,-0.017148202086994795,-0.0029764631317847055,0.0025899648193648318,100,252237.0,62,80.0,0,0,-2,0,0,0
1778185556.815855,6.024704933166504,0.18042253045678006,1.2709285650048359,3.8343754263257264,0.25220917659681097,1.3393548133013469,3.845929079728273,2,301,-7.178664614003091,-6.8426248296511005,-1.1553653402546438,9.984468401931053,-30,10,-30,2.258413962186156,1.3269692259385943,0.4257481550937443,100,252246.0,62,80.0,0,0,-2,0,0,0
1778185556.888006,6.096855878829956,0.18042253045678006,1.2709285650048359,3.8343754263257264,0.09307085200112653,1.2450462234149984,3.816512795768604,2,305,8.735167845565353,2.5882341589837488,1.786263055712256,9.284010397243836,30,-11,30,-2.2056304755586247,-1.3071012308868495,-0.40770475964211417,100,252246.0,62,80.0,0,0,-2,0,0,0
1778185556.9594429,6.168292760848999,0.18042253045678006,1.2709285650048359,3.8343754263257264,0.09214006190893997,1.2436691432093578,3.816944606866416,2,308,8.828246854784009,2.7259421795478023,1.7430819459310243,9.402501686544504,6,-1,1,-0.013029545325598472,-0.019276880047388492,0.0060446520845802015,100,252242.99999999997,62,80.0,0,0,-2,0,0,0
1778185557.0311942,6.240044116973877,0.18042253045678006,1.2709285650048359,3.8343754263257264,0.09121948264888569,1.2422761260157706,3.8174001441743153,2,312,8.920304780789436,2.865243898906522,1.6975282151411086,9.521715287887792,7,-1,1,-0.012830130464044307,-0.01941450683054345,0.006348832029130258,100,252248.0,62,80.0,0,0,-2,0,0,0
1778185557.1009338,6.309783697128296,0.18042253045678006,1.2709285650048359,3.8343754263257264,0.08778705782369423,1.242679732336402,3.815895158483762,2,315,9.263547263308583,2.824883266843381,1.8480267841964437,9.859435905058216,8,-2,0,-0.04921774432239638,0.005787335107807315,-0.0215800795935533,100,252248.0,62,80.0,0,0,-2,0,0,0
1778185557.173156,6.382005929946899,0.18042253045678006,1.2709285650048359,3.8343754263257264,0.07637574225821642,1.1607609920513517,3.8285753260948763,2,319,10.404678819856365,11.016757295348413,0.5800100230850092,15.164520904923409,11,3,30,-0.15800280772458203,-1.1342593144523925,0.17557152577880558,100,252240.0,62,80.0,0,0,-2,0,0,0
1778185557.243863,6.4527130126953125,0.18042253045678006,1.2709285650048359,3.8343754263257264,0.09397874862820021,1.2294951608026317,3.8027706652022593,2,322,8.644378182857984,4.1433404202204205,3.1604761123467107,10.093619433226994,0,-11,-22,0.24895676197840125,0.9720973639351929,-0.36495157047327287,100,252242.0,62,80.0,0,0,-2,0,0,0
1778185557.315767,6.524616956710815,0.18042253045678006,1.2709285650048359,3.8343754263257264,0.08722713905388702,1.240140118058243,3.8166701034946535,2,326,9.319539140289304,3.0788446946592885,1.7705322831072845,9.97335846175906,9,3,-2,-0.09389762504345396,0.14804413584484605,0.19330564522854904,100,252240.0,62,80.0,0,0,-2,0,0,0
1778185557.38718,6.596029996871948,0.18042253045678006,1.2709285650048359,3.8343754263257264,0.08722713905388702,1.240140118058243,3.8166701034946535,2,329,9.319539140289304,3.0788446946592885,1.7705322831072845,9.97335846175906,7,-1,1,0.0,0.0,0.0,100,252239.0,62,80.0,0,0,-2,0,0,0
1778185557.4570508,6.665900707244873,0.18042253045678006,1.2709285650048359,3.8343754263257264,0.08722713905388702,1.240140118058243,3.8166701034946535,2,333,9.319539140289304,3.0788446946592885,1.7705322831072845,9.97335846175906,7,-1,1,0.0,0.0,0.0,100,252239.0,62,80.0,0,0,-2,0,0,0
1778185557.529425,6.738274812698364,0.18042253045678006,1.2709285650048359,3.8343754263257264,0.09789754446165788,1.3107713338224158,3.7851407505783476,2,337,8.252498599512217,-3.9842768817579977,4.923467574737872,10.402823095917645,2,-14,-28,0.1474340213383065,0.9759183249534136,-0.43564411219655286,90,252236.0,62,79.5,0,0,-2,0,0,0
1778185557.6006799,6.809529781341553,0.18042253045678006,1.2709285650048359,3.8343754263257264,0.09098717242574217,1.2386094977699544,3.8184217302586196,2,340,8.943535803103789,3.2319067234881427,1.5953696067106726,9.642471566602795,9,10,26,-0.09698091469971197,-1.0127270761119003,0.46706889798699597,90,252239.0,62,79.5,0,0,-2,0,0,0
1778185557.6727831,6.881633043289185,0.18042253045678006,1.2709285650048359,3.8343754263257264,0.08844194186142695,1.240434520251633,3.816431407209278,2,344,9.19805885953531,3.0494044753202942,1.7944019116448384,9.855101859346462,8,-2,0,-0.0352997977562208,0.025311233256048626,-0.02760378650812244,90,252239.0,62,79.5,0,0,-2,0,0,0
1778185557.743111,6.951960802078247,0.18042253045678006,1.2709285650048359,3.8343754263257264,0.16781909098076386,1.2418798452621471,3.8541273457922895,2,347,1.2603439476016192,2.9048719742688744,-1.9751919466563184,3.732041167951495,-25,14,0,1.1286745160956528,0.020551273571069315,0.5360036951564865,90,252242.0,62,79.5,0,0,-2,0,0,0
1778185557.812499,7.02134895324707,0.18042253045678006,1.2709285650048359,3.8343754263257264,0.17356264928993925,1.3159860339838834,3.8193490657683196,2,351,0.6859881166840803,-4.50574689790475,1.5026360557406804,4.798984259217981,0,-13,-30,0.08277433844866622,1.0679948589699975,-0.5012135276432642,90,252234.0,62,79.5,0,0,-2,0,0,0
1778185557.883049,7.0918989181518555,0.18042253045678006,1.2709285650048359,3.8343754263257264,0.08339223310790578,1.2448964566348213,3.832960696718093,2,354,9.703029734887428,2.6032108370014573,0.1414729607633447,10.047164142016323,30,4,25,-1.2781071727495295,-1.0076486564522773,0.1929360414019161,90,252240.0,62,79.5,0,0,-2,0,0,0
1778185557.952467,7.161316871643066,0.18042253045678006,1.2709285650048359,3.8343754263257264,0.1702852836562665,1.2426194879951118,3.8535583571845304,2,358,1.013724680051356,2.830907700972407,-1.918293085880407,3.566724618148516,-28,8,1,1.251737427830717,-0.032800860947273344,0.2967195002233162,90,252240.0,62,79.5,0,0,-2,0,0,0
1778185558.02257,7.231419801712036,0.18042253045678006,1.2709285650048359,3.8343754263257264,0.16936518946984258,1.3273724390542139,3.832727399118684,2,361,1.1057340986937474,-5.644387404937801,0.16480272070422686,5.7540348461567445,2,-8,-30,-0.01312490341728503,1.2089787256498288,-0.2971481797601343,90,252239.0,62,79.5,0,0,-2,0,0,0
1778185558.0930188,7.301868677139282,0.18042253045678006,1.2709285650048359,3.8343754263257264,0.016429567736339412,1.243286528453293,3.795648222393249,2,365,16.399296272044065,2.764203655154285,3.8727203932477305,17.075587934525814,30,-15,30,-2.170873854351908,-1.1935734969645895,-0.5263274466847582,90,252235.0,62,79.5,0,0,-2,0,0,0
1778185558.164873,7.373722791671753,0.18042253045678006,1.2709285650048359,3.8343754263257264,0.17091558219767478,1.326703231471201,3.832714943565928,2,368,0.950694825910528,-5.57746664663652,0.1660482759798576,5.6603468865708,-30,12,-30,2.149995382540321,1.1609175558097267,0.5158608023195159,90,252235.0,62,79.5,0,0,-2,0,0,0
1778185558.235976,7.444825887680054,0.18042253045678006,1.2709285650048359,3.8343754263257264,0.08721435517119369,1.2447074761888395,3.8325327109952996,2,372,9.320817528558637,2.6221088815996385,0.18427153304267918,9.684371450204681,30,0,29,-1.177181187957126,-1.1531952880475016,-0.0025629343989035497,90,252235.0,62,79.5,0,-1,-2,0,0,0
1778185558.306135,7.514984846115112,0.18042253045678006,1.2709285650048359,3.8343754263257264,0.17661644718893565,1.324907691311331,3.83432939812625,2,375,0.3806083267844401,-5.397912630649504,0.00460281994763001,5.41131635117506,-29,0,-30,1.274279065880025,1.1431215187826276,0.0256088056468735,90,252235.0,62,79.5,0,0,-2,0,0,0
1778185558.376014,7.584863901138306,0.18042253045678006,1.2709285650048359,3.8343754263257264,0.17661644718893565,1.324907691311331,3.83432939812625,2,379,0.3806083267844401,-5.397912630649504,0.00460281994763001,5.41131635117506,2,0,-4,0.0,0.0,0.0,90,252235.0,62,79.5,0,0,-2,0,0,0
1778185558.4461088,7.654958724975586,0.18042253045678006,1.2709285650048359,3.8343754263257264,0.07332143837956329,1.1701280440133726,3.861324562872563,2,382,10.710109207721677,10.08005209914633,-2.6949136546836616,14.952473011814114,30,10,30,-1.4736467424351298,-2.2081466051939493,0.38512351224364455,90,252236.0,62,79.5,0,0,-2,0,0,0
1778185558.5152571,7.724107027053833,0.18042253045678006,1.2709285650048359,3.8343754263257264,0.005330326595177848,1.1700877348248393,3.8240935561187053,2,386,17.50922038616022,10.084083017999657,1.0281870207021093,20.23162616782393,30,-14,6,-0.983265094599833,-0.0005829382258388283,-0.5384225734382851,90,252242.0,62,79.5,0,0,-2,0,0,0
1778185558.5868301,7.795680046081543,0.18042253045678006,1.2709285650048359,3.8343754263257264,0.1766569228289313,1.2406671998991565,3.854102117628763,2,389,0.37656076278487494,3.026136510567934,-1.9726691303036503,3.631903589898052,-30,11,-23,2.3937315843477727,0.9861183171132117,0.4192719815052036,90,252242.0,62,79.5,0,0,-2,0,0,0
1778185558.658935,7.8677849769592285,0.18042253045678006,1.2709285650048359,3.8343754263257264,0.1635703542090564,1.1639379590573204,3.8845386802862327,2,393,1.6852176247723643,10.699060594751542,-5.016325396050636,11.936221199863514,7,13,30,-0.1814933938716918,-1.064133061468361,0.42211485798524107,90,252238.0,62,79.5,0,0,-2,0,0,0
1778185558.730709,7.939558982849121,0.18042253045678006,1.2709285650048359,3.8343754263257264,0.07398804582587204,1.1725925217424393,3.860723439919102,2,397,10.643448463090802,9.833604326239653,-2.6348013593375796,14.728372192291866,30,-7,3,-1.2481163239043847,0.12058073919401568,-0.3318087108536921,90,252225.0,62,79.5,0,0,-2,0,0,0
1778185558.8018858,8.010735750198364,0.18042253045678006,1.2709285650048359,3.8343754263257264,0.08165666623086698,1.1610572835368775,3.8470291193808817,2,400,9.876586422591307,10.987128146795833,-1.265369305515529,14.827848925463497,5,-4,10,0.10774049862881956,-0.16206465445335302,-0.19239874257040307,90,252244.0,62,79.5,0,0,-2,0,0,0
1778185558.8745239,8.083373785018921,0.18042253045678006,1.2709285650048359,3.8343754263257264,0.08941845163910356,1.2496884831695394,3.8309601780112668,2,404,9.10040788176765,2.1240081835296465,0.3415248314459607,9.351228453456468,5,-6,-29,0.10685566352959736,1.2201761770071888,-0.22121938471093341,90,252244.0,62,79.5,0,0,-2,0,0,0
1778185558.945303,8.154152870178223,0.18042253045678006,1.2709285650048359,3.8343754263257264,0.09259208266138319,1.2471926566417135,3.8328585309746996,2,407,8.783044779539686,2.3735908363122338,0.15168953510267258,9.099385626111491,6,0,1,0.044838542560090656,-0.035262203830531885,0.02682081803064108,90,252234.0,62,79.5,0,0,-2,0,0,0
1778185559.01585,8.224699974060059,0.18042253045678006,1.2709285650048359,3.8343754263257264,0.17225188045092021,1.257949802237786,3.866783769695452,2,411,0.8170650005859842,1.29787627670499,-3.2408343369725756,3.5853988961504206,-25,13,-3,1.1291717647681832,0.15248174629663466,0.4808877594405028,90,252234.0,62,79.5,0,0,-2,0,0,0
1778185559.087565,8.296414852142334,0.18042253045678006,1.2709285650048359,3.8343754263257264,0.1760069165177527,1.255547889237178,3.8686183702184005,2,415,0.44156139390273685,1.538067576765778,-3.4242943892674127,3.7797381390318256,1,2,1,0.052360628188260774,-0.033492534113385354,0.025581867696178925,100,252240.0,62,79.5,0,0,-2,0,0,0
1778185559.1610198,8.369869709014893,0.18042253045678006,1.2709285650048359,3.8343754263257264,0.09807148295967671,1.3341572297865139,3.813008252394625,2,418,8.235104749710334,-6.322866478167799,2.1367173931101213,10.600054337476724,30,-21,-30,-1.0609976913206844,1.0701721287908845,-0.7570652260647216,100,252240.0,62,79.5,0,0,-2,0,0,0
1778185559.2322109,8.441060781478882,0.18042253045678006,1.2709285650048359,3.8343754263257264,0.17178099617978182,1.2678150654075409,3.8627441321259384,2,422,0.8641534276998236,0.3113499597295011,-2.8368705800212,2.98186764156606,-22,18,22,1.0353757945898308,-0.931888818117342,0.6986252350176524,100,252248.99999999997,62,79.5,0,0,-2,0,0,0
1778185559.3020449,8.510894775390625,0.18042253045678006,1.2709285650048359,3.8343754263257264,0.17980721938118105,1.2607665530142182,3.8672847831496444,2,425,0.061531107559900655,1.0162011990617614,-3.2909356823918046,3.444808938070691,0,3,2,0.11493289659965379,-0.10093239693881145,0.06502064065596133,100,252248.99999999997,62,79.5,0,0,-2,0,0,0
1778185559.3744571,8.583307027816772,0.18042253045678006,1.2709285650048359,3.8343754263257264,0.1766315413236701,1.353500433041417,3.8427061911523315,2,429,0.3790989133109962,-8.257186803658122,-0.8330764826605108,8.3077594044689,3,-8,-30,-0.04385553481780999,1.2806379710640434,-0.33942587302308264,100,252246.99999999997,62,79.5,0,-1,-2,0,0,0
1778185559.445672,8.654521942138672,0.18042253045678006,1.2709285650048359,3.8343754263257264,0.17869972728478623,1.268157341019656,3.8643674942380244,2,432,0.17228031719938308,0.2771223985179816,-2.9992067912298026,3.0169054854293407,1,9,29,0.029041472292835997,-1.1983879056007942,0.3041680705783257,100,252239.0,62,79.5,0,0,-2,0,0,0
1778185559.517014,8.725863933563232,0.18042253045678006,1.2709285650048359,3.8343754263257264,0.18089268775012235,1.3453697210347935,3.8265491697841356,2,436,-0.04701572933422937,-7.44411560299576,0.7826256541590748,7.485290275207614,1,-14,-30,0.030738705516162045,1.0822851797848174,-0.5300990860884387,100,252236.0,62,79.0,0,0,-2,0,0,0
1778185559.588275,8.797124862670898,0.18042253045678006,1.2709285650048359,3.8343754263257264,0.18184439054915813,1.423573717860621,3.805167309497474,2,440,-0.14218600923780744,-15.264515285578506,2.920811682825253,15.54209717674585,2,-9,-30,0.013355183702388742,1.0974316193333848,-0.3000502597202538,100,252236.0,62,79.0,0,0,-2,0,0,0
1778185559.659088,8.867937803268433,0.18042253045678006,1.2709285650048359,3.8343754263257264,0.18587174448258137,1.3453411000440152,3.8279857175999377,2,443,-0.5449214025801313,-7.441253503917933,0.6389708725788701,7.488489622117735,0,7,21,0.05687313504339174,-1.1047785497461733,0.3222350026692494,100,252252.0,62,79.0,0,0,-2,0,0,0
1778185559.728867,8.937716960906982,0.18042253045678006,1.2709285650048359,3.8343754263257264,0.18180888693091213,1.2717996040115604,3.863801957842137,2,447,-0.13863564741320722,-0.08710390067245832,-2.9426531516410837,2.9472045234610436,3,14,25,-0.058224514155279766,-1.0539177961045838,0.5132799170165491,100,252251.00000000003,62,79.0,0,0,-2,0,0,0
1778185559.7992342,9.008084058761597,0.18042253045678006,1.2709285650048359,3.8343754263257264,0.2532308598373143,1.5108757189094844,3.789411844783606,2,450,-7.2808329380534245,-23.994715390464847,4.496358154212032,25.474970688740804,-26,-29,-30,1.014991026828581,3.397555422732937,-1.0571718221522914,100,252251.00000000003,62,79.0,0,0,-2,0,0,0
1778185559.872498,9.081347942352295,0.18042253045678006,1.2709285650048359,3.8343754263257264,0.18688542813933762,1.2714506183241432,3.8652677677345295,2,454,-0.6462897682557561,-0.05220533193073251,-3.089234140880315,3.1565461248672757,24,27,30,-0.9055680431660882,-3.267982651901614,1.0353794971435875,100,252244.0,62,79.0,0,-1,-2,0,0,0
1778185559.942801,9.15165090560913,0.18042253045678006,1.2709285650048359,3.8343754263257264,0.18395635359449403,1.2741472013848116,3.8635510303716725,2,457,-0.35338231377139706,-0.321863637997577,-2.91756040459461,2.9564563205989915,3,0,-2,-0.0416636000696426,0.03835660597714907,-0.024419132328538345,100,252250.0,62,79.0,0,0,-2,0,0,0
1778185560.01333,9.222179889678955,0.18042253045678006,1.2709285650048359,3.8343754263257264,0.18863300111399472,1.3498480552271157,3.827320518510309,2,461,-0.8210470657214669,-7.891949022227984,0.7054907815417177,7.965845523007298,0,-13,-30,0.06630816509239354,1.0733297075052104,-0.5136967778451877,100,252248.0,62,79.0,0,-1,-2,0,0,0
1778185560.082415,9.29126501083374,0.18042253045678006,1.2709285650048359,3.8343754263257264,0.1878981176488037,1.2737546584680417,3.8651148141606275,2,464,-0.7475587192023653,-0.28260934632058365,-3.0739387834901155,3.1761315662182383,2,15,25,-0.010637362327910094,-1.1014440662061924,0.5470685296424428,100,252244.0,62,79.0,0,0,-2,0,0,0
1778185560.1542761,9.363126039505005,0.18042253045678006,1.2709285650048359,3.8343754263257264,0.10339381192656383,1.2801433475262751,3.8431164976492567,2,468,7.702871853021623,-0.9214782521439258,-0.8741071323530303,7.806882875519359,30,-7,-4,-1.1759406633157612,0.08890339000655151,-0.3061230394015693,100,252244.0,62,79.0,0,0,-2,0,0,0
1778185560.226259,9.43510890007019,0.18042253045678006,1.2709285650048359,3.8343754263257264,0.1850111015884126,1.2764456196640137,3.863428038640963,2,471,-0.45885711316325517,-0.5517054659177845,-2.9052612315236814,2.9925693968258402,-26,8,0,1.1338433763401021,-0.05136955982615973,0.28217190637086426,100,252242.0,62,79.0,0,0,-2,0,0,0
1778185560.297659,9.506508827209473,0.18042253045678006,1.2709285650048359,3.8343754263257264,0.18963623905325877,1.350967307113701,3.8271856398025954,2,475,-0.9213708596478715,-8.003874210886508,0.7189786523130959,8.088748787493918,0,-13,-30,0.06477790174524622,1.043722177815606,-0.5075971403677838,100,252246.0,62,79.0,0,0,-2,0,0,0
1778185560.367639,9.576488971710205,0.18042253045678006,1.2709285650048359,3.8343754263257264,0.1890065537893567,1.2749024693336835,3.8650437761350305,2,478,-0.8584023332576657,-0.39739043288475884,-3.0668349809304107,3.2094003368462736,2,15,25,-0.00899805606853909,-1.0869488527452438,0.5409839691319706,100,252246.0,62,79.0,0,0,-2,0,0,0
1778185560.4387379,9.647587776184082,0.18042253045678006,1.2709285650048359,3.8343754263257264,0.18664482459199516,1.3533004318361037,3.825363437000744,2,482,-0.6222294135215106,-8.237186683126785,0.9011989324982483,8.309667466972945,2,-14,-30,-0.033217565539084344,1.1026621767068552,-0.5581013552607048,100,252246.99999999997,62,79.0,0,0,-2,0,0,0
1778185560.508554,9.717403888702393,0.18042253045678006,1.2709285650048359,3.8343754263257264,0.18614160863625495,1.2775809156197067,3.863378599744776,2,486,-0.5719078179474896,-0.6652350614870794,-2.9003173419049677,3.0300919000941002,2,14,25,-0.00720773382517156,-1.08455646533654,0.5445041462894685,100,252244.0,62,79.5,0,0,-2,0,0,0
1778185560.580853,9.789702892303467,0.18042253045678006,1.2709285650048359,3.8343754263257264,0.1907259870052458,1.3509930906273815,3.82712502899587,2,489,-1.0303456548465735,-8.006452562254562,0.725039732985655,8.10497238826276,0,-13,-30,0.06340859680841747,1.0153967738302838,-0.5014394243791152,100,252244.0,62,79.5,0,0,-2,0,0,0
1778185560.650184,9.859033823013306,0.18042253045678006,1.2709285650048359,3.8343754263257264,0.2637222094638221,1.4418756579799021,3.8127555022290243,2,493,-8.329967900704203,-17.094709297506625,2.1619924096702103,19.13874766991021,-28,-6,-30,1.0528666168362466,1.310851685128516,-0.20725997213255856,100,252242.0,62,79.5,0,0,-2,0,0,0
1778185560.7199721,9.928822040557861,0.18042253045678006,1.2709285650048359,3.8343754263257264,0.27791471133991685,1.2806934629318687,3.8793367508001957,2,496,-9.749218088313679,-0.9764897927032834,-4.496132447446932,10.780352157222948,-8,26,30,0.20336530112742457,-2.309590368103729,0.9540471287816346,100,252248.99999999997,62,79.5,0,0,-2,0,0,0
1778185560.790393,9.999243021011353,0.18042253045678006,1.2709285650048359,3.8343754263257264,0.27791471133991685,1.2806934629318687,3.8793367508001957,2,500,-9.749218088313679,-0.9764897927032834,-4.496132447446932,10.780352157222948,-3,2,-2,0.0,0.0,0.0,100,252248.99999999997,62,79.5,0,0,-2,0,0,0
1778185560.8623848,10.071234703063965,0.18042253045678006,1.2709285650048359,3.8343754263257264,0.277189178449751,1.3574578615547899,3.8402237467435945,2,503,-9.676664799297093,-8.6529296549954,-0.5848320417868091,12.99434730062864,-3,-13,-30,-0.01007800997948112,1.0662953890537092,-0.5432989331742106,100,252238.0,62,79.5,0,0,-2,0,0,0
1778185560.934027,10.142876863479614,0.18042253045678006,1.2709285650048359,3.8343754263257264,0.2766148645780879,1.273084584844069,3.86096231142961,2,507,-9.619233412130788,-0.2156019839233192,-2.6586885103883517,9.982222209898756,-3,8,27,-0.00801642312754175,-1.1777042487441576,0.28947430627015713,100,252240.0,62,79.5,0,-1,-2,0,0,0
1778185561.0049531,10.213803052902222,0.18042253045678006,1.2709285650048359,3.8343754263257264,0.27747584498580546,1.355302281319832,3.840398972199483,2,510,-9.705331452902541,-8.437371631499623,-0.6023545873756753,12.874219576644888,-3,-7,-30,0.01213910425368353,1.1592008134805634,-0.28992589898777626,100,252240.0,62,79.5,0,-1,-2,0,0,0
1778185561.074531,10.28338098526001,0.18042253045678006,1.2709285650048359,3.8343754263257264,0.2731849090025036,1.3563379478832176,3.839031192649236,2,514,-9.276237854572353,-8.540938287838173,-0.46557663235096136,12.617962480997177,-1,0,-8,-0.061670932692232866,0.014884986205968651,-0.019658237948400877,100,252244.0,62,79.5,0,-1,-2,0,0,0
1778185561.1448581,10.353708028793335,0.18042253045678006,1.2709285650048359,3.8343754263257264,0.361771981208045,1.367173412348393,3.8485376354548833,2,517,-18.134945075126492,-9.62448473435571,-1.4162209129156889,20.57942226968193,-30,3,-12,1.2596444803422386,0.1540725149357496,0.1351747823885494,100,252242.0,62,79.5,0,-1,-2,0,0,0
1778185561.213928,10.422777891159058,0.18042253045678006,1.2709285650048359,3.8343754263257264,0.19620562911067263,1.259566715683082,3.8302161923115987,2,521,-1.5783098653892575,1.136184932175377,0.4159234014127655,1.9887107650762557,30,-7,30,-2.397085305030781,-1.5579399318263722,-0.26525958668157035,100,252244.0,61,79.5,0,0,-2,0,0,0
1778185561.288691,10.497540950775146,0.18042253045678006,1.2709285650048359,3.8343754263257264,0.11422784479476489,1.257081719725603,3.813070200804457,2,524,6.619468566201517,1.3846845279232856,2.1305225521269566,7.090404902819138,30,-7,0,-1.0965011964045714,-0.033238285996314676,-0.22933774507339888,100,252244.0,61,79.5,0,0,-2,0,0,0
1778185561.356711,10.565560817718506,0.18042253045678006,1.2709285650048359,3.8343754263257264,0.18582945094479486,1.172154572340927,3.86637229464794,2,528,-0.5406920488014805,9.877399266390885,-3.19968683222136,10.396795659414833,-23,20,30,1.0526572510006986,-1.24856385643029,0.7836253765075459,100,252242.0,61,79.5,0,0,-2,0,0,0
1778185561.427915,10.636765003204346,0.18042253045678006,1.2709285650048359,3.8343754263257264,0.19428181606451578,1.256207425813816,3.8305747329431554,2,532,-1.3859285607735723,1.4721139191019805,0.3800693382570941,2.057272482746241,-1,-12,-29,0.11870601513167808,1.1804482124102715,-0.502745189212276,100,252240.0,61,79.5,0,0,-2,0,0,0
1778185561.4978602,10.70671010017395,0.18042253045678006,1.2709285650048359,3.8343754263257264,0.2738034846143742,1.341659819130765,3.8242967568096757,2,535,-9.338095415759415,-7.073125412592907,1.0078669516050631,11.757760198619135,-30,-3,-30,1.13691555227117,1.2217066959544465,-0.0897557713903501,100,252240.0,61,79.5,0,0,-2,0,0,0
1778185561.566401,10.775250911712646,0.18042253045678006,1.2709285650048359,3.8343754263257264,0.19872095641819665,1.3271904164590762,3.7956905510231853,2,538,-1.8298425961416593,-5.626185145424034,3.8684875302541055,7.068767855077433,27,-12,0,-1.0954426495780254,-0.211106380955523,-0.4173601850386632,100,252244.0,61,79.5,0,0,-2,0,0,0
1778185561.6386182,10.847468137741089,0.18042253045678006,1.2709285650048359,3.8343754263257264,0.19359844638942858,1.252912218119672,3.830978111653064,2,542,-1.3175915932648525,1.8016346885163959,0.3397314672662244,2.2577317438877995,2,11,25,-0.07093196887333493,-1.0285385139294911,0.4886307958710708,100,252246.0,61,79.5,0,0,-2,0,0,0
1778185561.708129,10.91697883605957,0.18042253045678006,1.2709285650048359,3.8343754263257264,0.19376021878052097,1.2518616143906125,3.831095960987364,2,545,-1.333768832374091,1.9066950614223366,0.32794653383625416,2.3498881429804457,1,0,0,0.002327302055737991,-0.015114273838047079,0.0016954128954329401,100,252246.0,61,79.5,0,0,-2,0,0,0
1778185561.775866,10.984715938568115,0.18042253045678006,1.2709285650048359,3.8343754263257264,0.1882991800070971,1.1656404875696,3.84748010366599,2,549,-0.7876649550317055,10.528807743523583,-1.310467734026366,10.639245004387833,3,6,30,-0.08062108609878837,-1.2728788747663928,0.24187841038165708,100,252238.0,61,79.5,0,-1,-2,0,0,0
1778185561.843117,11.051966905593872,0.18042253045678006,1.2709285650048359,3.8343754263257264,0.19411176101164995,1.2497944487353263,3.8313507975021466,2,552,-1.3689230554869898,2.113411626950956,0.3024628823579789,2.536127526757994,-1,-6,-30,0.08643118845156007,1.2513420235800572,-0.2398375350895102,100,252237.0,61,79.5,0,0,-2,0,0,0
1778185561.9129019,11.12175178527832,0.18042253045678006,1.2709285650048359,3.8343754263257264,0.19537214051765517,1.3254108353379186,3.7945269240175046,2,556,-1.4949610060875114,-5.448227033308273,3.984850230822179,6.913545948229231,0,-16,-30,0.018060925399662114,1.0835640463165206,-0.5276769645681327,100,252237.0,61,79.5,0,0,-2,0,0,0
1778185561.982198,11.19104790687561,0.18042253045678006,1.2709285650048359,3.8343754263257264,0.27193279461085795,1.4122037179597808,3.783342174757404,2,559,-9.15102641540779,-14.127515295494497,5.10332515683225,17.5889709913991,-30,-7,-30,1.1048331757746863,1.252492644916746,-0.16140512632294438,100,252232.00000000003,61,79.5,0,0,-2,0,0,0
1778185562.0497122,11.258562088012695,0.18042253045678006,1.2709285650048359,3.8343754263257264,0.1988153836452914,1.3222347184689764,3.796615143704249,2,563,-1.8392853188511333,-5.130615346414058,3.776028262147735,6.630578689189896,27,2,27,-1.0829933761190773,-1.3325941006101485,0.1965952741083373,100,252231.0,61,79.5,0,0,-2,0,0,0
1778185562.118305,11.327154874801636,0.18042253045678006,1.2709285650048359,3.8343754263257264,0.1877717768718733,1.1611405197099112,3.8480180773909023,2,566,-0.7349246415093241,10.97880452949247,-1.3642651065175926,11.087627447130583,5,19,30,-0.16100245070081784,-2.348558883527376,0.7493926999178466,100,252231.0,61,79.5,0,0,-2,0,0,0
1778185562.18588,11.394729852676392,0.18042253045678006,1.2709285650048359,3.8343754263257264,0.18795315635763754,1.1600652156160858,3.8481502964575633,2,569,-0.7530625900857485,11.086334938875009,-1.377487013183698,11.196936907609919,1,0,6,0.002684122014814629,-0.015912755396211457,0.0019566275982525762,100,252237.0,61,79.5,0,0,-2,0,0,0
1778185562.255681,11.464530944824219,0.18042253045678006,1.2709285650048359,3.8343754263257264,0.11912902067997522,1.2397187663627118,3.797867860715264,2,573,6.129350977680484,3.120979864212403,3.650756561046231,7.787007267778429,30,-20,-28,-0.9860037079635403,1.1411504934325818,-0.7203674641051379,100,252238.0,61,79.5,0,-1,-2,0,0,0
1778185562.325601,11.534451007843018,0.18042253045678006,1.2709285650048359,3.8343754263257264,0.19891071240164537,1.3183545781866315,3.7975559940157475,2,576,-1.8488181944865318,-4.742601318179562,3.681943230997886,6.282284770348612,-27,-2,-30,1.1410414733210397,1.1246530456183583,-0.004460332071392738,100,252238.0,61,79.5,0,-1,-2,0,0,0
1778185562.3971992,11.606049060821533,0.18042253045678006,1.2709285650048359,3.8343754263257264,0.19891071240164537,1.3183545781866315,3.7975559940157475,2,580,-1.8488181944865318,-4.742601318179562,3.681943230997886,6.282284770348612,0,-2,-5,0.0,0.0,0.0,100,252239.0,61,79.5,0,0,-2,0,0,0
1778185562.469667,11.678516864776611,0.18042253045678006,1.2709285650048359,3.8343754263257264,0.1949132520103588,1.3194400768851138,3.795989248759637,2,584,-1.4490721553578751,-4.851151188027791,3.838617756608942,6.353618200827811,2,-3,-5,-0.05516188118194588,0.014979047787279121,-0.021619880424164132,100,252237.0,61,79.5,0,0,-2,0,0,0
1778185562.540676,11.749526023864746,0.18042253045678006,1.2709285650048359,3.8343754263257264,0.1924190307296696,1.2389833496012592,3.814061762138142,2,587,-1.1996500272889539,3.1945215403576643,2.031366418758429,3.971218652635855,2,4,29,-0.035125345979572134,-1.1330471775337279,0.25450960989516835,100,252236.0,61,79.0,0,0,-2,0,0,0
1778185562.610819,11.819669008255005,0.18042253045678006,1.2709285650048359,3.8343754263257264,0.19855490553206456,1.3163208305461973,3.7982017203286067,2,591,-1.8132375075284508,-4.539226554136144,3.6173705997119665,6.080935620785932,-1,-8,-30,0.08747667148372858,1.102569011244957,-0.22611016550556068,100,252236.0,61,79.0,0,0,-2,0,0,0
1778185562.6780741,11.886924028396606,0.18042253045678006,1.2709285650048359,3.8343754263257264,0.2804729077108076,1.3239334200265023,3.8104140034293863,2,594,-10.005037725402751,-5.300485502166641,2.3961422896340068,11.573133729357123,-30,2,-8,1.2180206326051108,0.11318990707722781,0.1815817328590095,100,252239.0,61,79.0,0,0,-2,0,0,0
1778185562.747989,11.956838846206665,0.18042253045678006,1.2709285650048359,3.8343754263257264,0.19380297542830782,1.143210502887886,3.8352081836452596,2,597,-1.3380444971527767,12.77180621169498,-0.08327573195332505,12.841975386714601,30,8,30,-1.2396504059834739,-2.58490149584021,0.35463412467487254,90,252235.0,61,79.0,0,0,-2,0,0,0
1778185562.8164039,12.025253772735596,0.18042253045678006,1.2709285650048359,3.8343754263257264,0.19380297542830782,1.143210502887886,3.8352081836452596,2,601,-1.3380444971527767,12.77180621169498,-0.08327573195332505,12.841975386714601,0,0,7,0.0,0.0,0.0,90,252234.0,61,79.0,0,0,-2,0,0,0
1778185562.885786,12.094635963439941,0.18042253045678006,1.2709285650048359,3.8343754263257264,0.1224647837903663,1.2281315291368915,3.7830343501548778,2,604,5.7957746666413765,4.279703586794437,5.13410761708486,8.846803253215926,30,-22,-29,-1.0281916859894322,1.223960001650488,-0.7519773152264271,90,252234.0,61,79.0,0,0,-2,0,0,0
1778185562.9556549,12.164504766464233,0.18042253045678006,1.2709285650048359,3.8343754263257264,0.19408027225190105,1.1421926293635138,3.835399262687499,2,608,-1.3657741795121,12.873593564132202,-0.10238363617727231,12.946243963901068,-24,18,30,1.024999504237041,-1.2300038937764313,0.7494748767116431,90,252239.0,61,79.0,0,-1,-2,0,0,0
1778185563.025921,12.234771013259888,0.18042253045678006,1.2709285650048359,3.8343754263257264,0.2013544993885974,1.2362645075526948,3.8166783470767323,2,611,-2.093196893181734,3.4664057452141073,1.7697079248994108,4.419197683237401,-2,-8,-30,0.10352377518968647,1.3387918450057152,-0.26642828476679997,90,252242.0,61,79.0,0,0,-2,0,0,0
1778185563.095211,12.304060935974121,0.18042253045678006,1.2709285650048359,3.8343754263257264,0.20504631866698175,1.3094436679678232,3.7822879937248177,2,615,-2.46237882102017,-3.8515102962987324,5.2087432600908645,6.930255938293032,-1,-15,-30,0.053280753301027856,1.0561299182990151,-0.49632546847754155,90,252242.0,61,79.0,0,0,-2,0,0,0
1778185563.166079,12.374928951263428,0.18042253045678006,1.2709285650048359,3.8343754263257264,0.1976512832486541,1.3091258967049733,3.7810904501001352,2,618,-1.7228752791874054,-3.8197331700137394,5.328497622559114,6.778757086026643,3,-4,-4,-0.1043494076719754,-0.004483987050472396,-0.016898224393525445,90,252244.99999999997,61,79.0,0,0,-2,0,0,0
1778185563.236959,12.44580888748169,0.18042253045678006,1.2709285650048359,3.8343754263257264,0.28146613205559223,1.23758640362322,3.832339097889677,2,622,-10.104360159881217,3.334216138161583,0.2036328436049395,10.642206436240869,-30,18,27,1.1824904659739779,-1.0093052688628348,0.7230346205692252,90,252229.0,61,79.0,0,0,-2,0,0,0
